############第二圈数据#############################################################################
$GNRMC,060050.00,A,3030.87391,N,11420.30571,E,0.072,,220119,,,A*63
$GNVTG,,T,,M,0.072,N,0.133,K,A*39
$GNGGA,060050.00,3030.87391,N,11420.30571,E,1,12,0.97,23.8,M,-10.8,M,,*53
$GNGSA,A,3,14,22,26,31,32,10,25,,,,,,1.68,0.97,1.37*1C
$GNGSA,A,3,68,79,78,66,77,67,,,,,,,1.68,0.97,1.37*16
$GPGSV,3,1,09,03,06,323,,10,34,178,39,14,64,358,27,22,22,311,30*7B
$GPGSV,3,2,09,25,40,047,24,26,32,205,25,31,55,300,33,32,69,054,27*79
$GPGSV,3,3,09,41,41,230,37*45
$GLGSV,2,1,07,66,10,148,20,67,62,144,30,68,57,333,21,69,08,330,15*67
$GLGSV,2,2,07,77,33,026,10,78,67,310,27,79,30,241,31*56
$GNGLL,3030.87391,N,11420.30571,E,060050.00,A,A*76
$GNRMC,060051.00,A,3030.87391,N,11420.30568,E,0.081,,220119,,,A*66
$GNVTG,,T,,M,0.081,N,0.151,K,A*31
$GNGGA,060051.00,3030.87391,N,11420.30568,E,1,12,0.87,23.7,M,-10.8,M,,*54
$GNGSA,A,3,14,22,26,31,32,10,25,,,,,,1.52,0.87,1.25*17
$GNGSA,A,3,68,79,78,66,77,67,,,,,,,1.52,0.87,1.25*1D
$GPGSV,3,1,09,03,06,323,,10,34,178,40,14,64,358,30,22,22,311,30*73
$GPGSV,3,2,09,25,40,047,25,26,32,205,25,31,55,300,34,32,69,054,32*7B
$GPGSV,3,3,09,41,41,230,40*45
$GLGSV,2,1,07,66,10,148,20,67,62,144,30,68,57,333,23,69,08,330,13*63
$GLGSV,2,2,07,77,33,026,10,78,67,310,27,79,30,241,30*57
$GNGLL,3030.87391,N,11420.30568,E,060051.00,A,A*7F
$GNRMC,060052.00,A,3030.87383,N,11420.30567,E,0.183,,220119,,,A*6A
$GNVTG,,T,,M,0.183,N,0.339,K,A*3E
$GNGGA,060052.00,3030.87383,N,11420.30567,E,1,12,0.82,23.6,M,-10.8,M,,*5F
$GNGSA,A,3,14,22,26,31,32,10,25,,,,,,1.50,0.82,1.25*10
$GNGSA,A,3,68,79,78,66,77,67,,,,,,,1.50,0.82,1.25*1A
$GPGSV,3,1,09,03,06,323,,10,34,178,35,14,64,358,30,22,22,311,29*79
$GPGSV,3,2,09,25,40,047,23,26,32,205,35,31,55,300,30,32,69,054,28*73
$GPGSV,3,3,09,41,41,230,35*47
$GLGSV,2,1,07,66,10,148,21,67,62,144,32,68,57,333,26,69,08,330,13*65
$GLGSV,2,2,07,77,33,026,10,78,67,310,26,79,30,241,35*53
$GNGLL,3030.87383,N,11420.30567,E,060052.00,A,A*70
$GNRMC,060053.00,A,3030.87386,N,11420.30568,E,0.183,,220119,,,A*61
$GNVTG,,T,,M,0.183,N,0.339,K,A*3E
$GNGGA,060053.00,3030.87386,N,11420.30568,E,1,12,0.91,23.4,M,-10.8,M,,*54
$GNGSA,A,3,14,22,26,31,32,10,25,,,,,,1.64,0.91,1.37*16
$GNGSA,A,3,68,79,78,66,77,67,,,,,,,1.64,0.91,1.37*1C
$GPGSV,3,1,09,03,06,323,,10,34,178,26,14,64,358,22,22,22,311,18*7A
$GPGSV,3,2,09,25,40,047,21,26,32,205,24,31,55,300,28,32,69,054,27*77
$GPGSV,3,3,09,41,41,230,31*43
$GLGSV,2,1,07,66,10,148,22,67,62,144,32,68,57,333,27,69,08,330,16*62
$GLGSV,2,2,07,77,33,026,12,78,67,310,23,79,30,241,30*51
$GNGLL,3030.87386,N,11420.30568,E,060053.00,A,A*7B
$GNRMC,060054.00,A,3030.87363,N,11420.30560,E,0.914,,220119,,,A*63
$GNVTG,,T,,M,0.914,N,1.692,K,A*3D
$GNGGA,060054.00,3030.87363,N,11420.30560,E,1,12,0.82,23.4,M,-10.8,M,,*52
$GNGSA,A,3,14,22,26,31,32,10,25,,,,,,1.50,0.82,1.25*10
$GNGSA,A,3,68,79,78,66,77,67,,,,,,,1.50,0.82,1.25*1A
$GPGSV,3,1,09,03,06,323,,10,34,178,27,14,64,358,20,22,22,311,16*77
$GPGSV,3,2,09,25,40,047,20,26,32,205,24,31,55,300,28,32,69,054,28*79
$GPGSV,3,3,09,41,41,230,31*43
$GLGSV,2,1,07,66,10,148,22,67,62,144,32,68,57,333,26,69,08,330,17*62
$GLGSV,2,2,07,77,33,026,12,78,67,310,23,79,30,241,29*59
$GNGLL,3030.87363,N,11420.30560,E,060054.00,A,A*7F
$GNRMC,060055.00,A,3030.87320,N,11420.30540,E,1.550,237.30,220119,,,A*71
$GNVTG,237.30,T,,M,1.550,N,2.870,K,A*2A
$GNGGA,060055.00,3030.87320,N,11420.30540,E,1,12,0.82,23.5,M,-10.8,M,,*57
$GNGSA,A,3,14,22,26,31,32,10,25,,,,,,1.50,0.82,1.25*10
$GNGSA,A,3,68,79,78,66,77,67,,,,,,,1.50,0.82,1.25*1A
$GPGSV,3,1,09,03,06,323,,10,34,178,26,14,64,358,17,22,22,311,15*71
$GPGSV,3,2,09,25,40,047,20,26,32,205,23,31,55,300,25,32,69,054,25*7E
$GPGSV,3,3,09,41,41,230,28*4B
$GLGSV,2,1,07,66,10,148,22,67,62,144,28,68,57,333,26,69,08,330,17*69
$GLGSV,2,2,07,77,33,026,09,78,67,310,21,79,30,241,27*5F
$GNGLL,3030.87320,N,11420.30540,E,060055.00,A,A*7B
$GNRMC,060056.00,A,3030.87264,N,11420.30519,E,1.959,,220119,,,A*61
$GNVTG,,T,,M,1.959,N,3.628,K,A*36
$GNGGA,060056.00,3030.87264,N,11420.30519,E,1,12,0.82,23.6,M,-10.8,M,,*5A
$GNGSA,A,3,14,22,26,31,32,10,25,,,,,,1.50,0.82,1.25*10
$GNGSA,A,3,68,79,78,66,77,67,,,,,,,1.50,0.82,1.25*1A
$GPGSV,3,1,09,03,06,323,,10,34,178,27,14,64,358,15,22,22,311,18*7F
$GPGSV,3,2,09,25,40,047,20,26,32,205,21,31,55,300,23,32,69,054,22*7D
$GPGSV,3,3,09,41,41,230,26*45
$GLGSV,2,1,07,66,10,148,20,67,62,144,31,68,57,333,27,69,08,330,17*62
$GLGSV,2,2,07,77,33,026,08,78,67,310,19,79,30,241,28*5A
$GNGLL,3030.87264,N,11420.30519,E,060056.00,A,A*75
$GNRMC,060057.00,A,3030.87213,N,11420.30483,E,2.180,223.38,220119,,,A*7B
$GNVTG,223.38,T,,M,2.180,N,4.038,K,A*2F
$GNGGA,060057.00,3030.87213,N,11420.30483,E,1,12,0.82,23.5,M,-10.8,M,,*5A
$GNGSA,A,3,14,22,26,31,32,10,25,,,,,,1.50,0.82,1.25*10
$GNGSA,A,3,68,79,78,66,77,67,,,,,,,1.50,0.82,1.25*1A
$GPGSV,3,1,09,03,06,323,,10,34,178,29,14,64,358,12,22,22,311,23*7E
$GPGSV,3,2,09,25,40,047,21,26,32,205,21,31,55,300,22,32,69,054,19*75
$GPGSV,3,3,09,41,41,230,27*44
$GLGSV,2,1,07,66,10,148,19,67,62,144,31,68,57,333,27,69,08,330,17*68
$GLGSV,2,2,07,77,33,026,08,78,67,310,18,79,30,241,28*5B
$GNGLL,3030.87213,N,11420.30483,E,060057.00,A,A*76
$GNRMC,060058.00,A,3030.87159,N,11420.30434,E,2.462,218.58,220119,,,A*72
$GNVTG,218.58,T,,M,2.462,N,4.560,K,A*20
$GNGGA,060058.00,3030.87159,N,11420.30434,E,1,12,0.82,23.5,M,-10.8,M,,*54
$GNGSA,A,3,14,22,26,31,32,10,25,,,,,,1.50,0.82,1.25*10
$GNGSA,A,3,68,79,78,66,77,67,,,,,,,1.50,0.82,1.25*1A
$GPGSV,3,1,09,03,06,323,,10,34,178,26,14,64,358,12,22,22,311,21*73
$GPGSV,3,2,09,25,40,047,20,26,32,205,20,31,55,300,21,32,69,054,18*77
$GPGSV,3,3,09,41,41,230,27*44
$GLGSV,2,1,07,66,10,148,19,67,62,144,30,68,57,333,27,69,08,330,17*69
$GLGSV,2,2,07,77,33,026,08,78,67,310,18,79,30,241,27*54
$GNGLL,3030.87159,N,11420.30434,E,060058.00,A,A*78
$GNRMC,060059.00,A,3030.87094,N,11420.30422,E,2.020,,220119,,,A*6E
$GNVTG,,T,,M,2.020,N,3.740,K,A*3D
$GNGGA,060059.00,3030.87094,N,11420.30422,E,1,12,0.91,23.5,M,-10.8,M,,*50
$GNGSA,A,3,14,22,26,31,32,10,25,,,,,,1.64,0.91,1.37*16
$GNGSA,A,3,68,79,78,66,67,,,,,,,,1.64,0.91,1.37*1C
$GPGSV,3,1,09,03,06,323,,10,33,178,26,14,64,358,15,22,22,311,20*72
$GPGSV,3,2,09,25,40,047,21,26,32,205,22,31,55,300,22,32,69,054,20*7C
$GPGSV,3,3,09,41,41,230,*41
$GLGSV,2,1,07,66,10,148,19,67,62,144,29,68,57,333,27,69,08,330,17*61
$GLGSV,2,2,07,77,33,026,,78,67,310,17,79,30,241,26*52
$GNGLL,3030.87094,N,11420.30422,E,060059.00,A,A*7E
$GNRMC,060100.00,A,3030.87021,N,11420.30438,E,2.268,198.03,220119,,,A*75
$GNVTG,198.03,T,,M,2.268,N,4.200,K,A*28
$GNGGA,060100.00,3030.87021,N,11420.30438,E,1,11,1.03,22.5,M,-10.8,M,,*50
$GNGSA,A,3,14,22,26,31,32,10,25,,,,,,2.09,1.03,1.82*1A
$GNGSA,A,3,68,79,78,67,,,,,,,,,2.09,1.03,1.82*10
$GPGSV,3,1,09,03,06,323,,10,33,178,32,14,64,358,17,22,22,311,22*77
$GPGSV,3,2,09,25,40,047,23,26,32,205,22,31,55,300,29,32,69,054,30*74
$GPGSV,3,3,09,41,41,230,*41
$GLGSV,2,1,07,66,10,148,,67,62,144,34,68,57,333,36,69,08,330,18*6A
$GLGSV,2,2,07,77,33,026,,78,67,310,19,79,30,241,31*5A
$GNGLL,3030.87021,N,11420.30438,E,060100.00,A,A*76
$GNRMC,060101.00,A,3030.86963,N,11420.30440,E,2.573,194.85,220119,,,A*7A
$GNVTG,194.85,T,,M,2.573,N,4.765,K,A*21
$GNGGA,060101.00,3030.86963,N,11420.30440,E,1,11,1.03,21.4,M,-10.8,M,,*52
$GNGSA,A,3,14,22,26,31,32,10,25,,,,,,2.09,1.03,1.82*1A
$GNGSA,A,3,68,79,78,67,,,,,,,,,2.09,1.03,1.82*10
$GPGSV,3,1,09,03,06,323,,10,33,178,30,14,64,358,18,22,22,311,21*79
$GPGSV,3,2,09,25,40,047,23,26,32,205,22,31,55,300,27,32,69,054,22*79
$GPGSV,3,3,09,41,41,230,*41
$GLGSV,2,1,07,66,10,148,,67,62,144,29,68,57,333,28,69,08,330,18*69
$GLGSV,2,2,07,77,33,026,,78,67,310,20,79,30,241,29*59
$GNGLL,3030.86963,N,11420.30440,E,060101.00,A,A*76
$GNRMC,060102.00,A,3030.86896,N,11420.30433,E,2.586,191.22,220119,,,A*74
$GNVTG,191.22,T,,M,2.586,N,4.790,K,A*29
$GNGGA,060102.00,3030.86896,N,11420.30433,E,1,11,1.03,21.0,M,-10.8,M,,*5A
$GNGSA,A,3,14,22,26,31,32,10,25,,,,,,2.09,1.03,1.82*1A
$GNGSA,A,3,68,79,78,67,,,,,,,,,2.09,1.03,1.82*10
$GPGSV,3,1,09,03,06,323,,10,33,178,29,14,64,358,17,22,22,311,21*7E
$GPGSV,3,2,09,25,40,047,24,26,32,205,21,31,55,300,25,32,69,054,22*7F
$GPGSV,3,3,09,41,41,230,*41
$GLGSV,2,1,07,66,10,148,18,67,62,144,28,68,57,333,28,69,08,330,18*61
$GLGSV,2,2,07,77,33,026,,78,67,310,20,79,30,241,29*59
$GNGLL,3030.86896,N,11420.30433,E,060102.00,A,A*7A
$GNRMC,060103.00,A,3030.86830,N,11420.30424,E,2.314,189.30,220119,,,A*78
$GNVTG,189.30,T,,M,2.314,N,4.285,K,A*2F
$GNGGA,060103.00,3030.86830,N,11420.30424,E,1,11,1.03,20.8,M,-10.8,M,,*58
$GNGSA,A,3,14,22,26,31,32,10,25,,,,,,2.09,1.03,1.82*1A
$GNGSA,A,3,68,79,78,67,,,,,,,,,2.09,1.03,1.82*10
$GPGSV,3,1,09,03,06,323,04,10,33,178,28,14,64,358,17,22,22,311,18*71
$GPGSV,3,2,09,25,40,047,24,26,33,206,21,31,55,300,30,32,69,054,24*7F
$GPGSV,3,3,09,41,41,230,*41
$GLGSV,2,1,07,66,10,148,,67,62,144,28,68,57,333,28,69,08,330,18*68
$GLGSV,2,2,07,77,33,026,,78,67,310,21,79,30,241,29*58
$GNGLL,3030.86830,N,11420.30424,E,060103.00,A,A*71
$GNRMC,060104.00,A,3030.86762,N,11420.30419,E,2.467,185.77,220119,,,A*75
$GNVTG,185.77,T,,M,2.467,N,4.569,K,A*26
$GNGGA,060104.00,3030.86762,N,11420.30419,E,1,11,1.03,20.2,M,-10.8,M,,*53
$GNGSA,A,3,14,22,26,31,32,10,25,,,,,,2.09,1.03,1.82*1A
$GNGSA,A,3,68,79,78,67,,,,,,,,,2.09,1.03,1.82*10
$GPGSV,3,1,09,03,06,323,06,10,33,178,27,14,64,358,17,22,22,311,16*72
$GPGSV,3,2,09,25,40,047,23,26,33,206,21,31,55,300,29,32,69,054,29*7D
$GPGSV,3,3,09,41,41,230,*41
$GLGSV,2,1,07,66,10,148,18,67,62,144,27,68,57,333,28,69,08,330,*67
$GLGSV,2,2,07,77,33,026,,78,67,310,21,79,30,241,30*50
$GNGLL,3030.86762,N,11420.30419,E,060104.00,A,A*70
$GNRMC,060105.00,A,3030.86689,N,11420.30413,E,2.612,182.50,220119,,,A*78
$GNVTG,182.50,T,,M,2.612,N,4.838,K,A*2D
$GNGGA,060105.00,3030.86689,N,11420.30413,E,1,11,1.03,19.7,M,-10.8,M,,*53
$GNGSA,A,3,14,22,26,31,32,10,25,,,,,,2.09,1.03,1.82*1A
$GNGSA,A,3,68,79,78,67,,,,,,,,,2.09,1.03,1.82*10
$GPGSV,3,1,09,03,06,323,08,10,33,178,31,14,64,358,18,22,22,311,16*74
$GPGSV,3,2,09,25,40,047,29,26,33,206,24,31,55,300,33,32,69,054,33*72
$GPGSV,3,3,09,41,41,230,32*40
$GLGSV,2,1,07,66,10,148,17,67,62,144,27,68,57,333,28,69,08,330,*68
$GLGSV,2,2,07,77,33,026,,78,67,310,21,79,30,241,31*51
$GNGLL,3030.86689,N,11420.30413,E,060105.00,A,A*7F
$GNRMC,060106.00,A,3030.86621,N,11420.30420,E,2.301,,220119,,,A*6E
$GNVTG,,T,,M,2.301,N,4.261,K,A*3C
$GNGGA,060106.00,3030.86621,N,11420.30420,E,1,11,1.03,19.5,M,-10.8,M,,*50
$GNGSA,A,3,14,22,26,31,32,10,25,,,,,,2.09,1.03,1.82*1A
$GNGSA,A,3,68,79,78,67,,,,,,,,,2.09,1.03,1.82*10
$GPGSV,3,1,09,03,06,323,12,10,33,178,26,14,64,358,17,22,22,311,18*78
$GPGSV,3,2,09,25,40,047,22,26,33,206,22,31,56,300,27,32,69,054,20*7B
$GPGSV,3,3,09,41,41,230,31*43
$GLGSV,2,1,07,66,10,148,20,67,62,144,25,68,57,333,27,69,08,330,*61
$GLGSV,2,2,07,77,33,026,,78,67,310,21,79,30,241,24*55
$GNGLL,3030.86621,N,11420.30420,E,060106.00,A,A*7E
$GNRMC,060107.00,A,3030.86543,N,11420.30400,E,2.666,184.94,220119,,,A*70
$GNVTG,184.94,T,,M,2.666,N,4.937,K,A*2E
$GNGGA,060107.00,3030.86543,N,11420.30400,E,1,12,0.91,19.5,M,-10.8,M,,*5D
$GNGSA,A,3,14,22,26,31,32,03,10,25,,,,,1.64,0.91,1.36*14
$GNGSA,A,3,68,79,78,66,67,,,,,,,,1.64,0.91,1.36*1D
$GPGSV,3,1,09,03,06,323,09,10,33,178,26,14,64,358,18,22,22,311,21*77
$GPGSV,3,2,09,25,40,047,24,26,33,206,23,31,56,300,27,32,69,055,23*7E
$GPGSV,3,3,09,41,41,230,32*40
$GLGSV,2,1,07,66,10,148,17,67,62,144,22,68,57,333,25,69,08,330,*60
$GLGSV,2,2,07,77,33,026,,78,67,310,20,79,30,241,25*55
$GNGLL,3030.86543,N,11420.30400,E,060107.00,A,A*7A
$GNRMC,060108.00,A,3030.86469,N,11420.30379,E,2.377,184.45,220119,,,A*76
$GNVTG,184.45,T,,M,2.377,N,4.403,K,A*2D
$GNGGA,060108.00,3030.86469,N,11420.30379,E,1,12,0.91,19.8,M,-10.8,M,,*5F
$GNGSA,A,3,14,22,26,31,32,03,10,25,,,,,1.64,0.91,1.36*14
$GNGSA,A,3,68,79,78,66,67,,,,,,,,1.64,0.91,1.36*1D
$GPGSV,3,1,09,03,06,323,09,10,33,178,26,14,64,358,20,22,22,311,22*7F
$GPGSV,3,2,09,25,40,047,24,26,33,206,23,31,56,300,28,32,69,055,33*70
$GPGSV,3,3,09,41,41,230,32*40
$GLGSV,2,1,07,66,10,148,15,67,62,144,19,68,57,333,24,69,08,330,*6B
$GLGSV,2,2,07,77,33,026,,78,67,310,20,79,30,241,27*57
$GNGLL,3030.86469,N,11420.30379,E,060108.00,A,A*75
$GNRMC,060109.00,A,3030.86394,N,11420.30342,E,2.263,186.84,220119,,,A*71
$GNVTG,186.84,T,,M,2.263,N,4.192,K,A*2B
$GNGGA,060109.00,3030.86394,N,11420.30342,E,1,12,0.91,19.7,M,-10.8,M,,*5C
$GNGSA,A,3,14,22,26,31,32,03,10,25,,,,,1.64,0.91,1.36*14
$GNGSA,A,3,68,79,78,66,67,,,,,,,,1.64,0.91,1.36*1D
$GPGSV,3,1,09,03,06,323,09,10,33,178,35,14,64,358,22,22,22,311,22*7F
$GPGSV,3,2,09,25,40,047,32,26,33,206,24,31,56,300,27,32,69,055,37*7B
$GPGSV,3,3,09,41,41,230,38*4A
$GLGSV,2,1,07,66,10,148,17,67,62,144,22,68,57,333,24,69,08,330,*61
$GLGSV,2,2,07,77,33,026,19,78,67,310,19,79,30,241,31*52
$GNGLL,3030.86394,N,11420.30342,E,060109.00,A,A*79
$GNRMC,060110.00,A,3030.86285,N,11420.30278,E,2.581,180.55,220119,,,A*71
$GNVTG,180.55,T,,M,2.581,N,4.780,K,A*2F
$GNGGA,060110.00,3030.86285,N,11420.30278,E,1,12,0.91,21.8,M,-10.8,M,,*59
$GNGSA,A,3,14,22,26,31,32,10,25,,,,,,1.64,0.91,1.36*17
$GNGSA,A,3,68,79,78,66,67,,,,,,,,1.64,0.91,1.36*1D
$GPGSV,3,1,09,03,06,323,09,10,33,178,35,14,64,358,22,22,22,311,30*7C
$GPGSV,3,2,09,25,40,047,35,26,33,206,30,31,56,300,28,32,69,055,29*79
$GPGSV,3,3,09,41,41,230,33*41
$GLGSV,2,1,07,66,10,148,29,67,62,144,38,68,57,333,25,69,08,330,*66
$GLGSV,2,2,07,77,33,026,,78,67,310,19,79,30,241,39*52
$GNGLL,3030.86285,N,11420.30278,E,060110.00,A,A*78
$GNRMC,060111.00,A,3030.86219,N,11420.30283,E,1.802,183.07,220119,,,A*70
$GNVTG,183.07,T,,M,1.802,N,3.338,K,A*2E
$GNGGA,060111.00,3030.86219,N,11420.30283,E,1,12,0.91,21.8,M,-10.8,M,,*59
$GNGSA,A,3,14,22,26,31,32,10,25,,,,,,1.64,0.91,1.36*17
$GNGSA,A,3,68,79,78,66,67,,,,,,,,1.64,0.91,1.36*1D
$GPGSV,3,1,09,03,06,323,,10,33,178,30,14,64,358,39,22,22,311,36*7C
$GPGSV,3,2,09,25,40,047,32,26,33,206,39,31,56,300,37,32,69,055,33*72
$GPGSV,3,3,09,41,41,230,38*4A
$GLGSV,2,1,07,66,10,148,21,67,62,144,36,68,57,333,31,69,08,330,*65
$GLGSV,2,2,07,77,33,026,28,78,67,310,26,79,30,241,28*54
$GNGLL,3030.86219,N,11420.30283,E,060111.00,A,A*78
$GNRMC,060112.00,A,3030.86168,N,11420.30214,E,2.351,194.02,220119,,,A*75
$GNVTG,194.02,T,,M,2.351,N,4.354,K,A*2E
$GNGGA,060112.00,3030.86168,N,11420.30214,E,1,12,0.82,21.6,M,-10.8,M,,*5D
$GNGSA,A,3,14,22,26,31,32,10,25,,,,,,1.50,0.82,1.25*10
$GNGSA,A,3,68,79,78,66,77,67,,,,,,,1.50,0.82,1.25*1A
$GPGSV,3,1,09,03,06,323,,10,33,178,33,14,64,358,37,22,22,311,29*7F
$GPGSV,3,2,09,25,40,047,29,26,33,206,33,31,56,300,41,32,69,055,46*71
$GPGSV,3,3,09,41,41,230,34*46
$GLGSV,2,1,07,66,10,148,20,67,62,144,40,68,57,333,22,69,08,330,*67
$GLGSV,2,2,07,77,33,026,32,78,67,310,25,79,30,241,26*52
$GNGLL,3030.86168,N,11420.30214,E,060112.00,A,A*70
$GNRMC,060113.00,A,3030.86094,N,11420.30224,E,2.550,189.72,220119,,,A*79
$GNVTG,189.72,T,,M,2.550,N,4.724,K,A*21
$GNGGA,060113.00,3030.86094,N,11420.30224,E,1,12,0.82,22.7,M,-10.8,M,,*5F
$GNGSA,A,3,14,22,26,31,32,10,25,,,,,,1.50,0.82,1.25*10
$GNGSA,A,3,68,79,78,66,77,67,,,,,,,1.50,0.82,1.25*1A
$GPGSV,3,1,09,03,06,323,15,10,33,178,38,14,64,358,34,22,22,311,29*73
$GPGSV,3,2,09,25,40,047,37,26,33,206,30,31,56,300,26,32,69,055,44*7E
$GPGSV,3,3,09,41,41,230,*41
$GLGSV,2,1,07,66,10,148,20,67,62,144,40,68,57,333,24,69,08,330,21*62
$GLGSV,2,2,07,77,33,026,29,78,67,310,29,79,30,241,31*52
$GNGLL,3030.86094,N,11420.30224,E,060113.00,A,A*70
$GNRMC,060114.00,A,3030.86019,N,11420.30248,E,2.586,190.25,220119,,,A*70
$GNVTG,190.25,T,,M,2.586,N,4.789,K,A*27
$GNGGA,060114.00,3030.86019,N,11420.30248,E,1,12,0.82,23.8,M,-10.8,M,,*59
$GNGSA,A,3,14,22,26,31,32,10,25,,,,,,1.50,0.82,1.25*10
$GNGSA,A,3,68,79,78,66,77,67,,,,,,,1.50,0.82,1.25*1A
$GPGSV,3,1,09,03,06,323,14,10,33,178,28,14,64,358,35,22,22,311,26*7D
$GPGSV,3,2,09,25,40,047,34,26,33,206,33,31,56,300,27,32,69,055,40*7B
$GPGSV,3,3,09,41,41,230,*41
$GLGSV,2,1,07,66,10,148,23,67,62,144,36,68,57,333,34,69,08,330,20*60
$GLGSV,2,2,07,77,33,026,32,78,67,310,28,79,30,241,32*5A
$GNGLL,3030.86019,N,11420.30248,E,060114.00,A,A*78
$GNRMC,060115.00,A,3030.85925,N,11420.30243,E,2.894,192.09,220119,,,A*7D
$GNVTG,192.09,T,,M,2.894,N,5.360,K,A*27
$GNGGA,060115.00,3030.85925,N,11420.30243,E,1,12,0.82,24.5,M,-10.8,M,,*5C
$GNGSA,A,3,14,22,26,31,32,10,25,,,,,,1.50,0.82,1.25*10
$GNGSA,A,3,68,79,78,66,77,67,,,,,,,1.50,0.82,1.25*1A
$GPGSV,3,1,09,03,06,323,,10,33,178,41,14,64,358,37,22,22,311,35*77
$GPGSV,3,2,09,25,40,047,26,26,33,206,36,31,56,300,32,32,69,055,41*78
$GPGSV,3,3,09,41,41,230,*41
$GLGSV,2,1,07,66,10,148,29,67,62,144,33,68,57,333,25,69,08,330,20*6F
$GLGSV,2,2,07,77,33,026,26,78,67,310,26,79,30,241,26*54
$GNGLL,3030.85925,N,11420.30243,E,060115.00,A,A*77
$GNRMC,060116.00,A,3030.85853,N,11420.30246,E,2.193,192.99,220119,,,A*7C
$GNVTG,192.99,T,,M,2.193,N,4.062,K,A*20
$GNGGA,060116.00,3030.85853,N,11420.30246,E,1,12,0.82,23.9,M,-10.8,M,,*51
$GNGSA,A,3,14,22,26,31,32,10,25,,,,,,1.50,0.82,1.25*10
$GNGSA,A,3,68,79,78,66,77,67,,,,,,,1.50,0.82,1.25*1A
$GPGSV,3,1,09,03,06,323,,10,33,178,36,14,64,358,31,22,22,311,31*75
$GPGSV,3,2,09,25,40,047,28,26,33,206,34,31,56,300,38,32,69,055,40*7F
$GPGSV,3,3,09,41,41,230,*41
$GLGSV,2,1,07,66,10,148,19,67,62,144,18,68,57,333,21,69,08,330,17*65
$GLGSV,2,2,07,77,33,026,23,78,67,310,23,79,30,241,24*56
$GNGLL,3030.85853,N,11420.30246,E,060116.00,A,A*71
$GNRMC,060117.00,A,3030.85776,N,11420.30232,E,1.944,190.88,220119,,,A*75
$GNVTG,190.88,T,,M,1.944,N,3.601,K,A*27
$GNGGA,060117.00,3030.85776,N,11420.30232,E,1,12,0.82,24.2,M,-10.8,M,,*57
$GNGSA,A,3,14,22,26,31,32,10,25,,,,,,1.50,0.82,1.25*10
$GNGSA,A,3,68,79,78,66,77,67,,,,,,,1.50,0.82,1.25*1A
$GPGSV,3,1,09,03,06,323,,10,33,178,36,14,64,358,37,22,22,311,39*7B
$GPGSV,3,2,09,25,40,047,27,26,33,206,36,31,56,300,37,32,69,055,40*7D
$GPGSV,3,3,09,41,41,230,*41
$GLGSV,2,1,07,66,10,148,19,67,62,144,33,68,57,333,21,69,08,330,16*6D
$GLGSV,2,2,07,77,33,026,21,78,67,310,21,79,30,241,32*51
$GNGLL,3030.85776,N,11420.30232,E,060117.00,A,A*7B
$GNRMC,060118.00,A,3030.85715,N,11420.30222,E,2.149,189.06,220119,,,A*76
$GNVTG,189.06,T,,M,2.149,N,3.980,K,A*29
$GNGGA,060118.00,3030.85715,N,11420.30222,E,1,12,0.82,24.1,M,-10.8,M,,*5F
$GNGSA,A,3,14,22,26,31,32,10,25,,,,,,1.50,0.82,1.25*10
$GNGSA,A,3,68,79,78,66,77,67,,,,,,,1.50,0.82,1.25*1A
$GPGSV,3,1,09,03,06,323,13,10,33,178,34,14,64,358,29,22,22,311,30*7D
$GPGSV,3,2,09,25,40,047,24,26,33,206,30,31,56,300,30,32,69,055,32*7A
$GPGSV,3,3,09,41,41,230,*41
$GLGSV,2,1,07,66,10,148,16,67,62,144,22,68,57,333,17,69,08,330,14*65
$GLGSV,2,2,07,77,33,026,14,78,67,310,15,79,30,241,26*55
$GNGLL,3030.85715,N,11420.30222,E,060118.00,A,A*70
$GNRMC,060119.00,A,3030.85650,N,11420.30207,E,2.266,191.21,220119,,,A*72
$GNVTG,191.21,T,,M,2.266,N,4.197,K,A*22
$GNGGA,060119.00,3030.85650,N,11420.30207,E,1,12,0.82,24.1,M,-10.8,M,,*59
$GNGSA,A,3,14,22,26,31,32,10,25,,,,,,1.50,0.82,1.25*10
$GNGSA,A,3,68,79,78,66,77,67,,,,,,,1.50,0.82,1.25*1A
$GPGSV,3,1,09,03,06,323,13,10,33,178,34,14,64,358,28,22,22,311,29*74
$GPGSV,3,2,09,25,40,047,22,26,33,206,23,31,56,300,30,32,69,055,30*7C
$GPGSV,3,3,09,41,41,230,*41
$GLGSV,2,1,07,66,10,148,14,67,62,144,29,68,57,333,14,69,08,330,11*6A
$GLGSV,2,2,07,77,33,026,11,78,67,310,11,79,30,241,31*52
$GNGLL,3030.85650,N,11420.30207,E,060119.00,A,A*76
$GNRMC,060120.00,A,3030.85575,N,11420.30208,E,2.403,185.07,220119,,,A*77
$GNVTG,185.07,T,,M,2.403,N,4.451,K,A*29
$GNGGA,060120.00,3030.85575,N,11420.30208,E,1,12,0.82,23.6,M,-10.8,M,,*58
$GNGSA,A,3,14,22,26,31,32,10,25,,,,,,1.50,0.82,1.25*10
$GNGSA,A,3,68,79,78,66,77,67,,,,,,,1.50,0.82,1.25*1A
$GPGSV,3,1,09,03,06,323,14,10,33,178,39,14,64,358,27,22,22,311,31*78
$GPGSV,3,2,09,25,40,047,20,26,33,206,32,31,56,300,35,32,69,055,40*7C
$GPGSV,3,3,09,41,41,230,*41
$GLGSV,2,1,07,66,10,148,16,67,62,144,31,68,57,333,14,69,08,330,09*68
$GLGSV,2,2,07,77,33,026,10,78,67,310,17,79,30,241,25*50
$GNGLL,3030.85575,N,11420.30208,E,060120.00,A,A*77
$GNRMC,060121.00,A,3030.85504,N,11420.30198,E,2.576,187.45,220119,,,A*7D
$GNVTG,187.45,T,,M,2.576,N,4.770,K,A*2E
$GNGGA,060121.00,3030.85504,N,11420.30198,E,1,12,0.82,23.4,M,-10.8,M,,*57
$GNGSA,A,3,14,22,26,31,32,10,25,,,,,,1.50,0.82,1.25*10
$GNGSA,A,3,68,79,78,66,77,67,,,,,,,1.50,0.82,1.25*1A
$GPGSV,3,1,09,03,06,323,15,10,33,178,40,14,64,358,31,22,22,311,30*71
$GPGSV,3,2,09,25,40,047,29,26,33,206,25,31,56,300,35,32,69,055,40*73
$GPGSV,3,3,09,41,41,230,*41
$GLGSV,2,1,07,66,10,148,20,67,62,144,38,68,57,333,20,69,08,330,08*62
$GLGSV,2,2,07,77,33,026,22,78,67,310,23,79,30,241,25*56
$GNGLL,3030.85504,N,11420.30198,E,060121.00,A,A*7A
$GNRMC,060122.00,A,3030.85431,N,11420.30172,E,2.297,190.21,220119,,,A*71
$GNVTG,190.21,T,,M,2.297,N,4.254,K,A*21
$GNGGA,060122.00,3030.85431,N,11420.30172,E,1,12,0.82,23.6,M,-10.8,M,,*55
$GNGSA,A,3,14,22,26,31,32,03,10,25,,,,,1.50,0.82,1.25*13
$GNGSA,A,3,68,79,78,66,77,67,,,,,,,1.50,0.82,1.25*1A
$GPGSV,3,1,09,03,06,323,16,10,33,178,42,14,64,358,35,22,22,311,33*77
$GPGSV,3,2,09,25,40,047,30,26,33,206,39,31,56,300,42,32,69,055,46*70
$GPGSV,3,3,09,41,41,230,*41
$GLGSV,2,1,07,66,10,148,30,67,62,144,36,68,57,333,22,69,08,330,08*6F
$GLGSV,2,2,07,77,33,026,19,78,67,310,24,79,30,241,32*5F
$GNGLL,3030.85431,N,11420.30172,E,060122.00,A,A*7A
$GNRMC,060123.00,A,3030.85357,N,11420.30114,E,2.502,193.72,220119,,,A*79
$GNVTG,193.72,T,,M,2.502,N,4.634,K,A*2D
$GNGGA,060123.00,3030.85357,N,11420.30114,E,1,12,0.82,23.9,M,-10.8,M,,*5C
$GNGSA,A,3,14,22,26,31,32,03,10,25,,,,,1.50,0.82,1.25*13
$GNGSA,A,3,68,79,78,66,77,67,,,,,,,1.50,0.82,1.25*1A
$GPGSV,3,1,09,03,06,323,18,10,33,178,41,14,64,358,37,22,22,311,35*7E
$GPGSV,3,2,09,25,40,047,36,26,33,206,44,31,56,300,41,32,69,055,48*71
$GPGSV,3,3,09,41,41,230,*41
$GLGSV,2,1,07,66,10,148,35,67,62,144,33,68,57,333,37,69,08,330,12*60
$GLGSV,2,2,07,77,33,026,25,78,67,310,25,79,30,241,41*55
$GNGLL,3030.85357,N,11420.30114,E,060123.00,A,A*7C
$GNRMC,060124.00,A,3030.85305,N,11420.30098,E,2.230,195.81,220119,,,A*70
$GNVTG,195.81,T,,M,2.230,N,4.129,K,A*2A
$GNGGA,060124.00,3030.85305,N,11420.30098,E,1,12,0.82,23.3,M,-10.8,M,,*53
$GNGSA,A,3,14,22,26,31,32,03,10,25,,,,,1.50,0.82,1.25*13
$GNGSA,A,3,68,79,78,66,77,67,,,,,,,1.50,0.82,1.25*1A
$GPGSV,3,1,09,03,06,323,18,10,33,178,35,14,64,358,36,22,22,311,30*79
$GPGSV,3,2,09,25,40,047,37,26,33,206,41,31,56,300,41,32,69,055,42*7F
$GPGSV,3,3,09,41,41,230,40*45
$GLGSV,2,1,07,66,10,148,24,67,62,144,36,68,57,333,30,69,08,330,15*65
$GLGSV,2,2,07,77,33,026,26,78,67,310,30,79,30,241,33*57
$GNGLL,3030.85305,N,11420.30098,E,060124.00,A,A*79
$GNRMC,060125.00,A,3030.85243,N,11420.30077,E,2.331,193.32,220119,,,A*7D
$GNVTG,193.32,T,,M,2.331,N,4.316,K,A*2A
$GNGGA,060125.00,3030.85243,N,11420.30077,E,1,12,0.82,23.4,M,-10.8,M,,*57
$GNGSA,A,3,14,22,26,31,32,03,10,25,,,,,1.50,0.82,1.25*13
$GNGSA,A,3,68,79,78,66,77,67,,,,,,,1.50,0.82,1.25*1A
$GPGSV,3,1,09,03,06,323,16,10,33,178,28,14,64,358,28,22,22,311,29*7C
$GPGSV,3,2,09,25,40,047,37,26,33,206,35,31,56,300,38,32,69,055,40*70
$GPGSV,3,3,09,41,41,230,36*44
$GLGSV,2,1,07,66,10,148,21,67,62,144,29,68,57,333,29,69,08,330,15*66
$GLGSV,2,2,07,77,33,026,25,78,67,310,29,79,30,241,33*5C
$GNGLL,3030.85243,N,11420.30077,E,060125.00,A,A*7A
$GNRMC,060126.00,A,3030.85158,N,11420.30068,E,2.858,188.59,220119,,,A*7A
$GNVTG,188.59,T,,M,2.858,N,5.293,K,A*24
$GNGGA,060126.00,3030.85158,N,11420.30068,E,1,12,0.82,23.3,M,-10.8,M,,*54
$GNGSA,A,3,14,22,26,31,32,03,10,25,,,,,1.50,0.82,1.25*13
$GNGSA,A,3,68,79,78,66,77,67,,,,,,,1.50,0.82,1.25*1A
$GPGSV,3,1,09,03,06,323,13,10,33,178,39,14,64,358,36,22,22,311,33*7D
$GPGSV,3,2,09,25,40,047,35,26,33,206,39,31,56,300,39,32,69,055,41*7E
$GPGSV,3,3,09,41,41,230,40*45
$GLGSV,2,1,07,66,09,148,22,67,62,144,31,68,57,333,30,69,08,330,14*6D
$GLGSV,2,2,07,77,33,026,27,78,67,310,20,79,30,241,36*52
$GNGLL,3030.85158,N,11420.30068,E,060126.00,A,A*7E
$GNRMC,060127.00,A,3030.85087,N,11420.30068,E,2.600,187.69,220119,,,A*77
$GNVTG,187.69,T,,M,2.600,N,4.816,K,A*2D
$GNGGA,060127.00,3030.85087,N,11420.30068,E,1,12,0.82,22.6,M,-10.8,M,,*52
$GNGSA,A,3,14,22,26,31,32,10,25,,,,,,1.50,0.82,1.25*10
$GNGSA,A,3,68,79,78,66,77,67,,,,,,,1.50,0.82,1.25*1A
$GPGSV,3,1,09,03,06,323,,10,33,178,42,14,64,358,40,22,22,311,36*77
$GPGSV,3,2,09,25,40,047,41,26,33,206,46,31,56,300,42,32,69,055,46*7E
$GPGSV,3,3,09,41,41,230,45*40
$GLGSV,2,1,07,66,09,148,24,67,62,145,32,68,57,333,23,69,08,330,15*6A
$GLGSV,2,2,07,77,33,026,26,78,67,310,29,79,30,241,36*5A
$GNGLL,3030.85087,N,11420.30068,E,060127.00,A,A*7C
$GNRMC,060128.00,A,3030.84999,N,11420.30049,E,2.903,186.74,220119,,,A*7D
$GNVTG,186.74,T,,M,2.903,N,5.376,K,A*20
$GNGGA,060128.00,3030.84999,N,11420.30049,E,1,12,0.82,22.6,M,-10.8,M,,*59
$GNGSA,A,3,14,22,26,31,32,10,25,,,,,,1.50,0.82,1.25*10
$GNGSA,A,3,68,79,78,66,77,67,,,,,,,1.50,0.82,1.25*1A
$GPGSV,3,1,09,03,06,323,21,10,33,178,43,14,64,358,39,22,22,311,38*75
$GPGSV,3,2,09,25,40,047,39,26,33,206,45,31,56,300,42,32,69,055,45*71
$GPGSV,3,3,09,41,41,230,45*40
$GLGSV,2,1,07,66,09,148,24,67,62,145,31,68,57,332,25,69,08,330,14*6F
$GLGSV,2,2,07,77,33,026,26,78,67,310,24,79,30,241,36*57
$GNGLL,3030.84999,N,11420.30049,E,060128.00,A,A*77
$GNRMC,060129.00,A,3030.84905,N,11420.30042,E,2.818,187.43,220119,,,A*7C
$GNVTG,187.43,T,,M,2.818,N,5.220,K,A*2C
$GNGGA,060129.00,3030.84905,N,11420.30042,E,1,12,0.82,22.9,M,-10.8,M,,*59
$GNGSA,A,3,14,22,26,31,32,10,25,,,,,,1.50,0.82,1.25*10
$GNGSA,A,3,68,79,78,66,77,67,,,,,,,1.50,0.82,1.25*1A
$GPGSV,3,1,09,03,06,323,,10,33,178,41,14,64,358,42,22,22,311,40*77
$GPGSV,3,2,09,25,40,047,38,26,33,206,44,31,56,300,40,32,69,055,45*73
$GPGSV,3,3,09,41,41,230,44*41
$GLGSV,2,1,07,66,09,148,25,67,62,145,35,68,57,332,24,69,08,330,14*6B
$GLGSV,2,2,07,77,33,026,25,78,67,310,25,79,30,241,36*55
$GNGLL,3030.84905,N,11420.30042,E,060129.00,A,A*78
$GNRMC,060130.00,A,3030.84817,N,11420.30030,E,2.700,188.70,220119,,,A*7A
$GNVTG,188.70,T,,M,2.700,N,5.000,K,A*25
$GNGGA,060130.00,3030.84817,N,11420.30030,E,1,12,0.82,23.4,M,-10.8,M,,*5A
$GNGSA,A,3,14,22,26,31,32,10,25,,,,,,1.50,0.82,1.25*10
$GNGSA,A,3,68,79,78,66,77,67,,,,,,,1.50,0.82,1.25*1A
$GPGSV,3,1,09,03,06,323,21,10,33,178,41,14,64,358,40,22,22,311,42*74
$GPGSV,3,2,09,25,40,047,38,26,33,206,45,31,56,300,43,32,69,055,40*74
$GPGSV,3,3,09,41,41,230,43*46
$GLGSV,2,1,07,66,09,148,24,67,62,145,33,68,57,332,26,69,08,330,14*6E
$GLGSV,2,2,07,77,33,026,25,78,67,310,26,79,30,241,36*56
$GNGLL,3030.84817,N,11420.30030,E,060130.00,A,A*77
$GNRMC,060131.00,A,3030.84745,N,11420.30020,E,2.764,188.08,220119,,,A*7F
$GNVTG,188.08,T,,M,2.764,N,5.119,K,A*21
$GNGGA,060131.00,3030.84745,N,11420.30020,E,1,12,0.82,22.9,M,-10.8,M,,*5E
$GNGSA,A,3,14,22,26,31,32,10,25,,,,,,1.49,0.82,1.25*18
$GNGSA,A,3,68,79,78,66,77,67,,,,,,,1.49,0.82,1.25*12
$GPGSV,3,1,09,03,06,323,20,10,33,178,40,14,64,358,40,22,22,311,39*78
$GPGSV,3,2,09,25,40,047,39,26,33,206,44,31,56,300,42,32,69,055,44*71
$GPGSV,3,3,09,41,41,230,45*40
$GLGSV,2,1,07,66,09,148,26,67,62,145,33,68,57,332,36,69,08,330,17*6E
$GLGSV,2,2,07,77,33,026,26,78,67,310,26,79,30,241,37*54
$GNGLL,3030.84745,N,11420.30020,E,060131.00,A,A*7F
$GNRMC,060132.00,A,3030.84673,N,11420.30002,E,2.644,189.81,220119,,,A*7B
$GNVTG,189.81,T,,M,2.644,N,4.897,K,A*2C
$GNGGA,060132.00,3030.84673,N,11420.30002,E,1,12,0.82,22.8,M,-10.8,M,,*58
$GNGSA,A,3,14,22,26,31,32,10,25,,,,,,1.49,0.82,1.25*18
$GNGSA,A,3,68,79,78,66,77,67,,,,,,,1.49,0.82,1.25*12
$GPGSV,3,1,09,03,06,323,21,10,33,178,40,14,64,358,40,22,22,311,35*75
$GPGSV,3,2,09,25,40,047,35,26,33,206,44,31,56,300,39,32,69,055,43*76
$GPGSV,3,3,09,41,41,230,43*46
$GLGSV,2,1,07,66,09,148,23,67,62,145,30,68,57,332,32,69,08,330,16*6D
$GLGSV,2,2,07,77,33,026,26,78,67,310,25,79,30,241,36*56
$GNGLL,3030.84673,N,11420.30002,E,060132.00,A,A*78
$GNRMC,060133.00,A,3030.84596,N,11420.29985,E,2.848,187.28,220119,,,A*73
$GNVTG,187.28,T,,M,2.848,N,5.274,K,A*25
$GNGGA,060133.00,3030.84596,N,11420.29985,E,1,12,0.82,22.7,M,-10.8,M,,*50
$GNGSA,A,3,14,22,26,31,32,10,25,,,,,,1.49,0.82,1.25*18
$GNGSA,A,3,68,79,78,66,77,67,,,,,,,1.49,0.82,1.25*12
$GPGSV,3,1,09,03,06,323,20,10,33,178,40,14,64,358,35,22,22,311,24*76
$GPGSV,3,2,09,25,40,047,39,26,33,206,43,31,56,300,41,32,69,055,46*77
$GPGSV,3,3,09,41,41,230,41*44
$GLGSV,2,1,07,66,09,148,23,67,62,145,34,68,57,332,33,69,08,330,15*6B
$GLGSV,2,2,07,77,33,026,26,78,67,310,25,79,30,241,39*59
$GNGLL,3030.84596,N,11420.29985,E,060133.00,A,A*7F
$GNRMC,060134.00,A,3030.84518,N,11420.29964,E,2.816,191.00,220119,,,A*7B
$GNVTG,191.00,T,,M,2.816,N,5.216,K,A*27
$GNGGA,060134.00,3030.84518,N,11420.29964,E,1,12,0.82,22.7,M,-10.8,M,,*5E
$GNGSA,A,3,14,22,26,31,32,10,25,,,,,,1.49,0.82,1.25*18
$GNGSA,A,3,68,79,78,66,77,67,,,,,,,1.49,0.82,1.25*12
$GPGSV,3,1,09,03,06,323,19,10,33,178,42,14,64,358,38,22,22,311,28*7F
$GPGSV,3,2,09,25,40,047,37,26,33,206,43,31,56,300,43,32,69,055,43*7E
$GPGSV,3,3,09,41,41,230,42*47
$GLGSV,2,1,07,66,09,148,22,67,62,145,36,68,57,332,33,69,08,330,14*69
$GLGSV,2,2,07,77,33,026,26,78,67,310,23,79,30,241,39*5F
$GNGLL,3030.84518,N,11420.29964,E,060134.00,A,A*71
$GNRMC,060135.00,A,3030.84448,N,11420.29944,E,2.650,192.12,220119,,,A*70
$GNVTG,192.12,T,,M,2.650,N,4.908,K,A*2E
$GNGGA,060135.00,3030.84448,N,11420.29944,E,1,12,0.82,22.5,M,-10.8,M,,*5B
$GNGSA,A,3,14,22,26,31,32,03,10,25,,,,,1.49,0.82,1.25*1B
$GNGSA,A,3,68,79,78,66,77,67,,,,,,,1.49,0.82,1.25*12
$GPGSV,3,1,09,03,06,323,19,10,33,178,41,14,64,358,38,22,22,311,32*77
$GPGSV,3,2,09,25,40,047,41,26,33,206,43,31,56,300,44,32,69,055,45*7E
$GPGSV,3,3,09,41,41,230,41*44
$GLGSV,2,1,07,66,09,148,20,67,62,145,38,68,57,332,34,69,08,330,16*60
$GLGSV,2,2,07,77,33,026,28,78,67,310,24,79,30,241,39*56
$GNGLL,3030.84448,N,11420.29944,E,060135.00,A,A*76
$GNRMC,060136.00,A,3030.84375,N,11420.29923,E,2.715,191.32,220119,,,A*7A
$GNVTG,191.32,T,,M,2.715,N,5.027,K,A*2A
$GNGGA,060136.00,3030.84375,N,11420.29923,E,1,12,0.82,22.5,M,-10.8,M,,*50
$GNGSA,A,3,14,22,26,31,32,10,25,,,,,,1.49,0.82,1.25*18
$GNGSA,A,3,68,79,78,66,77,67,,,,,,,1.49,0.82,1.25*12
$GPGSV,3,1,09,03,06,323,,10,33,178,39,14,64,358,38,22,22,311,33*71
$GPGSV,3,2,09,25,40,047,37,26,33,206,43,31,56,300,43,32,69,055,45*78
$GPGSV,3,3,09,41,41,230,42*47
$GLGSV,2,1,07,66,09,148,19,67,62,145,37,68,57,332,31,69,08,330,18*6E
$GLGSV,2,2,07,77,32,027,28,78,67,310,24,79,30,241,40*58
$GNGLL,3030.84375,N,11420.29923,E,060136.00,A,A*7D
$GNRMC,060137.00,A,3030.84305,N,11420.29898,E,2.627,194.40,220119,,,A*7D
$GNVTG,194.40,T,,M,2.627,N,4.864,K,A*24
$GNGGA,060137.00,3030.84305,N,11420.29898,E,1,12,0.82,22.4,M,-10.8,M,,*56
$GNGSA,A,3,14,22,26,31,32,10,25,,,,,,1.49,0.82,1.25*18
$GNGSA,A,3,68,79,78,66,77,67,,,,,,,1.49,0.82,1.25*12
$GPGSV,3,1,09,03,06,323,22,10,33,178,41,14,64,358,36,22,22,311,36*75
$GPGSV,3,2,09,25,40,047,39,26,33,206,42,31,56,301,37,32,69,055,47*77
$GPGSV,3,3,09,41,41,230,46*43
$GLGSV,2,1,07,66,09,148,19,67,62,145,39,68,57,332,34,69,08,330,19*64
$GLGSV,2,2,07,77,32,027,27,78,67,312,24,79,30,241,40*55
$GNGLL,3030.84305,N,11420.29898,E,060137.00,A,A*7A
$GNRMC,060138.00,A,3030.84231,N,11420.29871,E,2.666,198.16,220119,,,A*79
$GNVTG,198.16,T,,M,2.666,N,4.937,K,A*29
$GNGGA,060138.00,3030.84231,N,11420.29871,E,1,12,0.82,22.5,M,-10.8,M,,*59
$GNGSA,A,3,14,22,26,31,32,10,25,,,,,,1.49,0.82,1.25*18
$GNGSA,A,3,68,79,78,66,77,67,,,,,,,1.49,0.82,1.25*12
$GPGSV,3,1,09,03,06,323,21,10,33,178,37,14,64,358,40,22,22,311,37*77
$GPGSV,3,2,09,25,40,047,37,26,33,206,41,31,56,301,42,32,69,055,45*7A
$GPGSV,3,3,09,41,41,230,45*40
$GLGSV,2,1,07,66,09,148,20,67,62,145,36,68,57,332,33,69,08,330,19*66
$GLGSV,2,2,07,77,32,027,26,78,67,312,22,79,30,241,39*5C
$GNGLL,3030.84231,N,11420.29871,E,060138.00,A,A*74
$GNRMC,060139.00,A,3030.84151,N,11420.29848,E,3.152,194.30,220119,,,A*7E
$GNVTG,194.30,T,,M,3.152,N,5.838,K,A*2F
$GNGGA,060139.00,3030.84151,N,11420.29848,E,1,12,0.82,22.5,M,-10.8,M,,*57
$GNGSA,A,3,14,22,26,31,32,03,10,25,,,,,1.49,0.82,1.25*1B
$GNGSA,A,3,68,79,78,66,77,67,,,,,,,1.49,0.82,1.25*12
$GPGSV,3,1,09,03,06,323,24,10,33,178,40,14,64,358,40,22,22,311,32*77
$GPGSV,3,2,09,25,40,047,40,26,33,206,43,31,56,301,42,32,69,055,48*75
$GPGSV,3,3,09,41,41,230,44*41
$GLGSV,2,1,07,66,09,148,20,67,62,145,33,68,57,332,32,69,08,330,20*68
$GLGSV,2,2,07,77,32,027,27,78,67,312,23,79,30,241,36*53
$GNGLL,3030.84151,N,11420.29848,E,060139.00,A,A*7A
$GNRMC,060140.00,A,3030.84068,N,11420.29832,E,2.939,191.73,220119,,,A*70
$GNVTG,191.73,T,,M,2.939,N,5.443,K,A*29
$GNGGA,060140.00,3030.84068,N,11420.29832,E,1,12,0.82,22.6,M,-10.8,M,,*5C
$GNGSA,A,3,14,22,26,31,32,03,10,25,,,,,1.49,0.82,1.25*1B
$GNGSA,A,3,68,79,78,66,77,67,,,,,,,1.49,0.82,1.25*12
$GPGSV,3,1,09,03,06,323,24,10,33,178,37,14,64,358,41,22,22,311,36*72
$GPGSV,3,2,09,25,40,047,41,26,33,206,43,31,56,301,48,32,69,055,48*7E
$GPGSV,3,3,09,41,41,230,47*42
$GLGSV,2,1,07,66,09,148,17,67,62,145,31,68,57,332,31,69,08,330,19*67
$GLGSV,2,2,07,77,32,027,24,78,67,312,22,79,30,241,35*52
$GNGLL,3030.84068,N,11420.29832,E,060140.00,A,A*72
$GNRMC,060141.00,A,3030.83988,N,11420.29815,E,2.935,191.50,220119,,,A*79
$GNVTG,191.50,T,,M,2.935,N,5.436,K,A*26
$GNGGA,060141.00,3030.83988,N,11420.29815,E,1,12,0.82,22.6,M,-10.8,M,,*58
$GNGSA,A,3,14,22,26,31,32,03,10,25,,,,,1.49,0.82,1.25*1B
$GNGSA,A,3,68,79,78,66,77,67,,,,,,,1.49,0.82,1.25*12
$GPGSV,3,1,09,03,06,323,23,10,33,178,37,14,64,358,41,22,22,311,37*74
$GPGSV,3,2,09,25,40,047,36,26,33,206,42,31,56,301,45,32,69,055,45*7F
$GPGSV,3,3,09,41,41,230,42*47
$GLGSV,2,1,07,66,09,148,15,67,62,145,30,68,57,332,29,69,08,330,18*6C
$GLGSV,2,2,07,77,32,027,22,78,67,312,20,79,30,241,34*57
$GNGLL,3030.83988,N,11420.29815,E,060141.00,A,A*76
$GNRMC,060142.00,A,3030.83910,N,11420.29804,E,2.888,189.87,220119,,,A*7F
$GNVTG,189.87,T,,M,2.888,N,5.349,K,A*2D
$GNGGA,060142.00,3030.83910,N,11420.29804,E,1,12,0.82,22.2,M,-10.8,M,,*5E
$GNGSA,A,3,14,22,26,31,32,03,10,25,,,,,1.49,0.82,1.25*1B
$GNGSA,A,3,68,79,78,66,77,67,,,,,,,1.49,0.82,1.25*12
$GPGSV,3,1,09,03,06,323,24,10,33,178,39,14,64,358,39,22,22,311,36*73
$GPGSV,3,2,09,25,40,047,38,26,33,206,44,31,56,301,45,32,69,055,47*75
$GPGSV,3,3,09,41,41,230,47*42
$GLGSV,2,1,07,66,09,148,14,67,62,145,30,68,57,332,29,69,08,330,*64
$GLGSV,2,2,07,77,32,027,23,78,67,312,18,79,30,241,29*51
$GNGLL,3030.83910,N,11420.29804,E,060142.00,A,A*74
$GNRMC,060143.00,A,3030.83835,N,11420.29786,E,2.652,191.12,220119,,,A*71
$GNVTG,191.12,T,,M,2.652,N,4.911,K,A*27
$GNGGA,060143.00,3030.83835,N,11420.29786,E,1,12,1.04,22.2,M,-10.8,M,,*53
$GNGSA,A,3,14,26,31,32,03,10,25,,,,,,2.11,1.04,1.84*11
$GNGSA,A,3,68,79,78,77,67,,,,,,,,2.11,1.04,1.84*18
$GPGSV,3,1,09,03,06,323,25,10,33,178,42,14,64,358,41,22,22,311,*74
$GPGSV,3,2,09,25,40,047,39,26,33,206,43,31,56,301,45,32,69,055,46*72
$GPGSV,3,3,09,41,41,230,45*40
$GLGSV,2,1,07,66,09,148,11,67,62,145,30,68,57,332,29,69,08,330,*61
$GLGSV,2,2,07,77,32,027,23,78,67,312,19,79,30,241,31*59
$GNGLL,3030.83835,N,11420.29786,E,060143.00,A,A*76
$GNRMC,060144.00,A,3030.83757,N,11420.29771,E,2.619,191.71,220119,,,A*7F
$GNVTG,191.71,T,,M,2.619,N,4.850,K,A*29
$GNGGA,060144.00,3030.83757,N,11420.29771,E,1,12,0.92,22.4,M,-10.8,M,,*5F
$GNGSA,A,3,14,22,26,31,32,03,10,25,,,,,1.81,0.92,1.56*1A
$GNGSA,A,3,68,79,78,66,77,67,,,,,,,1.81,0.92,1.56*13
$GPGSV,3,1,09,03,06,323,25,10,33,178,42,14,64,358,38,22,22,311,38*71
$GPGSV,3,2,09,25,40,047,38,26,33,206,45,31,56,301,45,32,69,055,47*74
$GPGSV,3,3,09,41,41,230,45*40
$GLGSV,2,1,07,66,09,148,12,67,62,145,30,68,57,332,29,69,08,330,*62
$GLGSV,2,2,07,77,32,027,23,78,67,312,20,79,30,241,31*53
$GNGLL,3030.83757,N,11420.29771,E,060144.00,A,A*72
$GNRMC,060145.00,A,3030.83683,N,11420.29758,E,2.666,190.49,220119,,,A*7F
$GNVTG,190.49,T,,M,2.666,N,4.938,K,A*24
$GNGGA,060145.00,3030.83683,N,11420.29758,E,1,12,0.92,22.6,M,-10.8,M,,*5F
$GNGSA,A,3,14,22,26,31,32,03,10,25,,,,,1.81,0.92,1.56*1A
$GNGSA,A,3,68,79,78,66,77,67,,,,,,,1.81,0.92,1.56*13
$GPGSV,3,1,09,03,06,323,25,10,33,178,44,14,64,358,39,22,22,311,34*7A
$GPGSV,3,2,09,25,40,047,37,26,33,206,43,31,56,301,45,32,69,055,48*72
$GPGSV,3,3,09,41,41,230,44*41
$GLGSV,2,1,07,66,09,148,12,67,62,145,31,68,57,332,30,69,08,330,*6B
$GLGSV,2,2,07,77,32,027,23,78,67,312,22,79,30,241,33*53
$GNGLL,3030.83683,N,11420.29758,E,060145.00,A,A*70
$GNRMC,060146.00,A,3030.83608,N,11420.29749,E,2.842,189.12,220119,,,A*71
$GNVTG,189.12,T,,M,2.842,N,5.263,K,A*2E
$GNGGA,060146.00,3030.83608,N,11420.29749,E,1,12,0.97,22.4,M,-10.8,M,,*58
$GNGSA,A,3,14,22,26,31,32,03,10,25,,,,,1.81,0.97,1.53*1A
$GNGSA,A,3,68,79,78,66,77,67,,,,,,,1.81,0.97,1.53*13
$GPGSV,3,1,09,03,06,323,25,10,33,178,43,14,64,358,40,22,22,311,37*70
$GPGSV,3,2,09,25,40,047,40,26,33,206,44,31,56,301,46,32,69,055,48*76
$GPGSV,3,3,09,41,41,230,45*40
$GLGSV,2,1,07,66,09,148,12,67,62,145,35,68,57,332,30,69,08,330,*6F
$GLGSV,2,2,07,77,32,027,24,78,67,312,22,79,30,241,33*54
$GNGLL,3030.83608,N,11420.29749,E,060146.00,A,A*70
$GNRMC,060147.00,A,3030.83519,N,11420.29727,E,2.951,188.55,220119,,,A*7A
$GNVTG,188.55,T,,M,2.951,N,5.465,K,A*2F
$GNGGA,060147.00,3030.83519,N,11420.29727,E,1,12,0.97,22.8,M,-10.8,M,,*5E
$GNGSA,A,3,14,22,26,31,32,03,10,25,,,,,1.81,0.97,1.53*1A
$GNGSA,A,3,68,79,78,66,77,67,,,,,,,1.81,0.97,1.53*13
$GPGSV,3,1,09,03,06,323,26,10,33,178,43,14,64,358,42,22,22,311,39*7F
$GPGSV,3,2,09,25,40,047,42,26,33,206,46,31,56,301,47,32,69,055,49*76
$GPGSV,3,3,09,41,41,230,45*40
$GLGSV,2,1,07,66,09,148,12,67,62,145,31,68,57,332,30,69,08,330,*6B
$GLGSV,2,2,07,77,32,027,24,78,67,312,21,79,30,241,33*57
$GNGLL,3030.83519,N,11420.29727,E,060147.00,A,A*7A
$GNRMC,060148.00,A,3030.83439,N,11420.29714,E,2.942,189.62,220119,,,A*71
$GNVTG,189.62,T,,M,2.942,N,5.448,K,A*27
$GNGGA,060148.00,3030.83439,N,11420.29714,E,1,12,0.92,22.7,M,-10.8,M,,*58
$GNGSA,A,3,14,22,26,31,32,03,10,25,,,,,1.81,0.92,1.56*1A
$GNGSA,A,3,68,79,78,66,77,67,,,,,,,1.81,0.92,1.56*13
$GPGSV,3,1,09,03,06,323,26,10,33,178,42,14,64,358,40,22,22,311,36*73
$GPGSV,3,2,09,25,40,047,38,26,33,206,44,31,56,301,46,32,69,055,46*77
$GPGSV,3,3,09,41,41,230,44*41
$GLGSV,2,1,07,66,09,148,12,67,62,145,30,68,57,332,30,69,08,330,*6A
$GLGSV,2,2,07,77,32,027,24,78,67,312,21,79,30,241,33*57
$GNGLL,3030.83439,N,11420.29714,E,060148.00,A,A*76
$GNRMC,060149.00,A,3030.83358,N,11420.29698,E,2.846,189.37,220119,,,A*70
$GNVTG,189.37,T,,M,2.846,N,5.272,K,A*2D
$GNGGA,060149.00,3030.83358,N,11420.29698,E,1,12,0.82,22.8,M,-10.8,M,,*52
$GNGSA,A,3,14,22,26,31,32,03,10,25,,,,,1.49,0.82,1.25*1B
$GNGSA,A,3,68,79,78,66,77,67,,,,,,,1.49,0.82,1.25*12
$GPGSV,3,1,09,03,06,323,23,10,33,178,37,14,64,358,38,22,22,311,34*79
$GPGSV,3,2,09,25,40,047,39,26,33,206,41,31,56,301,44,32,69,055,44*73
$GPGSV,3,3,09,41,41,230,42*47
$GLGSV,2,1,07,66,09,148,12,67,62,145,31,68,57,332,29,69,08,330,*63
$GLGSV,2,2,07,77,32,027,23,78,67,312,21,79,30,241,33*50
$GNGLL,3030.83358,N,11420.29698,E,060149.00,A,A*72
$GNRMC,060150.00,A,3030.83281,N,11420.29685,E,2.999,189.19,220119,,,A*7E
$GNVTG,189.19,T,,M,2.999,N,5.555,K,A*20
$GNGGA,060150.00,3030.83281,N,11420.29685,E,1,12,0.82,22.5,M,-10.8,M,,*5E
$GNGSA,A,3,14,22,26,31,32,03,10,25,,,,,1.49,0.82,1.25*1B
$GNGSA,A,3,68,79,78,66,77,67,,,,,,,1.49,0.82,1.25*12
$GPGSV,3,1,09,03,06,323,23,10,33,178,34,14,64,358,40,22,22,311,34*75
$GPGSV,3,2,09,25,40,047,37,26,33,206,43,31,56,301,44,32,69,055,45*7E
$GPGSV,3,3,09,41,41,230,44*41
$GLGSV,2,1,07,66,09,148,13,67,62,145,30,68,57,332,29,69,08,330,*63
$GLGSV,2,2,07,77,32,027,22,78,67,312,19,79,30,241,33*5A
$GNGLL,3030.83281,N,11420.29685,E,060150.00,A,A*73
$GNRMC,060151.00,A,3030.83205,N,11420.29668,E,2.942,190.70,220119,,,A*71
$GNVTG,190.70,T,,M,2.942,N,5.448,K,A*2C
$GNGGA,060151.00,3030.83205,N,11420.29668,E,1,12,0.92,22.2,M,-10.8,M,,*56
$GNGSA,A,3,14,22,26,31,32,03,10,25,,,,,1.81,0.92,1.56*1A
$GNGSA,A,3,68,79,78,66,77,67,,,,,,,1.81,0.92,1.56*13
$GPGSV,3,1,09,03,06,323,24,10,33,178,38,14,64,358,40,22,22,311,38*72
$GPGSV,3,2,09,25,40,047,35,26,33,206,43,31,56,301,44,32,69,055,43*7A
$GPGSV,3,3,09,41,41,230,45*40
$GLGSV,2,1,07,66,09,148,13,67,62,145,30,68,57,332,28,69,08,330,*62
$GLGSV,2,2,07,77,32,027,22,78,67,312,19,79,30,241,32*5B
$GNGLL,3030.83205,N,11420.29668,E,060151.00,A,A*7D
$GNRMC,060152.00,A,3030.83123,N,11420.29652,E,2.833,189.08,220119,,,A*7C
$GNVTG,189.08,T,,M,2.833,N,5.247,K,A*25
$GNGGA,060152.00,3030.83123,N,11420.29652,E,1,12,0.82,22.4,M,-10.8,M,,*5C
$GNGSA,A,3,14,22,26,31,32,03,10,25,,,,,1.49,0.82,1.25*1B
$GNGSA,A,3,68,79,78,66,77,67,,,,,,,1.49,0.82,1.25*12
$GPGSV,3,1,09,03,06,323,26,10,33,178,39,14,64,358,41,22,22,311,37*7F
$GPGSV,3,2,09,25,40,047,36,26,33,206,42,31,56,301,46,32,69,055,41*78
$GPGSV,3,3,09,41,41,230,44*41
$GLGSV,2,1,07,66,09,148,12,67,62,145,29,68,57,332,27,69,08,330,*64
$GLGSV,2,2,07,77,32,027,21,78,67,312,20,79,30,241,32*52
$GNGLL,3030.83123,N,11420.29652,E,060152.00,A,A*70
$GNRMC,060153.00,A,3030.83044,N,11420.29633,E,2.834,190.56,220119,,,A*7E
$GNVTG,190.56,T,,M,2.834,N,5.248,K,A*2E
$GNGGA,060153.00,3030.83044,N,11420.29633,E,1,12,0.82,22.4,M,-10.8,M,,*5A
$GNGSA,A,3,14,22,26,31,32,03,10,25,,,,,1.49,0.82,1.25*1B
$GNGSA,A,3,68,79,78,66,77,67,,,,,,,1.49,0.82,1.25*12
$GPGSV,3,1,09,03,06,323,28,10,33,178,36,14,64,358,41,22,22,311,40*7E
$GPGSV,3,2,09,25,40,047,36,26,33,206,40,31,56,301,44,32,69,055,46*7F
$GPGSV,3,3,09,41,41,230,46*43
$GLGSV,2,1,07,66,09,148,12,67,62,145,29,68,57,332,26,69,08,330,*65
$GLGSV,2,2,07,77,32,027,22,78,67,312,21,79,30,241,34*56
$GNGLL,3030.83044,N,11420.29633,E,060153.00,A,A*76
$GNRMC,060154.00,A,3030.82965,N,11420.29615,E,2.848,190.14,220119,,,A*7B
$GNVTG,190.14,T,,M,2.848,N,5.274,K,A*2C
$GNGGA,060154.00,3030.82965,N,11420.29615,E,1,12,0.92,22.4,M,-10.8,M,,*53
$GNGSA,A,3,14,22,26,31,32,03,10,25,,,,,1.81,0.92,1.56*1A
$GNGSA,A,3,68,79,78,66,77,67,,,,,,,1.81,0.92,1.56*13
$GPGSV,3,1,09,03,06,323,30,10,33,178,39,14,64,358,42,22,22,311,37*7B
$GPGSV,3,2,09,25,40,047,37,26,33,206,43,31,56,301,46,32,69,055,44*7D
$GPGSV,3,3,09,41,41,230,46*43
$GLGSV,2,1,07,66,09,148,15,67,62,145,30,68,57,332,25,69,08,330,*69
$GLGSV,2,2,07,77,32,027,23,78,67,312,21,79,30,241,34*57
$GNGLL,3030.82965,N,11420.29615,E,060154.00,A,A*7E
$GNRMC,060155.00,A,3030.82880,N,11420.29601,E,2.860,187.68,220119,,,A*72
$GNVTG,187.68,T,,M,2.860,N,5.297,K,A*26
$GNGGA,060155.00,3030.82880,N,11420.29601,E,1,12,0.75,22.6,M,-10.8,M,,*56
$GNGSA,A,3,14,22,26,31,32,03,10,25,,,,,1.25,0.75,1.00*1E
$GNGSA,A,3,68,79,78,66,77,67,,,,,,,1.25,0.75,1.00*17
$GPGSV,3,1,09,03,06,323,31,10,33,178,39,14,65,359,40,22,22,311,35*7A
$GPGSV,3,2,09,25,40,047,39,26,33,206,42,31,56,301,44,32,69,055,45*71
$GPGSV,3,3,09,41,41,230,46*43
$GLGSV,2,1,07,66,09,148,12,67,62,145,30,68,57,332,25,69,08,330,*6E
$GLGSV,2,2,07,77,32,027,23,78,67,312,20,79,30,241,34*56
$GNGLL,3030.82880,N,11420.29601,E,060155.00,A,A*70
$GNRMC,060156.00,A,3030.82798,N,11420.29586,E,2.893,188.07,220119,,,A*71
$GNVTG,188.07,T,,M,2.893,N,5.358,K,A*2E
$GNGGA,060156.00,3030.82798,N,11420.29586,E,1,12,0.75,22.7,M,-10.8,M,,*5E
$GNGSA,A,3,14,22,26,31,32,03,10,25,,,,,1.25,0.75,1.00*1E
$GNGSA,A,3,68,79,78,66,77,67,,,,,,,1.25,0.75,1.00*17
$GPGSV,3,1,09,03,06,323,32,10,33,178,37,14,65,359,40,22,22,310,33*70
$GPGSV,3,2,09,25,40,047,34,26,33,206,42,31,56,301,44,32,69,055,44*7D
$GPGSV,3,3,09,41,41,230,44*41
$GLGSV,2,1,07,66,09,148,11,67,62,145,30,68,57,332,27,69,08,330,*6F
$GLGSV,2,2,07,77,32,027,23,78,67,312,20,79,30,241,32*50
$GNGLL,3030.82798,N,11420.29586,E,060156.00,A,A*79
$GNRMC,060157.00,A,3030.82716,N,11420.29568,E,2.975,188.56,220119,,,A*7B
$GNVTG,188.56,T,,M,2.975,N,5.510,K,A*29
$GNGGA,060157.00,3030.82716,N,11420.29568,E,1,12,0.85,22.7,M,-10.8,M,,*56
$GNGSA,A,3,14,22,26,31,32,03,10,25,,,,,1.51,0.85,1.25*15
$GNGSA,A,3,68,79,78,66,77,67,,,,,,,1.51,0.85,1.25*1C
$GPGSV,3,1,09,03,06,323,33,10,33,178,35,14,65,359,39,22,22,310,32*7C
$GPGSV,3,2,09,25,39,046,33,26,33,206,43,31,56,301,43,32,69,055,45*72
$GPGSV,3,3,09,41,41,230,46*43
$GLGSV,2,1,07,66,09,148,13,67,62,145,30,68,57,332,28,69,08,330,*62
$GLGSV,2,2,07,77,32,027,22,78,67,312,20,79,30,241,33*50
$GNGLL,3030.82716,N,11420.29568,E,060157.00,A,A*7E
$GNRMC,060158.00,A,3030.82631,N,11420.29551,E,2.905,188.83,220119,,,A*75
$GNVTG,188.83,T,,M,2.905,N,5.380,K,A*29
$GNGGA,060158.00,3030.82631,N,11420.29551,E,1,12,0.75,22.8,M,-10.8,M,,*57
$GNGSA,A,3,14,22,26,31,32,03,10,25,,,,,1.25,0.75,1.00*1E
$GNGSA,A,3,68,79,78,66,77,67,,,,,,,1.25,0.75,1.00*17
$GPGSV,3,1,09,03,06,323,33,10,33,178,40,14,65,359,39,22,22,310,31*7D
$GPGSV,3,2,09,25,39,046,27,26,33,206,42,31,56,301,45,32,69,055,46*73
$GPGSV,3,3,09,41,41,230,44*41
$GLGSV,2,1,07,66,09,148,15,67,62,145,30,68,57,332,28,69,08,330,24*62
$GLGSV,2,2,07,77,32,027,21,78,67,312,21,79,30,241,34*55
$GNGLL,3030.82631,N,11420.29551,E,060158.00,A,A*7F
$GNRMC,060159.00,A,3030.82550,N,11420.29534,E,2.744,188.38,220119,,,A*78
$GNVTG,188.38,T,,M,2.744,N,5.081,K,A*20
$GNGGA,060159.00,3030.82550,N,11420.29534,E,1,12,0.75,22.9,M,-10.8,M,,*50
$GNGSA,A,3,14,22,26,31,32,03,10,25,,,,,1.25,0.75,1.00*1E
$GNGSA,A,3,68,79,78,66,77,67,,,,,,,1.25,0.75,1.00*17
$GPGSV,3,1,09,03,06,323,32,10,33,178,37,14,65,359,36,22,22,310,35*77
$GPGSV,3,2,09,25,39,046,35,26,33,206,40,31,56,301,45,32,69,055,48*7C
$GPGSV,3,3,09,41,41,230,44*41
$GLGSV,2,1,07,66,09,148,13,67,62,145,31,68,57,332,29,69,08,330,23*63
$GLGSV,2,2,07,77,32,027,22,78,67,312,21,79,30,241,35*57
$GNGLL,3030.82550,N,11420.29534,E,060159.00,A,A*79
$GNRMC,060200.00,A,3030.82489,N,11420.29524,E,2.224,190.96,220119,,,A*7D
$GNVTG,190.96,T,,M,2.224,N,4.119,K,A*2F
$GNGGA,060200.00,3030.82489,N,11420.29524,E,1,12,0.85,22.3,M,-10.8,M,,*5E
$GNGSA,A,3,14,22,26,31,32,03,10,25,,,,,1.51,0.85,1.25*15
$GNGSA,A,3,68,79,78,66,77,67,,,,,,,1.51,0.85,1.25*1C
$GPGSV,3,1,09,03,06,323,33,10,33,178,38,14,65,359,35,22,22,310,33*7C
$GPGSV,3,2,09,25,39,046,35,26,33,206,42,31,56,301,43,32,69,055,47*77
$GPGSV,3,3,09,41,41,230,45*40
$GLGSV,2,1,07,66,09,148,12,67,62,145,30,68,57,332,29,69,08,330,24*64
$GLGSV,2,2,07,77,32,027,21,78,67,312,20,79,30,241,34*54
$GNGLL,3030.82489,N,11420.29524,E,060200.00,A,A*72
$GNRMC,060201.00,A,3030.82415,N,11420.29511,E,2.617,189.63,220119,,,D*7C
$GNVTG,189.63,T,,M,2.617,N,4.846,K,D*2F
$GNGGA,060201.00,3030.82415,N,11420.29511,E,2,12,0.75,22.3,M,-10.8,M,,0000*50
$GNGSA,A,3,14,22,26,31,32,03,10,25,,,,,1.25,0.75,1.00*1E
$GNGSA,A,3,68,79,78,66,77,67,,,,,,,1.25,0.75,1.00*17
$GPGSV,3,1,09,03,06,323,32,10,33,178,38,14,65,359,38,22,22,310,32*71
$GPGSV,3,2,09,25,39,046,35,26,33,206,42,31,56,301,44,32,69,055,48*7F
$GPGSV,3,3,09,41,41,230,43*46
$GLGSV,2,1,07,66,09,148,12,67,62,145,29,68,57,332,29,69,08,330,24*6C
$GLGSV,2,2,07,77,32,027,20,78,67,312,19,79,30,241,33*58
$GNGLL,3030.82415,N,11420.29511,E,060201.00,A,D*75
$GNRMC,060202.00,A,3030.82343,N,11420.29498,E,2.585,187.80,220119,,,D*70
$GNVTG,187.80,T,,M,2.585,N,4.788,K,D*29
$GNGGA,060202.00,3030.82343,N,11420.29498,E,2,12,0.72,22.4,M,-10.8,M,,0000*57
$GNGSA,A,3,14,22,26,31,32,03,10,25,41,,,,1.22,0.72,0.99*1A
$GNGSA,A,3,68,79,78,66,77,67,,,,,,,1.22,0.72,0.99*16
$GPGSV,3,1,10,03,06,323,31,10,33,178,39,14,65,359,37,22,22,310,33*75
$GPGSV,3,2,10,25,39,046,35,26,33,206,40,31,56,301,44,32,69,056,47*79
$GPGSV,3,3,10,40,18,253,,41,41,230,43*77
$GLGSV,2,1,07,66,09,148,14,67,62,145,29,68,57,332,28,69,08,330,24*6B
$GLGSV,2,2,07,77,32,027,21,78,67,312,17,79,30,241,33*57
$GNGLL,3030.82343,N,11420.29498,E,060202.00,A,D*72
$GNRMC,060203.00,A,3030.82270,N,11420.29486,E,2.478,188.06,220119,,,D*7D
$GNVTG,188.06,T,,M,2.478,N,4.590,K,D*20
$GNGGA,060203.00,3030.82270,N,11420.29486,E,2,12,0.82,22.6,M,-10.8,M,,0000*55
$GNGSA,A,3,14,22,26,31,32,03,10,25,41,,,,1.49,0.82,1.25*1E
$GNGSA,A,3,68,79,78,66,77,67,,,,,,,1.49,0.82,1.25*12
$GPGSV,3,1,10,03,06,323,31,10,33,178,37,14,65,359,40,22,22,310,37*7F
$GPGSV,3,2,10,25,39,046,37,26,33,206,37,31,56,301,47,32,69,056,47*78
$GPGSV,3,3,10,40,18,253,,41,41,230,42*76
$GLGSV,2,1,07,66,09,148,13,67,62,145,30,68,57,332,28,69,08,330,24*64
$GLGSV,2,2,07,77,32,027,20,78,67,312,18,79,30,241,34*5E
$GNGLL,3030.82270,N,11420.29486,E,060203.00,A,D*7D
$GNRMC,060204.00,A,3030.82215,N,11420.29464,E,1.872,193.49,220119,,,D*71
$GNVTG,193.49,T,,M,1.872,N,3.468,K,D*25
$GNGGA,060204.00,3030.82215,N,11420.29464,E,2,12,0.76,22.6,M,-10.8,M,,0000*56
$GNGSA,A,3,14,22,26,31,32,03,10,25,41,,,,1.44,0.76,1.22*1F
$GNGSA,A,3,68,79,78,66,77,67,,,,,,,1.44,0.76,1.22*13
$GPGSV,3,1,10,03,06,323,39,10,33,178,38,14,65,359,41,22,22,310,37*79
$GPGSV,3,2,10,25,39,046,33,26,33,206,32,31,56,301,44,32,69,056,42*7F
$GPGSV,3,3,10,40,18,253,,41,41,230,39*7A
$GLGSV,2,1,07,66,09,148,14,67,62,145,30,68,57,332,27,69,08,330,22*6A
$GLGSV,2,2,07,77,32,027,21,78,67,312,20,79,30,241,33*53
$GNGLL,3030.82215,N,11420.29464,E,060204.00,A,D*75
$GNRMC,060205.00,A,3030.82211,N,11420.29428,E,1.284,225.62,220119,,,D*78
$GNVTG,225.62,T,,M,1.284,N,2.378,K,D*26
$GNGGA,060205.00,3030.82211,N,11420.29428,E,2,12,0.72,22.3,M,-10.8,M,,0000*5A
$GNGSA,A,3,14,22,26,31,32,03,10,25,41,,,,1.22,0.72,0.99*1A
$GNGSA,A,3,68,79,78,66,77,67,,,,,,,1.22,0.72,0.99*16
$GPGSV,3,1,10,03,06,323,32,10,33,178,38,14,65,359,42,22,22,310,34*72
$GPGSV,3,2,10,25,39,046,28,26,33,206,42,31,56,301,47,32,69,056,42*71
$GPGSV,3,3,10,40,18,253,,41,41,230,40*74
$GLGSV,2,1,07,66,09,148,11,67,62,145,38,68,57,332,27,69,08,330,25*60
$GLGSV,2,2,07,77,32,027,21,78,67,312,25,79,30,241,33*56
$GNGLL,3030.82211,N,11420.29428,E,060205.00,A,D*78
$GNRMC,060206.00,A,3030.82212,N,11420.29355,E,2.356,272.26,220119,,,D*7A
$GNVTG,272.26,T,,M,2.356,N,4.363,K,D*25
$GNGGA,060206.00,3030.82212,N,11420.29355,E,2,12,0.82,22.7,M,-10.8,M,,0000*5C
$GNGSA,A,3,14,22,26,31,32,03,10,25,41,,,,1.49,0.82,1.25*1E
$GNGSA,A,3,68,79,78,66,77,67,,,,,,,1.49,0.82,1.25*12
$GPGSV,3,1,10,03,06,323,29,10,33,178,42,14,65,359,42,22,22,310,33*72
$GPGSV,3,2,10,25,39,046,34,26,33,206,41,31,56,301,48,32,69,056,42*70
$GPGSV,3,3,10,40,18,253,,41,41,230,41*75
$GLGSV,2,1,07,66,09,148,14,67,62,145,35,68,57,332,27,69,08,330,25*68
$GLGSV,2,2,07,77,32,027,22,78,67,312,26,79,30,241,34*51
$GNGLL,3030.82212,N,11420.29355,E,060206.00,A,D*75
$GNRMC,060207.00,A,3030.82222,N,11420.29271,E,2.938,277.85,220119,,,D*71
$GNVTG,277.85,T,,M,2.938,N,5.441,K,D*2D
$GNGGA,060207.00,3030.82222,N,11420.29271,E,2,12,0.76,22.5,M,-10.8,M,,0000*50
$GNGSA,A,3,14,22,26,31,32,03,10,25,41,,,,1.44,0.76,1.22*1F
$GNGSA,A,3,68,79,78,66,77,67,,,,,,,1.44,0.76,1.22*13
$GPGSV,3,1,10,03,06,323,28,10,33,178,43,14,65,359,42,22,22,310,32*73
$GPGSV,3,2,10,25,39,046,35,26,33,206,41,31,56,301,47,32,69,056,40*7C
$GPGSV,3,3,10,40,18,253,,41,41,230,41*75
$GLGSV,2,1,07,66,09,148,13,67,62,145,36,68,57,332,28,69,08,330,25*63
$GLGSV,2,2,07,77,32,027,22,78,67,312,31,79,30,241,35*56
$GNGLL,3030.82222,N,11420.29271,E,060207.00,A,D*70
$GNRMC,060208.00,A,3030.82232,N,11420.29183,E,2.872,278.82,220119,,,D*76
$GNVTG,278.82,T,,M,2.872,N,5.319,K,D*20
$GNGGA,060208.00,3030.82232,N,11420.29183,E,2,12,0.78,22.5,M,-10.8,M,,0000*5E
$GNGSA,A,3,14,22,26,31,32,03,10,25,41,,,,1.47,0.78,1.25*15
$GNGSA,A,3,68,79,78,66,77,67,,,,,,,1.47,0.78,1.25*19
$GPGSV,3,1,10,03,06,323,28,10,33,178,43,14,65,359,42,22,22,310,33*72
$GPGSV,3,2,10,25,39,046,36,26,33,206,41,31,56,301,47,32,69,056,34*7C
$GPGSV,3,3,10,40,18,253,,41,41,230,42*76
$GLGSV,2,1,07,66,09,148,13,67,62,145,36,68,57,332,28,69,08,330,23*65
$GLGSV,2,2,07,77,32,027,21,78,67,312,30,79,30,241,31*50
$GNGLL,3030.82232,N,11420.29183,E,060208.00,A,D*70
$GNRMC,060209.00,A,3030.82237,N,11420.29089,E,2.826,279.07,220119,,,D*74
$GNVTG,279.07,T,,M,2.826,N,5.234,K,D*23
$GNGGA,060209.00,3030.82237,N,11420.29089,E,2,12,0.85,22.3,M,-10.8,M,,0000*55
$GNGSA,A,3,14,22,26,31,32,03,10,25,41,,,,1.80,0.85,1.59*17
$GNGSA,A,3,68,79,78,66,77,67,,,,,,,1.80,0.85,1.59*1B
$GPGSV,3,1,11,03,06,323,23,10,33,178,41,14,65,359,41,22,22,310,32*78
$GPGSV,3,2,11,25,39,046,35,26,33,206,39,31,56,301,46,32,69,056,40*73
$GPGSV,3,3,11,40,18,253,,41,41,230,42,50,41,131,34*43
$GLGSV,2,1,07,66,09,148,09,67,62,145,37,68,57,332,31,69,08,330,29*6D
$GLGSV,2,2,07,77,32,027,20,78,67,312,28,79,30,241,33*5A
$GNGLL,3030.82237,N,11420.29089,E,060209.00,A,D*7F
$GNRMC,060210.00,A,3030.82252,N,11420.28992,E,2.956,278.56,220119,,,D*7E
$GNVTG,278.56,T,,M,2.956,N,5.475,K,D*23
$GNGGA,060210.00,3030.82252,N,11420.28992,E,2,12,0.76,22.0,M,-10.8,M,,0000*53
$GNGSA,A,3,14,22,26,31,32,03,10,25,41,,,,1.44,0.76,1.22*1F
$GNGSA,A,3,68,79,78,66,77,67,,,,,,,1.44,0.76,1.22*13
$GPGSV,3,1,11,03,06,323,23,10,33,178,40,14,65,359,40,22,22,310,35*7F
$GPGSV,3,2,11,25,39,046,31,26,33,206,39,31,56,301,46,32,69,056,41*76
$GPGSV,3,3,11,40,18,253,,41,41,230,40,50,41,131,34*41
$GLGSV,2,1,07,66,09,148,08,67,62,145,37,68,57,332,31,69,08,330,28*6D
$GLGSV,2,2,07,77,32,027,22,78,67,312,30,79,30,241,35*57
$GNGLL,3030.82252,N,11420.28992,E,060210.00,A,D*76
$GNRMC,060211.00,A,3030.82262,N,11420.28898,E,2.817,277.65,220119,,,D*7C
$GNVTG,277.65,T,,M,2.817,N,5.216,K,D*2B
$GNGGA,060211.00,3030.82262,N,11420.28898,E,2,12,0.76,22.1,M,-10.8,M,,0000*5B
$GNGSA,A,3,14,22,26,31,32,03,10,25,41,,,,1.44,0.76,1.22*1F
$GNGSA,A,3,68,79,78,66,77,67,,,,,,,1.44,0.76,1.22*13
$GPGSV,3,1,11,03,06,323,26,10,33,178,41,14,65,359,40,22,22,310,33*7D
$GPGSV,3,2,11,25,39,046,35,26,33,206,40,31,56,301,46,32,69,056,41*7C
$GPGSV,3,3,11,40,18,253,,41,41,230,40,50,41,131,35*40
$GLGSV,2,1,07,66,09,148,09,67,62,145,37,68,57,332,32,69,08,330,16*62
$GLGSV,2,2,07,77,32,027,23,78,67,312,30,79,30,241,33*50
$GNGLL,3030.82262,N,11420.28898,E,060211.00,A,D*7F
$GNRMC,060212.00,A,3030.82274,N,11420.28807,E,2.702,277.60,220119,,,D*70
$GNVTG,277.60,T,,M,2.702,N,5.004,K,D*24
$GNGGA,060212.00,3030.82274,N,11420.28807,E,2,12,0.84,22.1,M,-10.8,M,,0000*54
$GNGSA,A,3,14,22,26,31,32,03,10,25,41,,,,1.77,0.84,1.56*11
$GNGSA,A,3,68,79,78,77,67,,,,,,,,1.77,0.84,1.56*1D
$GPGSV,3,1,11,03,06,323,25,10,33,178,41,14,65,359,40,22,22,310,29*75
$GPGSV,3,2,11,25,39,046,37,26,33,206,41,31,56,301,47,32,69,056,42*7D
$GPGSV,3,3,11,40,18,253,,41,41,230,40,50,41,131,35*40
$GLGSV,2,1,07,66,09,148,09,67,62,145,39,68,57,332,32,69,08,330,19*63
$GLGSV,2,2,07,77,32,027,23,78,67,312,29,79,30,241,34*5F
$GNGLL,3030.82274,N,11420.28807,E,060212.00,A,D*7D
$GNRMC,060213.00,A,3030.82286,N,11420.28726,E,2.566,277.83,220119,,,D*7D
$GNVTG,277.83,T,,M,2.566,N,4.752,K,D*2C
$GNGGA,060213.00,3030.82286,N,11420.28726,E,2,12,0.84,22.0,M,-10.8,M,,0000*55
$GNGSA,A,3,14,22,26,31,32,03,10,25,41,,,,1.77,0.84,1.56*11
$GNGSA,A,3,68,79,78,77,67,,,,,,,,1.77,0.84,1.56*1D
$GPGSV,3,1,11,03,06,323,26,10,33,178,41,14,65,359,40,22,22,310,34*7A
$GPGSV,3,2,11,25,39,046,26,26,33,206,38,31,56,301,46,32,69,056,41*71
$GPGSV,3,3,11,40,18,253,,41,41,230,40,50,41,131,36*43
$GLGSV,2,1,07,66,09,148,07,67,62,145,37,68,57,332,32,69,08,330,23*6A
$GLGSV,2,2,07,77,32,027,22,78,67,312,29,79,30,241,30*5A
$GNGLL,3030.82286,N,11420.28726,E,060213.00,A,D*7D
$GNRMC,060214.00,A,3030.82298,N,11420.28644,E,2.589,280.14,220119,,,D*77
$GNVTG,280.14,T,,M,2.589,N,4.794,K,D*21
$GNGGA,060214.00,3030.82298,N,11420.28644,E,2,12,0.84,22.0,M,-10.8,M,,0000*58
$GNGSA,A,3,14,22,26,31,32,03,10,25,41,,,,1.77,0.84,1.56*11
$GNGSA,A,3,68,79,78,77,67,,,,,,,,1.77,0.84,1.56*1D
$GPGSV,3,1,11,03,06,323,25,10,33,178,44,14,65,359,41,22,22,310,37*7E
$GPGSV,3,2,11,25,39,046,35,26,33,206,42,31,56,301,47,32,69,056,42*7C
$GPGSV,3,3,11,40,18,253,,41,41,230,41,50,41,131,36*42
$GLGSV,2,1,07,66,09,148,12,67,62,145,37,68,57,332,32,69,08,330,29*64
$GLGSV,2,2,07,77,32,027,22,78,67,312,30,79,30,241,31*53
$GNGLL,3030.82298,N,11420.28644,E,060214.00,A,D*70
$GNRMC,060215.00,A,3030.82313,N,11420.28554,E,2.917,282.19,220119,,,D*72
$GNVTG,282.19,T,,M,2.917,N,5.402,K,D*28
$GNGGA,060215.00,3030.82313,N,11420.28554,E,2,12,0.76,22.1,M,-10.8,M,,0000*55
$GNGSA,A,3,14,22,26,31,32,03,10,25,41,,,,1.44,0.76,1.22*1F
$GNGSA,A,3,68,79,78,66,77,67,,,,,,,1.44,0.76,1.22*13
$GPGSV,3,1,11,03,06,323,26,10,33,178,44,14,65,359,42,22,22,310,32*7B
$GPGSV,3,2,11,25,39,046,33,26,33,206,41,31,56,301,46,32,69,056,44*7E
$GPGSV,3,3,11,40,18,253,,41,41,230,34,50,41,131,35*43
$GLGSV,2,1,07,66,09,148,11,67,62,145,36,68,57,332,33,69,08,330,27*69
$GLGSV,2,2,07,77,32,027,21,78,67,312,32,79,30,241,34*57
$GNGLL,3030.82313,N,11420.28554,E,060215.00,A,D*71
$GNRMC,060216.00,A,3030.82327,N,11420.28452,E,2.942,282.18,220119,,,D*70
$GNVTG,282.18,T,,M,2.942,N,5.449,K,D*26
$GNGGA,060216.00,3030.82327,N,11420.28452,E,2,12,0.76,22.2,M,-10.8,M,,0000*55
$GNGSA,A,3,14,22,26,31,32,03,10,25,41,,,,1.44,0.76,1.22*1F
$GNGSA,A,3,68,79,78,66,77,67,,,,,,,1.44,0.76,1.22*13
$GPGSV,3,1,11,03,06,323,25,10,33,178,43,14,65,359,42,22,22,310,31*7C
$GPGSV,3,2,11,25,39,046,34,26,33,206,42,31,56,301,47,32,69,056,45*7A
$GPGSV,3,3,11,40,18,253,,41,41,230,36,50,41,131,35*41
$GLGSV,2,1,07,66,09,148,10,67,62,145,38,68,57,332,33,69,08,330,25*64
$GLGSV,2,2,07,77,32,027,22,78,67,312,31,79,30,241,32*51
$GNGLL,3030.82327,N,11420.28452,E,060216.00,A,D*72
$GNRMC,060217.00,A,3030.82342,N,11420.28358,E,2.900,283.56,220119,,,D*72
$GNVTG,283.56,T,,M,2.900,N,5.371,K,D*27
$GNGGA,060217.00,3030.82342,N,11420.28358,E,2,12,0.76,22.4,M,-10.8,M,,0000*5C
$GNGSA,A,3,14,22,26,31,32,03,10,25,41,,,,1.44,0.76,1.22*1F
$GNGSA,A,3,68,79,78,66,77,67,,,,,,,1.44,0.76,1.22*13
$GPGSV,3,1,11,03,06,323,25,10,33,178,44,14,65,359,42,22,22,310,31*7B
$GPGSV,3,2,11,25,39,046,34,26,33,206,42,31,56,301,47,32,69,056,42*7D
$GPGSV,3,3,11,40,18,253,,41,41,230,36,50,41,131,38*4C
$GLGSV,2,1,07,66,09,148,10,67,62,145,36,68,57,332,32,69,08,330,23*6D
$GLGSV,2,2,07,77,32,027,22,78,67,312,31,79,30,241,32*51
$GNGLL,3030.82342,N,11420.28358,E,060217.00,A,D*7D
$GNRMC,060218.00,A,3030.82360,N,11420.28266,E,2.872,282.58,220119,,,D*7A
$GNVTG,282.58,T,,M,2.872,N,5.319,K,D*22
$GNGGA,060218.00,3030.82360,N,11420.28266,E,2,12,0.84,22.3,M,-10.8,M,,0000*55
$GNGSA,A,3,14,22,26,31,32,03,10,25,41,,,,1.77,0.84,1.55*12
$GNGSA,A,3,68,79,78,66,77,67,,,,,,,1.77,0.84,1.55*1E
$GPGSV,3,1,11,03,06,323,26,10,33,178,44,14,65,359,42,22,22,310,33*7A
$GPGSV,3,2,11,25,39,046,34,26,33,206,41,31,56,301,48,32,69,056,41*72
$GPGSV,3,3,11,40,18,253,,41,41,230,35,50,41,131,35*42
$GLGSV,2,1,07,66,09,148,11,67,62,145,38,68,57,332,33,69,08,330,23*63
$GLGSV,2,2,07,77,32,027,22,78,67,312,30,79,30,241,33*51
$GNGLL,3030.82360,N,11420.28266,E,060218.00,A,D*7E
$GNRMC,060219.00,A,3030.82372,N,11420.28175,E,2.639,282.14,220119,,,D*70
$GNVTG,282.14,T,,M,2.639,N,4.887,K,D*26
$GNGGA,060219.00,3030.82372,N,11420.28175,E,2,12,0.76,22.2,M,-10.8,M,,0000*5A
$GNGSA,A,3,14,22,26,31,32,03,10,25,41,,,,1.44,0.76,1.22*1F
$GNGSA,A,3,68,79,78,66,77,67,,,,,,,1.44,0.76,1.22*13
$GPGSV,3,1,11,03,06,323,31,10,33,178,42,14,65,359,41,22,22,310,30*7A
$GPGSV,3,2,11,25,39,046,34,26,33,206,40,31,56,301,47,32,69,056,43*7E
$GPGSV,3,3,11,40,18,253,,41,41,230,38,50,41,131,35*4F
$GLGSV,2,1,07,66,09,148,09,67,62,145,35,68,57,332,34,69,08,330,24*67
$GLGSV,2,2,07,77,32,027,21,78,67,312,31,79,30,241,38*58
$GNGLL,3030.82372,N,11420.28175,E,060219.00,A,D*7D
$GNRMC,060220.00,A,3030.82385,N,11420.28086,E,2.648,284.72,220119,,,D*7F
$GNVTG,284.72,T,,M,2.648,N,4.904,K,D*2C
$GNGGA,060220.00,3030.82385,N,11420.28086,E,2,12,0.76,22.5,M,-10.8,M,,0000*52
$GNGSA,A,3,14,22,26,31,32,10,25,41,,,,,1.44,0.76,1.22*1C
$GNGSA,A,3,68,79,78,66,77,67,,,,,,,1.44,0.76,1.22*13
$GPGSV,3,1,11,03,06,323,25,10,33,178,44,14,65,359,45,22,22,310,28*74
$GPGSV,3,2,11,25,39,046,41,26,33,206,43,31,56,301,47,32,69,056,43*7F
$GPGSV,3,3,11,40,18,253,,41,41,230,42,50,41,131,33*44
$GLGSV,2,1,07,66,09,148,13,67,62,145,32,68,57,332,32,69,08,330,25*6C
$GLGSV,2,2,07,77,32,027,24,78,67,312,33,79,30,241,33*54
$GNGLL,3030.82385,N,11420.28086,E,060220.00,A,D*72
$GNRMC,060221.00,A,3030.82406,N,11420.28047,E,1.148,290.39,220119,,,D*71
$GNVTG,290.39,T,,M,1.148,N,2.126,K,D*2C
$GNGGA,060221.00,3030.82406,N,11420.28047,E,2,12,0.82,22.3,M,-10.8,M,,0000*5F
$GNGSA,A,3,14,22,26,31,32,03,10,25,41,,,,1.49,0.82,1.25*1E
$GNGSA,A,3,68,79,78,66,77,67,,,,,,,1.49,0.82,1.25*12
$GPGSV,3,1,11,03,06,323,37,10,33,178,37,14,65,359,43,22,22,310,35*79
$GPGSV,3,2,11,25,39,046,42,26,33,206,46,31,56,301,48,32,69,056,39*7B
