5,40,18,253,,41,41,230,36*49
$GLGSV,2,1,06,78,16,144,14,79,69,129,30,80,52,334,,81,35,025,24*61
$GLGSV,2,2,06,82,70,303,32,83,31,234,34*64
$GNGLL,3030.86387,N,11420.30012,E,135250.00,A,D*76
$GNRMC,135251.00,A,3030.86386,N,11420.30016,E,0.007,,200119,,,D*67
$GNVTG,,T,,M,0.007,N,0.014,K,D*3A
$GNGGA,135251.00,3030.86386,N,11420.30016,E,2,12,0.83,21.4,M,-10.8,M,,0000*5A
$GNGSA,A,3,07,01,17,08,22,30,28,18,11,41,,,1.46,0.83,1.20*1A
$GNGSA,A,3,82,79,83,78,81,,,,,,,,1.46,0.83,1.20*1E
$GPGSV,4,1,15,01,71,142,34,07,62,215,40,08,34,046,39,09,02,206,*76
$GPGSV,4,2,15,11,79,037,30,13,01,311,,16,01,111,,17,20,259,19*77
$GPGSV,4,3,15,18,59,063,37,22,18,131,27,27,07,059,,28,32,316,27*75
$GPGSV,4,4,15,30,55,287,25,40,18,253,,41,41,230,38*47
$GLGSV,2,1,06,78,16,144,14,79,69,129,31,80,52,334,,81,35,025,25*61
$GLGSV,2,2,06,82,70,303,35,83,31,234,36*61
$GNGLL,3030.86386,N,11420.30016,E,135251.00,A,D*72
$GNRMC,135252.00,A,3030.86389,N,11420.30020,E,0.069,,200119,,,D*66
$GNVTG,,T,,M,0.069,N,0.129,K,D*3D
$GNGGA,135252.00,3030.86389,N,11420.30020,E,2,12,0.83,21.7,M,-10.8,M,,0000*50
$GNGSA,A,3,07,01,17,08,22,30,28,18,11,41,,,1.46,0.83,1.20*1A
$GNGSA,A,3,82,79,83,81,,,,,,,,,1.46,0.83,1.20*11
$GPGSV,4,1,15,01,71,142,33,07,62,215,41,08,34,046,39,09,02,206,*70
$GPGSV,4,2,15,11,79,037,29,13,01,311,,16,01,111,,17,20,259,19*7F
$GPGSV,4,3,15,18,59,063,38,22,18,131,27,27,07,059,,28,32,316,27*7A
$GPGSV,4,4,15,30,55,287,25,40,18,253,,41,41,230,37*48
$GLGSV,2,1,06,78,16,144,,79,68,130,32,80,52,334,,81,35,025,26*6D
$GLGSV,2,2,06,82,70,303,35,83,31,234,37*60
$GNGLL,3030.86389,N,11420.30020,E,135252.00,A,D*7B
$GNRMC,135253.00,A,3030.86388,N,11420.30021,E,0.028,,200119,,,D*62
$GNVTG,,T,,M,0.028,N,0.052,K,D*35
$GNGGA,135253.00,3030.86388,N,11420.30021,E,2,12,0.83,22.0,M,-10.8,M,,0000*55
$GNGSA,A,3,07,01,17,08,22,30,28,18,11,41,,,1.46,0.83,1.20*1A
$GNGSA,A,3,82,79,83,81,,,,,,,,,1.46,0.83,1.20*11
$GPGSV,4,1,15,01,71,142,33,07,62,215,40,08,34,046,39,09,02,206,*71
$GPGSV,4,2,15,11,79,037,29,13,01,311,,16,01,111,,17,20,259,20*75
$GPGSV,4,3,15,18,59,063,38,22,18,131,27,27,07,059,,28,32,316,28*75
$GPGSV,4,4,15,30,55,287,25,40,18,253,,41,41,230,38*47
$GLGSV,2,1,06,78,16,144,,79,68,130,33,80,52,334,,81,35,025,27*6D
$GLGSV,2,2,06,82,70,303,34,83,31,234,37*61
$GNGLL,3030.86388,N,11420.30021,E,135253.00,A,D*7A
$GNRMC,135254.00,A,3030.86388,N,11420.30020,E,0.024,,200119,,,D*68
$GNVTG,,T,,M,0.024,N,0.045,K,D*3F
$GNGGA,135254.00,3030.86388,N,11420.30020,E,2,12,0.86,22.1,M,-10.8,M,,0000*57
$GNGSA,A,3,07,01,17,08,22,30,28,18,11,41,,,1.59,0.86,1.34*14
$GNGSA,A,3,82,79,83,81,,,,,,,,,1.59,0.86,1.34*1F
$GPGSV,4,1,15,01,71,142,32,07,62,215,40,08,34,046,39,09,02,206,*70
$GPGSV,4,2,15,11,79,037,28,13,01,311,,16,01,111,,17,20,259,22*76
$GPGSV,4,3,15,18,59,063,38,22,18,131,27,27,07,059,,28,32,316,29*74
$GPGSV,4,4,15,30,55,287,25,40,18,253,,41,41,230,37*48
$GLGSV,2,1,06,78,16,144,,79,68,130,33,80,52,334,,81,35,025,27*6D
$GLGSV,2,2,06,82,70,303,33,83,31,234,37*66
$GNGLL,3030.86388,N,11420.30020,E,135254.00,A,D*7C
$GNRMC,135255.00,A,3030.86382,N,11420.30024,E,0.018,,200119,,,D*68
$GNVTG,,T,,M,0.018,N,0.034,K,D*36
$GNGGA,135255.00,3030.86382,N,11420.30024,E,2,12,0.86,22.2,M,-10.8,M,,0000*5B
$GNGSA,A,3,07,01,17,08,22,30,28,18,11,41,,,1.59,0.86,1.34*14
$GNGSA,A,3,82,79,83,81,,,,,,,,,1.59,0.86,1.34*1F
$GPGSV,4,1,15,01,71,142,32,07,62,215,40,08,34,046,39,09,02,206,*70
$GPGSV,4,2,15,11,79,037,28,13,01,311,,16,01,111,,17,20,259,23*77
$GPGSV,4,3,15,18,59,063,38,22,18,131,27,27,07,059,,28,32,316,30*7C
$GPGSV,4,4,15,30,55,287,26,40,18,253,,41,41,230,37*4B
$GLGSV,2,1,06,78,16,144,,79,68,130,34,80,52,334,,81,35,025,27*6A
$GLGSV,2,2,06,82,69,305,34,83,31,234,37*6F
$GNGLL,3030.86382,N,11420.30024,E,135255.00,A,D*73
$GNRMC,135256.00,A,3030.86373,N,11420.30031,E,0.014,,200119,,,D*6D
$GNVTG,,T,,M,0.014,N,0.026,K,D*39
$GNGGA,135256.00,3030.86373,N,11420.30031,E,2,12,0.86,22.3,M,-10.8,M,,0000*53
$GNGSA,A,3,07,01,17,08,22,30,28,18,11,41,,,1.59,0.86,1.34*14
$GNGSA,A,3,82,79,83,81,,,,,,,,,1.59,0.86,1.34*1F
$GPGSV,4,1,15,01,71,142,32,07,62,215,40,08,34,046,39,09,02,206,*70
$GPGSV,4,2,15,11,79,037,28,13,01,311,,16,01,111,,17,20,259,24*70
$GPGSV,4,3,15,18,59,063,38,22,18,131,27,27,07,059,,28,32,316,30*7C
$GPGSV,4,4,15,30,55,287,26,40,18,253,,41,41,230,37*4B
$GLGSV,2,1,06,78,16,144,,79,68,130,33,80,52,334,,81,35,025,26*6C
$GLGSV,2,2,06,82,69,305,33,83,31,235,35*6B
$GNGLL,3030.86373,N,11420.30031,E,135256.00,A,D*7A
$GNRMC,135257.00,A,3030.86365,N,11420.30039,E,0.017,,200119,,,D*60
$GNVTG,,T,,M,0.017,N,0.031,K,D*3C
$GNGGA,135257.00,3030.86365,N,11420.30039,E,2,12,0.86,22.4,M,-10.8,M,,0000*5A
$GNGSA,A,3,07,01,17,08,22,30,28,18,11,41,,,1.59,0.86,1.34*14
$GNGSA,A,3,82,79,83,81,,,,,,,,,1.59,0.86,1.34*1F
$GPGSV,4,1,15,01,71,142,32,07,62,215,40,08,34,046,39,09,02,206,*70
$GPGSV,4,2,15,11,79,037,28,13,01,311,,16,01,111,,17,20,259,24*70
$GPGSV,4,3,15,18,59,063,38,22,18,131,26,27,07,059,,28,32,316,31*7C
$GPGSV,4,4,15,30,55,287,26,40,18,253,,41,41,230,37*4B
$GLGSV,2,1,06,78,16,144,,79,68,130,32,80,52,334,,81,35,025,26*6D
$GLGSV,2,2,06,82,69,305,30,83,31,235,35*68
$GNGLL,3030.86365,N,11420.30039,E,135257.00,A,D*74
$GNRMC,135258.00,A,3030.86355,N,11420.30046,E,0.044,,200119,,,D*62
$GNVTG,,T,,M,0.044,N,0.082,K,D*32
$GNGGA,135258.00,3030.86355,N,11420.30046,E,2,12,0.86,22.4,M,-10.8,M,,0000*5E
$GNGSA,A,3,07,01,17,08,22,30,28,18,11,41,,,1.59,0.86,1.34*14
$GNGSA,A,3,82,79,83,81,,,,,,,,,1.59,0.86,1.34*1F
$GPGSV,4,1,15,01,71,142,31,07,62,215,40,08,34,046,39,09,02,206,*73
$GPGSV,4,2,15,11,79,037,29,13,01,311,,16,01,111,,17,20,259,25*70
$GPGSV,4,3,15,18,59,063,36,22,18,131,27,27,07,059,,28,32,316,34*76
$GPGSV,4,4,15,30,55,287,27,40,18,253,,41,41,230,37*4A
$GLGSV,2,1,06,78,16,144,,79,68,130,32,80,52,334,,81,35,025,26*6D
$GLGSV,2,2,06,82,69,305,32,83,31,235,34*6B
$GNGLL,3030.86355,N,11420.30046,E,135258.00,A,D*70
$GNRMC,135259.00,A,3030.86350,N,11420.30046,E,0.032,,200119,,,D*67
$GNVTG,,T,,M,0.032,N,0.059,K,D*35
$GNGGA,135259.00,3030.86350,N,11420.30046,E,2,12,0.86,22.4,M,-10.8,M,,0000*5A
$GNGSA,A,3,07,01,17,08,22,30,28,18,11,41,,,1.59,0.86,1.34*14
$GNGSA,A,3,82,79,83,81,,,,,,,,,1.59,0.86,1.34*1F
$GPGSV,4,1,15,01,71,142,29,07,62,215,41,08,34,046,38,09,02,206,*7A
$GPGSV,4,2,15,11,79,037,29,13,01,311,,16,01,111,,17,20,259,26*73
$GPGSV,4,3,15,18,59,063,36,22,18,131,27,27,07,059,,28,32,316,37*75
$GPGSV,4,4,15,30,55,287,32,40,18,253,,41,41,230,37*4E
$GLGSV,2,1,06,78,16,144,,79,68,130,32,80,52,334,,81,35,025,26*6D
$GLGSV,2,2,06,82,69,305,32,83,31,235,35*6A
$GNGLL,3030.86350,N,11420.30046,E,135259.00,A,D*74
$GNRMC,135300.00,A,3030.86352,N,11420.30042,E,0.011,,200119,,,D*6D
$GNVTG,,T,,M,0.011,N,0.020,K,D*3A
$GNGGA,135300.00,3030.86352,N,11420.30042,E,2,12,0.86,22.3,M,-10.8,M,,0000*56
$GNGSA,A,3,07,01,17,08,22,30,28,18,11,41,,,1.59,0.86,1.34*14
$GNGSA,A,3,82,79,83,81,,,,,,,,,1.59,0.86,1.34*1F
$GPGSV,4,1,15,01,71,142,29,07,62,215,38,08,34,046,38,09,02,206,*74
$GPGSV,4,2,15,11,79,037,29,13,01,311,,16,01,111,,17,20,259,27*72
$GPGSV,4,3,15,18,59,063,34,22,18,131,27,27,07,059,,28,32,316,34*74
$GPGSV,4,4,15,30,55,287,26,40,18,253,,41,41,230,34*48
$GLGSV,2,1,06,78,16,144,,79,68,130,33,80,52,334,,81,35,025,26*6C
$GLGSV,2,2,06,82,69,305,35,83,31,235,34*6C
$GNGLL,3030.86352,N,11420.30042,E,135300.00,A,D*7F
$GNRMC,135301.00,A,3030.86354,N,11420.30037,E,0.013,,200119,,,D*6A
$GNVTG,,T,,M,0.013,N,0.023,K,D*3B
$GNGGA,135301.00,3030.86354,N,11420.30037,E,2,12,0.86,22.3,M,-10.8,M,,0000*53
$GNGSA,A,3,07,01,17,08,22,30,28,18,11,41,,,1.59,0.86,1.34*14
$GNGSA,A,3,82,79,83,81,,,,,,,,,1.59,0.86,1.34*1F
$GPGSV,4,1,15,01,71,142,27,07,62,215,39,08,34,046,38,09,02,206,*7B
$GPGSV,4,2,15,11,79,037,29,13,01,311,,16,01,111,,17,20,259,27*72
$GPGSV,4,3,15,18,59,063,34,22,18,131,27,27,07,059,,28,32,316,34*74
$GPGSV,4,4,15,30,55,287,28,40,18,253,,41,41,230,35*47
$GLGSV,2,1,06,78,16,144,,79,68,130,33,80,52,334,,81,35,025,26*6C
$GLGSV,2,2,06,82,69,305,35,83,31,235,34*6C
$GNGLL,3030.86354,N,11420.30037,E,135301.00,A,D*7A
$GNRMC,135302.00,A,3030.86357,N,11420.30032,E,0.034,,200119,,,D*6A
$GNVTG,,T,,M,0.034,N,0.063,K,D*3A
$GNGGA,135302.00,3030.86357,N,11420.30032,E,2,12,0.86,22.3,M,-10.8,M,,0000*56
$GNGSA,A,3,07,01,17,08,22,30,28,18,11,41,,,1.59,0.86,1.34*14
$GNGSA,A,3,82,79,83,81,,,,,,,,,1.59,0.86,1.34*1F
$GPGSV,4,1,15,01,72,141,26,07,62,215,38,08,34,046,36,09,02,206,*75
$GPGSV,4,2,15,11,79,037,31,13,01,311,,16,01,111,,17,20,259,25*79
$GPGSV,4,3,15,18,59,063,33,22,18,131,26,27,07,059,,28,32,316,34*72
$GPGSV,4,4,15,30,55,287,32,40,18,253,,41,41,230,35*4C
$GLGSV,2,1,06,78,16,144,,79,68,130,32,80,52,334,,81,35,025,27*6C
$GLGSV,2,2,06,82,69,305,35,83,31,235,34*6C
$GNGLL,3030.86357,N,11420.30032,E,135302.00,A,D*7F
$GNRMC,135303.00,A,3030.86356,N,11420.30030,E,0.036,,200119,,,D*6A
$GNVTG,,T,,M,0.036,N,0.066,K,D*3D
$GNGGA,135303.00,3030.86356,N,11420.30030,E,2,12,0.86,22.3,M,-10.8,M,,0000*54
$GNGSA,A,3,07,01,17,08,22,30,28,18,11,41,,,1.59,0.86,1.34*14
$GNGSA,A,3,82,79,83,81,,,,,,,,,1.59,0.86,1.34*1F
$GPGSV,4,1,15,01,72,141,26,07,62,215,41,08,34,046,39,09,02,206,*74
$GPGSV,4,2,15,11,79,037,30,13,01,311,,16,01,111,,17,20,259,25*78
$GPGSV,4,3,15,18,59,063,32,22,18,131,27,27,07,059,,28,32,316,34*72
$GPGSV,4,4,15,30,55,287,33,40,18,253,,41,41,230,36*4E
$GLGSV,2,1,06,78,16,144,,79,68,130,33,80,52,334,,81,35,025,26*6C
$GLGSV,2,2,06,82,69,305,35,83,31,235,34*6C
$GNGLL,3030.86356,N,11420.30030,E,135303.00,A,D*7D
$GNRMC,135304.00,A,3030.86357,N,11420.30028,E,0.011,,200119,,,D*60
$GNVTG,,T,,M,0.011,N,0.020,K,D*3A
$GNGGA,135304.00,3030.86357,N,11420.30028,E,2,12,0.86,22.2,M,-10.8,M,,0000*5A
$GNGSA,A,3,07,01,17,08,22,30,28,18,11,41,,,1.59,0.86,1.34*14
$GNGSA,A,3,82,79,83,81,,,,,,,,,1.59,0.86,1.34*1F
$GPGSV,4,1,15,01,72,141,26,07,62,215,40,08,34,046,39,09,02,206,*75
$GPGSV,4,2,15,11,79,037,31,13,01,311,,16,01,111,,17,20,259,23*7F
$GPGSV,4,3,15,18,59,063,34,22,18,131,27,27,07,059,,28,32,316,36*76
$GPGSV,4,4,15,30,55,287,34,40,18,253,,41,41,230,37*48
$GLGSV,2,1,06,78,16,144,,79,68,130,33,80,52,334,,81,35,025,25*6F
$GLGSV,2,2,06,82,69,305,35,83,31,235,34*6C
$GNGLL,3030.86357,N,11420.30028,E,135304.00,A,D*72
$GNRMC,135305.00,A,3030.86357,N,11420.30027,E,0.016,,200119,,,D*69
$GNVTG,,T,,M,0.016,N,0.030,K,D*3C
$GNGGA,135305.00,3030.86357,N,11420.30027,E,2,12,0.86,22.2,M,-10.8,M,,0000*54
$GNGSA,A,3,07,01,08,22,30,28,18,11,41,,,,1.59,0.86,1.34*12
$GNGSA,A,3,82,79,83,81,,,,,,,,,1.59,0.86,1.34*1F
$GPGSV,4,1,15,01,72,141,27,07,62,215,39,08,34,046,39,09,02,206,*7A
$GPGSV,4,2,15,11,79,037,31,13,01,311,,16,01,111,,17,20,259,22*7E
$GPGSV,4,3,15,18,59,063,33,22,18,131,27,27,07,059,,28,32,316,36*71
$GPGSV,4,4,15,30,55,287,33,40,18,253,,41,41,230,38*40
$GLGSV,2,1,06,78,16,144,,79,68,130,32,80,52,334,,81,35,025,24*6F
$GLGSV,2,2,06,82,69,305,36,83,31,235,33*68
$GNGLL,3030.86357,N,11420.30027,E,135305.00,A,D*7C
$GNRMC,135306.00,A,3030.86357,N,11420.30025,E,0.013,,200119,,,D*6D
$GNVTG,,T,,M,0.013,N,0.024,K,D*3C
$GNGGA,135306.00,3030.86357,N,11420.30025,E,2,12,0.86,22.0,M,-10.8,M,,0000*57
$GNGSA,A,3,07,01,08,22,30,28,18,11,41,,,,1.59,0.86,1.34*12
$GNGSA,A,3,82,79,83,81,,,,,,,,,1.59,0.86,1.34*1F
$GPGSV,4,1,15,01,72,141,28,07,61,215,38,08,34,046,39,09,02,206,*77
$GPGSV,4,2,15,11,79,037,31,13,01,311,,16,01,111,,17,20,259,21*7D
$GPGSV,4,3,15,18,59,063,33,22,18,131,27,27,07,059,,28,32,316,37*70
$GPGSV,4,4,15,30,55,287,34,40,18,253,,41,41,230,38*47
$GLGSV,2,1,06,78,16,144,,79,68,130,33,80,52,334,,81,35,025,22*68
$GLGSV,2,2,06,82,69,305,36,83,31,235,33*68
$GNGLL,3030.86357,N,11420.30025,E,135306.00,A,D*7D
$GNRMC,135307.00,A,3030.86358,N,11420.30025,E,0.019,,200119,,,D*69
$GNVTG,,T,,M,0.019,N,0.035,K,D*36
$GNGGA,135307.00,3030.86358,N,11420.30025,E,2,12,0.86,21.9,M,-10.8,M,,0000*53
$GNGSA,A,3,07,01,08,22,30,28,18,11,41,,,,1.59,0.86,1.34*12
$GNGSA,A,3,82,79,83,81,,,,,,,,,1.59,0.86,1.34*1F
$GPGSV,4,1,15,01,72,141,28,07,61,215,36,08,33,046,39,09,02,206,*7E
$GPGSV,4,2,15,11,79,037,31,13,01,311,,16,01,111,,17,20,259,20*7C
$GPGSV,4,3,15,18,59,063,33,22,18,131,26,27,07,059,,28,32,316,36*70
$GPGSV,4,4,15,30,55,287,33,40,18,253,,41,41,230,36*4E
$GLGSV,2,1,06,78,16,144,,79,68,130,32,80,52,334,,81,35,025,21*6A
$GLGSV,2,2,06,82,69,305,36,83,31,235,32*69
$GNGLL,3030.86358,N,11420.30025,E,135307.00,A,D*73
$GNRMC,135308.00,A,3030.86357,N,11420.30025,E,0.047,,200119,,,D*62
$GNVTG,,T,,M,0.047,N,0.087,K,D*34
$GNGGA,135308.00,3030.86357,N,11420.30025,E,2,12,0.86,21.8,M,-10.8,M,,0000*52
$GNGSA,A,3,07,01,08,22,30,28,18,11,41,,,,1.59,0.86,1.34*12
$GNGSA,A,3,82,79,83,81,,,,,,,,,1.59,0.86,1.34*1F
$GPGSV,4,1,15,01,72,141,27,07,61,215,37,08,33,046,38,09,01,205,*71
$GPGSV,4,2,15,11,79,037,31,13,01,311,,16,01,111,,17,20,259,21*7D
$GPGSV,4,3,15,18,59,063,33,22,18,131,26,27,07,059,,28,32,316,35*73
$GPGSV,4,4,15,30,55,287,34,40,18,253,,41,41,230,37*48
$GLGSV,2,1,06,78,16,144,,79,68,130,33,80,52,334,,81,35,025,21*6B
$GLGSV,2,2,06,82,69,305,36,83,31,235,32*69
$GNGLL,3030.86357,N,11420.30025,E,135308.00,A,D*73
$GNRMC,135309.00,A,3030.86356,N,11420.30026,E,0.050,,200119,,,D*67
$GNVTG,,T,,M,0.050,N,0.093,K,D*37
$GNGGA,135309.00,3030.86356,N,11420.30026,E,2,12,0.86,21.7,M,-10.8,M,,0000*5E
$GNGSA,A,3,07,01,08,22,30,28,18,11,41,,,,1.59,0.86,1.34*12
$GNGSA,A,3,82,79,83,81,,,,,,,,,1.59,0.86,1.34*1F
$GPGSV,4,1,15,01,72,141,27,07,61,215,37,08,33,046,38,09,01,205,*71
$GPGSV,4,2,15,11,79,037,30,13,01,311,,16,01,111,,17,20,259,22*7F
$GPGSV,4,3,15,18,59,063,33,22,18,131,26,27,07,059,,28,32,316,35*73
$GPGSV,4,4,15,30,55,287,33,40,18,253,,41,41,230,36*4E
$GLGSV,2,1,06,78,16,144,,79,68,130,32,80,52,334,,81,35,025,20*6B
$GLGSV,2,2,06,82,69,305,36,83,31,235,32*69
$GNGLL,3030.86356,N,11420.30026,E,135309.00,A,D*70
$GNRMC,135310.00,A,3030.86350,N,11420.30026,E,0.031,,200119,,,D*6E
$GNVTG,,T,,M,0.031,N,0.057,K,D*38
$GNGGA,135310.00,3030.86350,N,11420.30026,E,2,12,0.86,21.6,M,-10.8,M,,0000*51
$GNGSA,A,3,07,01,08,22,30,28,18,11,41,,,,1.59,0.86,1.34*12
$GNGSA,A,3,82,79,83,81,,,,,,,,,1.59,0.86,1.34*1F
$GPGSV,4,1,15,01,72,141,26,07,61,215,39,08,33,046,38,09,01,205,*7E
$GPGSV,4,2,15,11,79,036,29,13,01,311,,16,01,111,,17,20,259,23*77
$GPGSV,4,3,15,18,59,063,33,22,18,131,26,27,07,059,,28,32,316,34*72
$GPGSV,4,4,15,30,55,287,34,40,18,253,,41,41,230,36*49
$GLGSV,2,1,06,78,16,144,,79,68,130,33,80,52,334,,81,35,025,20*6A
$GLGSV,2,2,06,82,69,305,36,83,31,235,32*69
$GNGLL,3030.86350,N,11420.30026,E,135310.00,A,D*7E
$GNRMC,135311.00,A,3030.86349,N,11420.30026,E,0.036,,200119,,,D*60
$GNVTG,,T,,M,0.036,N,0.066,K,D*3D
$GNGGA,135311.00,3030.86349,N,11420.30026,E,2,12,0.86,21.5,M,-10.8,M,,0000*5B
$GNGSA,A,3,07,01,17,08,22,30,28,18,11,41,,,1.59,0.86,1.34*14
$GNGSA,A,3,82,79,83,81,,,,,,,,,1.59,0.86,1.34*1F
$GPGSV,4,1,15,01,72,141,27,07,61,215,37,08,33,046,38,09,01,205,*71
$GPGSV,4,2,15,11,79,036,29,13,01,311,,16,01,111,,17,20,259,24*70
$GPGSV,4,3,15,18,59,063,32,22,18,131,25,27,07,059,,28,32,316,34*70
$GPGSV,4,4,15,30,55,287,33,40,18,253,,41,41,230,36*4E
$GLGSV,2,1,06,78,16,144,,79,68,130,33,80,52,334,,81,35,025,18*61
$GLGSV,2,2,06,82,69,305,36,83,31,235,32*69
$GNGLL,3030.86349,N,11420.30026,E,135311.00,A,D*77
$GNRMC,135312.00,A,3030.86347,N,11420.30027,E,0.036,,200119,,,D*6C
$GNVTG,,T,,M,0.036,N,0.067,K,D*3C
$GNGGA,135312.00,3030.86347,N,11420.30027,E,2,12,0.86,21.4,M,-10.8,M,,0000*56
$GNGSA,A,3,07,01,08,22,30,28,18,11,41,,,,1.59,0.86,1.34*12
$GNGSA,A,3,82,79,83,81,,,,,,,,,1.59,0.86,1.34*1F
$GPGSV,4,1,15,01,72,141,28,07,61,215,37,08,33,046,38,09,01,205,*7E
$GPGSV,4,2,15,11,79,036,30,13,01,311,,16,01,111,,17,20,259,*7E
$GPGSV,4,3,15,18,59,063,32,22,18,131,24,27,07,059,,28,32,316,34*71
$GPGSV,4,4,15,30,55,287,33,40,18,253,,41,41,230,37*4F
$GLGSV,2,1,06,78,16,144,,79,68,130,32,80,52,334,,81,35,025,16*6E
$GLGSV,2,2,06,82,69,305,36,83,31,235,32*69
$GNGLL,3030.86347,N,11420.30027,E,135312.00,A,D*7B
$GNRMC,135313.00,A,3030.86345,N,11420.30031,E,0.015,,200119,,,D*69
$GNVTG,,T,,M,0.015,N,0.027,K,D*39
$GNGGA,135313.00,3030.86345,N,11420.30031,E,2,12,0.86,21.2,M,-10.8,M,,0000*54
$GNGSA,A,3,07,01,08,22,30,28,18,11,41,,,,1.59,0.86,1.34*12
$GNGSA,A,3,82,79,83,81,,,,,,,,,1.59,0.86,1.34*1F
$GPGSV,4,1,15,01,72,141,28,07,61,215,38,08,33,046,40,09,01,205,*7E
$GPGSV,4,2,15,11,79,036,30,13,01,311,,16,01,111,,17,20,259,26*7A
$GPGSV,4,3,15,18,59,063,33,22,18,131,25,27,07,059,,28,32,316,35*70
$GPGSV,4,4,15,30,55,287,33,40,18,253,,41,41,230,39*41
$GLGSV,2,1,06,78,16,144,,79,68,130,32,80,52,334,,81,35,025,16*6E
$GLGSV,2,2,06,82,69,305,36,83,31,235,32*69
$GNGLL,3030.86345,N,11420.30031,E,135313.00,A,D*7F
$GNRMC,135314.00,A,3030.86338,N,11420.30034,E,0.010,,200119,,,D*64
$GNVTG,,T,,M,0.010,N,0.019,K,D*31
$GNGGA,135314.00,3030.86338,N,11420.30034,E,2,12,0.86,21.1,M,-10.8,M,,0000*5F
$GNGSA,A,3,07,01,17,08,22,30,28,18,11,41,,,1.59,0.86,1.34*14
$GNGSA,A,3,82,79,83,81,,,,,,,,,1.59,0.86,1.34*1F
$GPGSV,4,1,15,01,72,141,29,07,61,215,39,08,33,046,39,09,01,205,*70
$GPGSV,4,2,15,11,79,036,31,13,01,311,,16,01,111,,17,20,259,26*7B
$GPGSV,4,3,15,18,59,063,34,22,18,131,25,27,07,059,,28,32,316,36*74
$GPGSV,4,4,15,30,55,287,34,40,18,253,,41,41,230,38*47
$GLGSV,2,1,06,78,16,144,,79,68,130,32,80,52,334,,81,35,025,14*6C
$GLGSV,2,2,06,82,69,305,36,83,31,235,32*69
$GNGLL,3030.86338,N,11420.30034,E,135314.00,A,D*77
$GNRMC,135315.00,A,3030.86336,N,11420.30033,E,0.039,,200119,,,D*67
$GNVTG,,T,,M,0.039,N,0.072,K,D*37
$GNGGA,135315.00,3030.86336,N,11420.30033,E,2,12,0.86,21.1,M,-10.8,M,,0000*57
$GNGSA,A,3,07,01,17,08,22,30,28,18,11,41,,,1.59,0.86,1.34*14
$GNGSA,A,3,82,79,83,81,,,,,,,,,1.59,0.86,1.34*1F
$GPGSV,4,1,15,01,72,141,29,07,61,215,38,08,33,046,37,09,01,205,*7F
$GPGSV,4,2,15,11,79,036,30,13,01,311,,16,01,111,,17,20,259,25*79
$GPGSV,4,3,15,18,59,063,33,22,18,131,25,27,07,059,,28,32,316,35*70
$GPGSV,4,4,15,30,55,287,33,40,18,253,,41,41,230,36*4E
$GLGSV,2,1,06,78,16,144,,79,68,130,31,80,52,334,,81,35,025,13*68
$GLGSV,2,2,06,82,69,305,36,83,31,235,32*69
$GNGLL,3030.86336,N,11420.30033,E,135315.00,A,D*7F
$GNRMC,135316.00,A,3030.86334,N,11420.30032,E,0.013,,200119,,,D*6F
$GNVTG,,T,,M,0.013,N,0.024,K,D*3C
$GNGGA,135316.00,3030.86334,N,11420.30032,E,2,12,0.86,21.1,M,-10.8,M,,0000*57
$GNGSA,A,3,07,01,17,08,22,30,28,18,11,41,,,1.59,0.86,1.34*14
$GNGSA,A,3,82,79,83,81,,,,,,,,,1.59,0.86,1.34*1F
$GPGSV,4,1,15,01,72,141,27,07,61,215,38,08,33,046,37,09,01,205,*71
$GPGSV,4,2,15,11,79,036,29,13,01,311,,16,01,111,,17,20,260,23*7D
$GPGSV,4,3,15,18,59,063,32,22,18,131,25,27,07,059,,28,32,316,34*70
$GPGSV,4,4,15,30,55,287,32,40,18,253,,41,41,230,35*4C
$GLGSV,2,1,06,78,16,144,,79,68,130,32,80,52,334,,81,35,025,13*6B
$GLGSV,2,2,06,82,69,305,36,83,31,235,33*68
$GNGLL,3030.86334,N,11420.30032,E,135316.00,A,D*7F
$GNRMC,135317.00,A,3030.86335,N,11420.30032,E,0.053,,200119,,,D*6B
$GNVTG,,T,,M,0.053,N,0.099,K,D*3E
$GNGGA,135317.00,3030.86335,N,11420.30032,E,2,12,0.86,21.1,M,-10.8,M,,0000*57
$GNGSA,A,3,07,01,17,08,22,30,28,18,11,41,,,1.59,0.86,1.34*14
$GNGSA,A,3,82,79,83,81,,,,,,,,,1.59,0.86,1.34*1F
$GPGSV,4,1,15,01,72,141,28,07,61,215,37,08,33,046,37,09,01,205,*71
$GPGSV,4,2,15,11,79,036,29,13,01,311,,16,01,111,,17,20,260,22*7C
$GPGSV,4,3,15,18,59,062,32,22,18,131,25,27,07,059,,28,32,316,34*71
$GPGSV,4,4,15,30,55,287,32,40,18,253,,41,41,230,36*4F
$GLGSV,2,1,06,78,16,144,,79,68,130,31,80,52,334,,81,35,025,12*69
$GLGSV,2,2,06,82,69,305,35,83,31,235,32*6A
$GNGLL,3030.86335,N,11420.30032,E,135317.00,A,D*7F
$GNRMC,135318.00,A,3030.86336,N,11420.30032,E,0.059,,200119,,,D*6D
$GNVTG,,T,,M,0.059,N,0.109,K,D*3C
$GNGGA,135318.00,3030.86336,N,11420.30032,E,2,12,0.93,21.1,M,-10.8,M,,0000*5F
$GNGSA,A,3,07,01,17,08,22,30,28,18,11,41,,,1.67,0.93,1.38*11
$GNGSA,A,3,82,79,83,,,,,,,,,,1.67,0.93,1.38*13
$GPGSV,4,1,15,01,72,141,28,07,61,215,37,08,33,046,37,09,01,205,*71
$GPGSV,4,2,15,11,79,036,29,13,01,311,,16,01,111,,17,20,260,21*7F
$GPGSV,4,3,15,18,59,062,32,22,18,131,24,27,07,059,,28,32,316,34*70
$GPGSV,4,4,15,30,55,287,32,40,18,253,,41,41,230,36*4F
$GLGSV,2,1,06,78,16,144,,79,68,130,30,80,52,334,,81,35,025,10*6A
$GLGSV,2,2,06,82,69,305,34,83,31,235,31*68
$GNGLL,3030.86336,N,11420.30032,E,135318.00,A,D*73
$GNRMC,135319.00,A,3030.86334,N,11420.30031,E,0.032,,200119,,,D*60
$GNVTG,,T,,M,0.032,N,0.059,K,D*35
$GNGGA,135319.00,3030.86334,N,11420.30031,E,2,12,0.93,21.1,M,-10.8,M,,0000*5F
$GNGSA,A,3,07,01,17,08,22,30,28,18,11,41,,,1.67,0.93,1.38*11
$GNGSA,A,3,82,79,83,,,,,,,,,,1.67,0.93,1.38*13
$GPGSV,4,1,15,01,72,141,29,07,61,215,37,08,33,046,37,09,01,205,*70
$GPGSV,4,2,15,11,79,036,29,13,01,311,,16,01,111,,17,20,260,21*7F
$GPGSV,4,3,15,18,59,062,32,22,18,131,23,27,07,059,,28,32,316,34*77
$GPGSV,4,4,15,30,55,287,32,40,18,253,,41,41,230,36*4F
$GLGSV,2,1,06,78,16,144,,79,68,130,30,80,52,334,,81,35,025,09*62
$GLGSV,2,2,06,82,69,305,34,83,31,235,31*68
$GNGLL,3030.86334,N,11420.30031,E,135319.00,A,D*73
$GNRMC,135320.00,A,3030.86331,N,11420.30032,E,0.025,,200119,,,D*6A
$GNVTG,,T,,M,0.025,N,0.046,K,D*3D
$GNGGA,135320.00,3030.86331,N,11420.30032,E,2,12,0.86,21.1,M,-10.8,M,,0000*57
$GNGSA,A,3,07,01,17,08,22,30,28,18,11,41,,,1.59,0.86,1.34*14
$GNGSA,A,3,82,79,83,81,,,,,,,,,1.59,0.86,1.34*1F
$GPGSV,4,1,15,01,72,141,28,07,61,215,38,08,33,046,37,09,01,205,*7E
$GPGSV,4,2,15,11,79,036,29,13,01,311,,16,01,111,,17,20,260,21*7F
$GPGSV,4,3,15,18,59,062,32,22,18,131,24,27,07,059,,28,32,316,34*70
$GPGSV,4,4,15,30,55,287,32,40,18,253,,41,41,230,36*4F
$GLGSV,2,1,06,78,16,144,,79,68,130,30,80,52,334,,81,35,025,12*68
$GLGSV,2,2,06,82,69,305,34,83,31,235,31*68
$GNGLL,3030.86331,N,11420.30032,E,135320.00,A,D*7F
$GNRMC,135321.00,A,3030.86326,N,11420.30034,E,0.047,,200119,,,D*6F
$GNVTG,,T,,M,0.047,N,0.087,K,D*34
$GNGGA,135321.00,3030.86326,N,11420.30034,E,2,12,0.86,21.0,M,-10.8,M,,0000*57
$GNGSA,A,3,07,01,17,08,22,30,28,18,11,41,,,1.59,0.86,1.34*14
$GNGSA,A,3,82,79,83,81,,,,,,,,,1.59,0.86,1.34*1F
$GPGSV,4,1,15,01,72,141,28,07,61,215,38,08,33,046,37,09,01,205,*7E
$GPGSV,4,2,15,11,79,036,29,13,01,311,,16,01,111,,17,20,260,22*7C
$GPGSV,4,3,15,18,59,062,32,22,18,131,24,27,07,059,,28,32,316,35*71
$GPGSV,4,4,15,30,55,287,32,40,18,253,,41,41,230,36*4F
$GLGSV,2,1,06,78,16,144,,79,68,130,30,80,52,334,,81,35,025,13*69
$GLGSV,2,2,06,82,69,305,34,83,31,235,31*68
$GNGLL,3030.86326,N,11420.30034,E,135321.00,A,D*7E
$GNRMC,135322.00,A,3030.86324,N,11420.30035,E,0.084,,200119,,,D*60
$GNVTG,,T,,M,0.084,N,0.156,K,D*36
$GNGGA,135322.00,3030.86324,N,11420.30035,E,2,12,0.86,20.9,M,-10.8,M,,0000*5F
$GNGSA,A,3,07,01,17,08,22,30,28,18,11,41,,,1.59,0.86,1.34*14
$GNGSA,A,3,82,79,83,81,,,,,,,,,1.59,0.86,1.34*1F
$GPGSV,4,1,15,01,72,141,28,07,61,215,37,08,33,046,37,09,01,205,*71
$GPGSV,4,2,15,11,79,036,30,13,01,311,,16,01,111,,17,20,260,22*74
$GPGSV,4,3,15,18,59,062,33,22,18,131,24,27,07,060,,28,32,316,35*7A
$GPGSV,4,4,15,30,55,287,32,40,18,253,,41,41,230,36*4F
$GLGSV,2,1,06,78,16,144,,79,68,130,31,80,52,334,,81,35,025,15*6E
$GLGSV,2,2,06,82,69,305,34,83,31,235,31*68
$GNGLL,3030.86324,N,11420.30035,E,135322.00,A,D*7E
$GNRMC,135323.00,A,3030.86323,N,11420.30036,E,0.046,,200119,,,D*6B
$GNVTG,,T,,M,0.046,N,0.085,K,D*37
$GNGGA,135323.00,3030.86323,N,11420.30036,E,2,12,0.86,20.8,M,-10.8,M,,0000*5B
$GNGSA,A,3,07,01,17,08,22,30,28,18,11,41,,,1.60,0.86,1.34*1E
$GNGSA,A,3,82,79,83,81,,,,,,,,,1.60,0.86,1.34*15
$GPGSV,4,1,15,01,72,141,28,07,61,215,37,08,33,046,37,09,01,205,*71
$GPGSV,4,2,15,11,79,036,30,13,01,311,,16,01,111,,17,20,260,22*74
$GPGSV,4,3,15,18,59,062,33,22,18,131,25,27,07,060,,28,32,316,35*7B
$GPGSV,4,4,15,30,55,287,32,40,18,253,,41,41,230,36*4F
$GLGSV,2,1,06,78,16,144,,79,68,130,31,80,52,334,,81,35,025,08*62
$GLGSV,2,2,06,82,69,305,34,83,31,235,31*68
$GNGLL,3030.86323,N,11420.30036,E,135323.00,A,D*7B
$GNRMC,135324.00,A,3030.86322,N,11420.30035,E,0.014,,200119,,,D*69
$GNVTG,,T,,M,0.014,N,0.026,K,D*39
$GNGGA,135324.00,3030.86322,N,11420.30035,E,2,12,0.86,20.7,M,-10.8,M,,0000*51
$GNGSA,A,3,07,01,17,08,22,30,28,18,11,41,,,1.60,0.86,1.34*1E
$GNGSA,A,3,82,79,83,81,,,,,,,,,1.60,0.86,1.34*15
$GPGSV,4,1,15,01,72,141,28,07,61,215,37,08,33,046,37,09,01,205,*71
$GPGSV,4,2,15,11,79,036,30,13,01,311,,16,01,111,,17,20,260,23*75
$GPGSV,4,3,15,18,59,062,32,22,18,131,24,27,07,060,,28,32,316,35*7B
$GPGSV,4,4,15,30,55,287,32,40,18,253,,41,41,230,36*4F
$GLGSV,2,1,06,78,16,144,,79,68,130,31,80,52,334,,81,35,025,11*6A
$GLGSV,2,2,06,82,69,305,34,83,31,235,31*68
$GNGLL,3030.86322,N,11420.30035,E,135324.00,A,D*7E
$GNRMC,135325.00,A,3030.86321,N,11420.30037,E,0.077,,200119,,,D*6C
$GNVTG,,T,,M,0.077,N,0.143,K,D*3E
$GNGGA,135325.00,3030.86321,N,11420.30037,E,2,12,0.93,20.6,M,-10.8,M,,0000*54
$GNGSA,A,3,07,01,17,08,22,30,28,18,11,41,,,1.67,0.93,1.38*11
$GNGSA,A,3,82,79,83,81,,,,,,,,,1.67,0.93,1.38*1A
$GPGSV,4,1,15,01,72,141,28,07,61,215,37,08,33,046,37,09,01,205,*71
$GPGSV,4,2,15,11,79,036,30,13,01,311,,16,01,111,,17,20,260,24*72
$GPGSV,4,3,15,18,59,062,32,22,18,131,23,27,07,060,,28,32,316,35*7C
$GPGSV,4,4,15,30,55,286,32,40,18,253,,41,41,230,36*4E
$GLGSV,2,1,06,78,16,144,,79,68,130,31,80,52,334,,81,35,025,12*69
$GLGSV,2,2,06,82,69,305,34,83,31,235,31*68
$GNGLL,3030.86321,N,11420.30037,E,135325.00,A,D*7E
$GNRMC,135326.00,A,3030.86321,N,11420.30037,E,0.052,,200119,,,D*68
$GNVTG,,T,,M,0.052,N,0.097,K,D*31
$GNGGA,135326.00,3030.86321,N,11420.30037,E,2,12,0.86,20.6,M,-10.8,M,,0000*53
$GNGSA,A,3,07,01,17,08,22,30,28,18,11,41,,,1.60,0.86,1.34*1E
$GNGSA,A,3,82,79,83,81,,,,,,,,,1.60,0.86,1.34*15
$GPGSV,4,1,15,01,72,141,28,07,61,215,37,08,33,046,37,09,01,205,*71
$GPGSV,4,2,15,11,79,036,30,13,01,311,,16,01,111,,17,20,260,24*72
$GPGSV,4,3,15,18,59,062,32,22,18,131,23,27,07,060,,28,32,316,34*7D
$GPGSV,4,4,15,30,55,286,32,40,18,253,,41,41,230,36*4E
$GLGSV,2,1,06,78,16,144,,79,68,130,31,80,52,334,,81,35,025,13*68
$GLGSV,2,2,06,82,69,305,34,83,31,235,31*68
$GNGLL,3030.86321,N,11420.30037,E,135326.00,A,D*7D
$GNRMC,135327.00,A,3030.86322,N,11420.30036,E,0.079,,200119,,,D*62
$GNVTG,,T,,M,0.079,N,0.146,K,D*35
$GNGGA,135327.00,3030.86322,N,11420.30036,E,2,12,0.86,20.6,M,-10.8,M,,0000*50
$GNGSA,A,3,07,01,17,08,22,30,28,18,11,41,,,1.60,0.86,1.34*1E
$GNGSA,A,3,82,79,83,81,,,,,,,,,1.60,0.86,1.34*15
$GPGSV,4,1,15,01,72,141,27,07,61,215,38,08,33,046,37,09,01,205,*71
$GPGSV,4,2,15,11,79,036,30,13,01,311,,16,01,111,,17,20,260,24*72
$GPGSV,4,3,15,18,59,062,33,22,18,131,23,27,07,060,,28,32,316,34*7C
$GPGSV,4,4,15,30,55,286,32,40,18,253,,41,41,230,36*4E
$GLGSV,2,1,06,78,16,144,,79,68,130,30,80,52,334,,81,35,025,14*6E
$GLGSV,2,2,06,82,69,305,34,83,31,235,31*68
$GNGLL,3030.86322,N,11420.30036,E,135327.00,A,D*7E
$GNRMC,135328.00,A,3030.86317,N,11420.30037,E,0.069,,200119,,,D*6B
$GNVTG,,T,,M,0.069,N,0.127,K,D*33
$GNGGA,135328.00,3030.86317,N,11420.30037,E,2,12,0.86,20.3,M,-10.8,M,,0000*5D
$GNGSA,A,3,07,01,17,08,22,30,28,18,11,41,,,1.60,0.86,1.34*1E
$GNGSA,A,3,82,79,83,81,,,,,,,,,1.60,0.86,1.34*15
$GPGSV,4,1,15,01,72,141,27,07,61,215,38,08,33,046,37,09,01,205,*71
$GPGSV,4,2,15,11,79,036,30,13,01,311,,16,01,111,,17,20,260,25*73
$GPGSV,4,3,15,18,59,062,33,22,18,131,23,27,07,060,,28,32,316,34*7C
$GPGSV,4,4,15,30,55,286,33,40,18,253,,41,41,230,36*4F
$GLGSV,2,1,06,78,16,144,,79,68,130,30,80,52,334,,81,35,025,15*6F
$GLGSV,2,2,06,82,69,305,34,83,31,235,31*68
$GNGLL,3030.86317,N,11420.30037,E,135328.00,A,D*76
$GNRMC,135329.00,A,3030.86316,N,11420.30037,E,0.049,,200119,,,D*69
$GNVTG,,T,,M,0.049,N,0.091,K,D*3D
$GNGGA,135329.00,3030.86316,N,11420.30037,E,2,12,0.86,20.3,M,-10.8,M,,0000*5D
$GNGSA,A,3,07,01,17,08,22,30,28,18,11,41,,,1.60,0.86,1.34*1E
$GNGSA,A,3,82,79,83,81,,,,,,,,,1.60,0.86,1.34*15
$GPGSV,4,1,15,01,72,141,27,07,61,215,38,08,33,046,37,09,01,205,*71
$GPGSV,4,2,15,11,79,036,30,13,01,311,,16,01,111,,17,20,260,25*73
$GPGSV,4,3,15,18,59,062,32,22,18,131,22,27,07,060,,28,32,316,34*7C
$GPGSV,4,4,15,30,55,286,33,40,18,253,,41,41,230,36*4F
$GLGSV,2,1,06,78,16,144,,79,68,130,30,80,52,334,,81,35,025,13*69
$GLGSV,2,2,06,82,69,305,34,83,31,235,31*68
$GNGLL,3030.86316,N,11420.30037,E,135329.00,A,D*76
$GNRMC,135330.00,A,3030.86313,N,11420.30038,E,0.035,,200119,,,D*60
$GNVTG,,T,,M,0.035,N,0.066,K,D*3E
$GNGGA,135330.00,3030.86313,N,11420.30038,E,2,12,0.86,20.1,M,-10.8,M,,0000*5D
$GNGSA,A,3,07,01,17,08,22,30,28,18,11,41,,,1.60,0.86,1.34*1E
$GNGSA,A,3,82,79,83,81,,,,,,,,,1.60,0.86,1.34*15
$GPGSV,4,1,15,01,72,141,27,07,61,215,38,08,33,046,37,09,01,205,*71
$GPGSV,4,2,15,11,79,036,29,13,01,311,,16,01,111,,17,20,260,24*7A
$GPGSV,4,3,15,18,59,062,33,22,18,131,22,27,07,060,,28,32,316,35*7C
$GPGSV,4,4,15,30,55,286,32,40,18,253,,41,41,230,36*4E
$GLGSV,2,1,06,78,16,144,,79,68,130,30,80,52,334,,81,35,025,15*6F
$GLGSV,2,2,06,82,69,305,34,83,31,235,31*68
$GNGLL,3030.86313,N,11420.30038,E,135330.00,A,D*74
$GNRMC,135331.00,A,3030.86309,N,11420.30040,E,0.037,,200119,,,D*67
$GNVTG,,T,,M,0.037,N,0.069,K,D*33
$GNGGA,135331.00,3030.86309,N,11420.30040,E,2,12,0.86,19.9,M,-10.8,M,,0000*5A
$GNGSA,A,3,07,01,17,08,22,30,28,18,11,41,,,1.60,0.86,1.34*1E
$GNGSA,A,3,82,79,83,81,,,,,,,,,1.60,0.86,1.34*15
$GPGSV,4,1,15,01,72,141,27,07,61,215,37,08,33,046,37,09,01,205,*7E
$GPGSV,4,2,15,11,79,036,29,13,01,311,,16,01,111,,17,20,260,23*7D
$GPGSV,4,3,15,18,59,062,32,22,18,131,21,27,07,060,,28,32,316,35*7E
$GPGSV,4,4,15,30,55,286,32,40,18,253,,41,41,230,36*4E
$GLGSV,2,1,06,78,16,144,,79,68,130,30,80,52,334,,81,35,025,13*69
$GLGSV,2,2,06,82,69,305,34,83,31,235,31*68
$GNGLL,3030.86309,N,11420.30040,E,135331.00,A,D*71
$GNRMC,135332.00,A,3030.86306,N,11420.30040,E,0.062,,200119,,,D*6B
$GNVTG,,T,,M,0.062,N,0.115,K,D*39
$GNGGA,135332.00,3030.86306,N,11420.30040,E,2,12,0.86,19.8,M,-10.8,M,,0000*57
$GNGSA,A,3,07,01,17,08,22,30,28,18,11,41,,,1.60,0.86,1.34*1E
$GNGSA,A,3,82,79,83,81,,,,,,,,,1.60,0.86,1.34*15
$GPGSV,4,1,15,01,72,141,27,07,61,215,37,08,33,046,36,09,01,205,*7F
$GPGSV,4,2,15,11,79,036,29,13,01,311,,16,01,111,,17,20,260,23*7D
$GPGSV,4,3,15,18,59,062,32,22,18,131,20,27,07,060,,28,32,316,35*7F
$GPGSV,4,4,15,30,55,286,32,40,18,253,,41,41,230,36*4E
$GLGSV,2,1,06,78,16,144,,79,68,130,30,80,52,334,,81,35,025,17*6D
$GLGSV,2,2,06,82,69,305,34,83,31,235,31*68
$GNGLL,3030.86306,N,11420.30040,E,135332.00,A,D*7D
$GNRMC,135333.00,A,3030.86302,N,11420.30039,E,0.038,,200119,,,D*6F
$GNVTG,,T,,M,0.038,N,0.069,K,D*3C
$GNGGA,135333.00,3030.86302,N,11420.30039,E,2,12,0.86,19.7,M,-10.8,M,,0000*53
$GNGSA,A,3,07,01,17,08,22,30,28,18,11,41,,,1.60,0.86,1.34*1E
$GNGSA,A,3,82,79,83,81,,,,,,,,,1.60,0.86,1.34*15
$GPGSV,4,1,15,01,72,141,27,07,61,215,37,08,33,046,36,09,01,205,*7F
$GPGSV,4,2,15,11,79,036,29,13,01,311,,16,01,111,,17,20,260,23*7D
$GPGSV,4,3,15,18,59,062,32,22,18,131,20,27,07,060,,28,32,316,35*7F
$GPGSV,4,4,15,30,55,286,32,40,18,253,,41,41,230,36*4E
$GLGSV,2,1,06,78,16,144,,79,68,130,30,80,52,334,,81,35,025,13*69
$GLGSV,2,2,06,82,69,305,34,83,31,235,31*68
$GNGLL,3030.86302,N,11420.30039,E,135333.00,A,D*76
$GNRMC,135334.00,A,3030.86296,N,11420.30042,E,0.164,,200119,,,D*60
$GNVTG,,T,,M,0.164,N,0.304,K,D*3C
$GNGGA,135334.00,3030.86296,N,11420.30042,E,2,12,0.86,19.5,M,-10.8,M,,0000*56
$GNGSA,A,3,07,01,17,08,22,30,28,18,11,41,,,1.60,0.86,1.34*1E
$GNGSA,A,3,82,79,83,81,,,,,,,,,1.60,0.86,1.34*15
$GPGSV,4,1,15,01,72,141,26,07,61,215,37,08,33,046,37,09,01,205,*7F
$GPGSV,4,2,15,11,79,036,29,13,01,311,,16,01,111,,17,20,260,23*7D
$GPGSV,4,3,15,18,59,062,32,22,18,131,21,27,07,060,,28,32,316,34*7F
$GPGSV,4,4,15,30,55,286,32,40,18,253,,41,41,230,36*4E
$GLGSV,2,1,06,78,16,144,,79,68,130,31,80,52,334,,81,35,025,17*6C
$GLGSV,2,2,06,82,69,305,34,83,31,235,32*6B
$GNGLL,3030.86296,N,11420.30042,E,135334.00,A,D*71
$GNRMC,135335.00,A,3030.86291,N,11420.30044,E,0.115,,200119,,,D*66
$GNVTG,,T,,M,0.115,N,0.213,K,D*3D
$GNGGA,135335.00,3030.86291,N,11420.30044,E,2,12,0.86,19.2,M,-10.8,M,,0000*51
$GNGSA,A,3,07,01,17,08,22,30,28,18,11,41,,,1.60,0.86,1.34*1E
$GNGSA,A,3,82,79,83,81,,,,,,,,,1.60,0.86,1.34*15
$GPGSV,4,1,15,01,72,141,28,07,61,215,37,08,33,046,37,09,01,205,*71
$GPGSV,4,2,15,11,79,036,29,13,01,311,,16,01,111,,17,20,260,21*7F
$GPGSV,4,3,15,18,59,062,34,22,18,131,20,27,07,060,,28,32,316,33*7F
$GPGSV,4,4,15,30,55,286,31,40,18,253,,41,41,230,36*4D
$GLGSV,2,1,06,78,16,144,,79,68,130,33,80,52,334,,81,35,025,15*6C
$GLGSV,2,2,06,82,69,305,33,83,31,235,32*6C
$GNGLL,3030.86291,N,11420.30044,E,135335.00,A,D*71
$GNRMC,135336.00,A,3030.86285,N,11420.30046,E,0.108,,200119,,,D*6E
$GNVTG,,T,,M,0.108,N,0.200,K,D*33
$GNGGA,135336.00,3030.86285,N,11420.30046,E,2,12,0.86,19.1,M,-10.8,M,,0000*56
$GNGSA,A,3,07,01,17,08,22,30,28,18,11,41,,,1.60,0.86,1.34*1E
$GNGSA,A,3,82,79,83,81,,,,,,,,,1.60,0.86,1.34*15
$GPGSV,4,1,15,01,72,141,29,07,61,215,37,08,33,046,34,09,01,205,*73
$GPGSV,4,2,15,11,79,036,29,13,01,311,,16,01,111,,17,20,260,20*7E
$GPGSV,4,3,15,18,59,062,32,22,18,131,18,27,07,060,,28,32,316,33*72
$GPGSV,4,4,15,30,55,286,31,40,18,253,,41,41,230,36*4D
$GLGSV,2,1,06,78,16,144,,79,68,130,32,80,52,334,,81,35,025,17*6F
$GLGSV,2,2,06,82,69,305,33,83,31,235,32*6C
$GNGLL,3030.86285,N,11420.30046,E,135336.00,A,D*75
$GNRMC,135337.00,A,3030.86281,N,11420.30045,E,0.010,,200119,,,D*60
$GNVTG,,T,,M,0.010,N,0.018,K,D*30
$GNGGA,135337.00,3030.86281,N,11420.30045,E,2,12,0.86,18.9,M,-10.8,M,,0000*59
$GNGSA,A,3,07,01,17,08,22,30,28,18,11,41,,,1.60,0.86,1.34*1E
$GNGSA,A,3,82,79,83,81,,,,,,,,,1.60,0.86,1.34*15
$GPGSV,4,1,15,01,72,141,24,07,61,215,38,08,33,046,34,09,01,205,*71
$GPGSV,4,2,15,11,79,036,29,13,01,311,,16,01,111,,17,20,260,18*75
$GPGSV,4,3,15,18,59,062,32,22,18,131,17,27,07,060,,28,32,316,34*7A
$GPGSV,4,4,15,30,55,286,30,40,18,253,,41,41,230,35*4F
$GLGSV,2,1,06,78,16,144,,79,68,130,33,80,52,334,,81,35,025,18*61
$GLGSV,2,2,06,82,69,305,36,83,31,235,32*69
$GNGLL,3030.86281,N,11420.30045,E,135337.00,A,D*73
$GNRMC,135338.00,A,3030.86279,N,11420.30045,E,0.030,,200119,,,D*6A
$GNVTG,,T,,M,0.030,N,0.055,K,D*3B
$GNGGA,135338.00,3030.86279,N,11420.30045,E,2,12,0.86,18.9,M,-10.8,M,,0000*51
$GNGSA,A,3,07,01,17,08,22,30,28,18,11,41,,,1.60,0.86,1.34*1E
$GNGSA,A,3,82,79,83,81,,,,,,,,,1.60,0.86,1.34*15
$GPGSV,4,1,15,01,72,141,27,07,61,215,38,08,33,046,35,09,01,205,*73
$GPGSV,4,2,15,11,79,036,29,13,01,311,,16,01,111,,17,20,260,17*7A
$GPGSV,4,3,15,18,59,062,32,22,18,131,17,27,07,060,,28,32,316,34*7A
$GPGSV,4,4,15,30,55,286,30,40,18,253,,41,41,230,35*4F
$GLGSV,2,1,06,78,16,144,26,79,68,130,33,80,52,334,,81,35,025,17*6A
$GLGSV,2,2,06,82,69,305,32,83,31,235,32*6D
$GNGLL,3030.86279,N,11420.30045,E,135338.00,A,D*7B
$GNRMC,135339.00,A,3030.86280,N,11420.30044,E,0.063,,200119,,,D*6A
$GNVTG,,T,,M,0.063,N,0.116,K,D*3B
$GNGGA,135339.00,3030.86280,N,11420.30044,E,2,12,0.86,18.9,M,-10.8,M,,0000*57
$GNGSA,A,3,07,01,17,08,22,30,28,18,11,41,,,1.60,0.86,1.34*1E
$GNGSA,A,3,82,79,83,78,81,,,,,,,,1.60,0.86,1.34*1A
$GPGSV,4,1,15,01,72,141,28,07,61,215,38,08,33,046,32,09,01,205,*7B
$GPGSV,4,2,15,11,79,036,28,13,01,311,,16,01,111,,17,20,260,17*7B
$GPGSV,4,3,15,18,59,062,33,22,18,131,15,27,07,060,,28,32,316,35*78
$GPGSV,4,4,15,30,55,286,29,40,18,253,,41,41,230,35*47
$GLGSV,2,1,06,78,16,144,24,79,68,130,32,80,52,334,,81,35,025,13*6D
$GLGSV,2,2,06,82,69,305,34,83,31,235,32*6B
$GNGLL,3030.86280,N,11420.30044,E,135339.00,A,D*7D
$GNRMC,135340.00,A,3030.86279,N,11420.30047,E,0.004,,200119,,,D*60
$GNVTG,,T,,M,0.004,N,0.007,K,D*3B
$GNGGA,135340.00,3030.86279,N,11420.30047,E,2,12,0.86,18.7,M,-10.8,M,,0000*52
$GNGSA,A,3,07,01,17,08,22,30,28,18,11,41,,,1.60,0.86,1.34*1E
$GNGSA,A,3,82,79,83,78,81,,,,,,,,1.60,0.86,1.34*1A
$GPGSV,4,1,15,01,72,141,28,07,61,215,39,08,33,046,35,09,01,205,*7D
$GPGSV,4,2,15,11,79,036,29,13,01,311,,16,01,111,,17,20,260,17*7A
$GPGSV,4,3,15,18,59,062,33,22,18,131,13,27,07,060,,28,32,316,35*7E
$GPGSV,4,4,15,30,55,286,31,40,18,253,,41,41,230,35*4E
$GLGSV,2,1,06,78,16,144,21,79,68,130,31,80,52,334,,81,35,025,17*6F
$GLGSV,2,2,06,82,69,305,35,83,31,235,32*6A
$GNGLL,3030.86279,N,11420.30047,E,135340.00,A,D*76
$GNRMC,135341.00,A,3030.86280,N,11420.30047,E,0.091,,200119,,,D*6B
$GNVTG,,T,,M,0.091,N,0.168,K,D*3F
$GNGGA,135341.00,3030.86280,N,11420.30047,E,2,12,0.86,18.6,M,-10.8,M,,0000*54
$GNGSA,A,3,07,01,17,08,22,30,28,18,11,41,,,1.60,0.86,1.34*1E
$GNGSA,A,3,82,79,83,78,81,,,,,,,,1.60,0.86,1.34*1A
$GPGSV,4,1,15,01,72,141,28,07,61,215,39,08,33,046,36,09,01,205,*7E
$GPGSV,4,2,15,11,79,036,28,13,01,311,,16,01,111,,17,20,260,16*7A
$GPGSV,4,3,15,18,59,062,33,22,18,131,13,27,07,060,,28,32,316,34*7F
$GPGSV,4,4,15,30,55,286,30,40,18,253,,41,41,230,35*4F
$GLGSV,2,1,06,78,16,144,19,79,68,130,31,80,52,334,,81,35,025,15*66
$GLGSV,2,2,06,82,69,305,33,83,31,235,32*6C
$GNGLL,3030.86280,N,11420.30047,E,135341.00,A,D*71
$GNRMC,135342.00,A,3030.86279,N,11420.30046,E,0.014,,200119,,,D*62
$GNVTG,,T,,M,0.014,N,0.025,K,D*3A
$GNGGA,135342.00,3030.86279,N,11420.30046,E,2,12,0.86,18.4,M,-10.8,M,,0000*52
$GNGSA,A,3,07,01,17,08,22,30,28,18,11,41,,,1.60,0.86,1.34*1E
$GNGSA,A,3,82,79,83,78,81,,,,,,,,1.60,0.86,1.34*1A
$GPGSV,4,1,15,01,72,141,28,07,61,215,38,08,33,046,35,09,01,205,*7C
$GPGSV,4,2,15,11,79,036,29,13,01,311,,16,01,111,,17,20,260,16*7B
$GPGSV,4,3,15,18,59,062,31,22,18,131,14,27,07,060,,28,32,316,34*7A
$GPGSV,4,4,15,30,55,286,30,40,18,253,,41,41,230,35*4F
$GLGSV,2,1,06,78,16,144,18,79,68,130,31,80,52,334,,81,35,025,17*65
$GLGSV,2,2,06,82,69,305,33,83,31,235,32*6C
$GNGLL,3030.86279,N,11420.30046,E,135342.00,A,D*75
$GNRMC,135343.00,A,3030.86278,N,11420.30048,E,0.051,,200119,,,D*6D
$GNVTG,,T,,M,0.051,N,0.094,K,D*31
$GNGGA,135343.00,3030.86278,N,11420.30048,E,2,12,0.86,18.3,M,-10.8,M,,0000*5B
$GNGSA,A,3,07,01,17,08,22,30,28,18,11,41,,,1.60,0.86,1.34*1E
$GNGSA,A,3,82,79,83,78,81,,,,,,,,1.60,0.86,1.34*1A
$GPGSV,4,1,15,01,72,141,28,07,61,215,38,08,33,046,35,09,01,205,*7C
$GPGSV,4,2,15,11,79,036,28,13,01,311,,16,01,111,,17,20,260,17*7B
$GPGSV,4,3,15,18,59,061,33,22,18,131,15,27,07,060,,28,32,316,35*7B
$GPGSV,4,4,15,30,55,286,31,40,18,253,,41,41,230,34*4F
$GLGSV,2,1,06,78,16,144,19,79,68,130,30,80,52,334,,81,35,025,20*61
$GLGSV,2,2,06,82,69,305,34,83,31,235,32*6B
$GNGLL,3030.86278,N,11420.30048,E,135343.00,A,D*7B
$GNRMC,135344.00,A,3030.86276,N,11420.30049,E,0.071,,200119,,,D*67
$GNVTG,,T,,M,0.071,N,0.131,K,D*3D
$GNGGA,135344.00,3030.86276,N,11420.30049,E,2,12,0.83,18.2,M,-10.8,M,,0000*57
$GNGSA,A,3,07,01,17,08,22,30,28,18,11,41,,,1.46,0.83,1.21*1B
$GNGSA,A,3,82,79,83,78,81,,,,,,,,1.46,0.83,1.21*1F
$GPGSV,4,1,15,01,72,141,30,07,61,215,38,08,33,046,35,09,01,205,*75
$GPGSV,4,2,15,11,79,036,29,13,01,311,,16,01,111,,17,20,260,18*75
$GPGSV,4,3,15,18,59,061,34,22,18,131,15,27,07,060,,28,32,316,34*7D
$GPGSV,4,4,15,30,55,286,30,40,18,253,,41,41,230,35*4F
$GLGSV,2,1,06,78,16,144,20,79,68,130,30,80,52,334,,81,35,025,21*6A
$GLGSV,2,2,06,82,69,305,33,83,31,235,32*6C
$GNGLL,3030.86276,N,11420.30049,E,135344.00,A,D*73
$GNRMC,135345.00,A,3030.86276,N,11420.30049,E,0.123,,200119,,,D*60
$GNVTG,,T,,M,0.123,N,0.228,K,D*30
$GNGGA,135345.00,3030.86276,N,11420.30049,E,2,12,0.83,18.1,M,-10.8,M,,0000*55
$GNGSA,A,3,07,01,17,08,22,30,28,18,11,41,,,1.46,0.83,1.21*1B
$GNGSA,A,3,82,79,83,78,81,,,,,,,,1.46,0.83,1.21*1F
$GPGSV,4,1,15,01,72,141,29,07,61,215,38,08,33,046,36,09,01,205,*7E
$GPGSV,4,2,15,11,79,036,29,13,01,311,,16,01,111,,17,20,260,19*74
$GPGSV,4,3,15,18,59,061,34,22,18,131,13,27,07,060,,28,32,316,34*7B
$GPGSV,4,4,15,30,55,286,29,40,18,253,,41,41,230,35*47
$GLGSV,2,1,06,78,16,144,21,79,68,130,31,80,52,334,,81,35,025,21*6A
$GLGSV,2,2,06,82,69,305,33,83,31,235,33*6D
$GNGLL,3030.86276,N,11420.30049,E,135345.00,A,D*72
$GNRMC,135346.00,A,3030.86274,N,11420.30050,E,0.052,,200119,,,D*6E
$GNVTG,,T,,M,0.052,N,0.097,K,D*31
$GNGGA,135346.00,3030.86274,N,11420.30050,E,2,12,0.83,18.0,M,-10.8,M,,0000*5D
$GNGSA,A,3,07,01,17,08,22,30,28,18,11,41,,,1.46,0.83,1.21*1B
$GNGSA,A,3,82,79,83,78,81,,,,,,,,1.46,0.83,1.21*1F
$GPGSV,4,1,15,01,72,141,28,07,61,215,38,08,33,046,35,09,01,205,*7C
$GPGSV,4,2,15,11,79,036,29,13,01,311,,16,01,111,,17,20,260,19*74
$GPGSV,4,3,15,18,59,061,34,22,18,131,11,27,07,060,,28,32,316,34*79
$GPGSV,4,4,15,30,55,286,29,40,18,253,,41,41,230,35*47
$GLGSV,2,1,06,78,16,144,21,79,68,130,30,80,52,334,,81,35,025,21*6B
$GLGSV,2,2,06,82,69,305,32,83,31,235,33*6C
$GNGLL,3030.86274,N,11420.30050,E,135346.00,A,D*7B
$GNRMC,135347.00,A,3030.86272,N,11420.30049,E,0.038,,200119,,,D*6D
$GNVTG,,T,,M,0.038,N,0.070,K,D*34
$GNGGA,135347.00,3030.86272,N,11420.30049,E,2,12,1.13,17.8,M,-10.8,M,,0000*5D
$GNGSA,A,3,07,01,17,08,30,28,18,11,41,,,,2.01,1.13,1.67*11
$GNGSA,A,3,82,79,83,78,81,,,,,,,,2.01,1.13,1.67*15
$GPGSV,4,1,15,01,72,141,29,07,61,215,38,08,33,046,36,09,01,205,*7E
$GPGSV,4,2,15,11,79,036,29,13,01,311,,16,01,111,,17,20,260,20*7E
$GPGSV,4,3,15,18,59,061,33,22,18,131,09,27,07,060,,28,32,316,35*76
$GPGSV,4,4,15,30,55,286,28,40,18,253,,41,41,230,35*46
$GLGSV,2,1,06,78,16,144,21,79,68,130,34,80,52,334,,81,35,025,20*6E
$GLGSV,2,2,06,82,69,305,33,83,31,235,33*6D
$GNGLL,3030.86272,N,11420.30049,E,135347.00,A,D*74
$GNRMC,135348.00,A,3030.86268,N,11420.30049,E,0.099,,200119,,,D*62
$GNVTG,,T,,M,0.099,N,0.183,K,D*32
$GNGGA,135348.00,3030.86268,N,11420.30049,E,2,12,1.13,17.7,M,-10.8,M,,0000*56
$GNGSA,A,3,07,01,17,08,30,28,18,11,41,,,,2.01,1.13,1.67*11
$GNGSA,A,3,82,79,83,78,81,,,,,,,,2.01,1.13,1.67*15
$GPGSV,4,1,15,01,72,141,29,07,61,215,38,08,33,046,35,09,01,205,*7D
$GPGSV,4,2,15,11,79,036,30,13,01,311,,16,01,111,,17,20,260,21*77
$GPGSV,4,3,15,18,59,061,33,22,18,131,09,27,07,060,,28,32,316,34*77
$GPGSV,4,4,15,30,55,286,30,40,18,253,,41,41,230,35*4F
$GLGSV,2,1,06,78,16,144,21,79,68,130,34,80,52,334,,81,35,025,20*6E
$GLGSV,2,2,06,82,69,305,33,83,31,235,33*6D
$GNGLL,3030.86268,N,11420.30049,E,135348.00,A,D*70
$GNRMC,135349.00,A,3030.86265,N,11420.30047,E,0.051,,200119,,,D*64
$GNVTG,,T,,M,0.051,N,0.094,K,D*31
$GNGGA,135349.00,3030.86265,N,11420.30047,E,2,12,1.13,17.6,M,-10.8,M,,0000*55
$GNGSA,A,3,07,01,17,08,30,28,18,11,41,,,,2.01,1.13,1.67*11
$GNGSA,A,3,82,79,83,78,81,,,,,,,,2.01,1.13,1.67*15
$GPGSV,4,1,15,01,72,141,28,07,61,215,40,08,33,046,35,09,01,205,*73
$GPGSV,4,2,15,11,79,036,30,13,01,311,,16,01,111,,17,20,260,23*75
$GPGSV,4,3,15,18,59,061,33,22,18,131,09,27,07,060,,28,32,316,34*77
$GPGSV,4,4,15,30,55,286,31,40,18,253,,41,41,230,35*4E
$GLGSV,2,1,06,78,16,144,21,79,68,130,31,80,52,334,,81,35,025,20*6B
$GLGSV,2,2,06,82,69,305,34,83,31,235,32*6B
$GNGLL,3030.86265,N,11420.30047,E,135349.00,A,D*72
$GNRMC,135350.00,A,3030.86265,N,11420.30048,E,0.012,,200119,,,D*64
$GNVTG,,T,,M,0.012,N,0.023,K,D*3A
$GNGGA,135350.00,3030.86265,N,11420.30048,E,2,12,0.82,17.5,M,-10.8,M,,0000*58
$GNGSA,A,3,07,01,17,08,22,30,28,18,11,41,,,1.46,0.82,1.21*1A
$GNGSA,A,3,82,79,83,78,81,,,,,,,,1.46,0.82,1.21*1E
$GPGSV,4,1,15,01,72,141,28,07,61,215,39,08,33,046,36,09,01,205,*7E
$GPGSV,4,2,15,11,79,036,30,13,01,311,,16,01,111,,17,20,260,25*73
$GPGSV,4,3,15,18,59,061,33,22,18,131,11,27,07,060,,28,32,316,34*7E
$GPGSV,4,4,15,30,55,286,29,40,18,253,,41,41,230,35*47
$GLGSV,2,1,06,78,16,144,21,79,68,130,31,80,52,334,,81,35,025,20*6B
$GLGSV,2,2,06,82,69,305,34,83,31,235,32*6B
$GNGLL,3030.86265,N,11420.30048,E,135350.00,A,D*75
$GNRMC,135351.00,A,3030.86268,N,11420.30048,E,0.083,,200119,,,D*60
$GNVTG,,T,,M,0.083,N,0.154,K,D*33
$GNGGA,135351.00,3030.86268,N,11420.30048,E,2,12,0.82,17.5,M,-10.8,M,,0000*54
$GNGSA,A,3,07,01,17,08,22,30,28,18,11,41,,,1.46,0.82,1.21*1A
$GNGSA,A,3,82,79,83,78,81,,,,,,,,1.46,0.82,1.21*1E
$GPGSV,4,1,15,01,72,141,28,07,61,215,39,08,33,046,36,09,01,205,*7E
$GPGSV,4,2,15,11,79,036,30,13,01,311,,16,01,111,,17,20,260,25*73
$GPGSV,4,3,15,18,59,061,33,22,18,131,16,27,07,060,,28,32,316,34*79
$GPGSV,4,4,15,30,55,286,26,40,18,253,,41,41,230,35*48
$GLGSV,2,1,06,78,16,144,22,79,68,130,31,80,52,334,,81,35,025,21*69
$GLGSV,2,2,06,82,69,305,34,83,31,235,32*6B
$GNGLL,3030.86268,N,11420.30048,E,135351.00,A,D*79
$GNRMC,135352.00,A,3030.86268,N,11420.30049,E,0.011,,200119,,,D*69
$GNVTG,,T,,M,0.011,N,0.020,K,D*3A
$GNGGA,135352.00,3030.86268,N,11420.30049,E,2,12,0.82,17.3,M,-10.8,M,,0000*50
$GNGSA,A,3,07,01,17,08,22,30,28,18,11,41,,,1.46,0.82,1.21*1A
$GNGSA,A,3,82,79,83,78,81,,,,,,,,1.46,0.82,1.21*1E
$GPGSV,4,1,15,01,72,141,29,07,61,215,39,08,33,046,35,09,01,205,*7C
$GPGSV,4,2,15,11,79,036,29,13,01,311,,16,01,111,,17,20,260,23*7D
$GPGSV,4,3,15,18,59,061,32,22,18,131,19,27,07,060,,28,32,316,33*70
$GPGSV,4,4,15,30,55,286,25,40,18,253,,41,41,230,34*4A
$GLGSV,2,1,06,78,16,144,23,79,68,130,30,80,52,334,,81,35,025,22*6A
$GLGSV,2,2,06,82,69,305,34,83,31,235,32*6B
$GNGLL,3030.86268,N,11420.30049,E,135352.00,A,D*7B
$GNRMC,135353.00,A,3030.86270,N,11420.30048,E,0.033,,200119,,,D*60
$GNVTG,,T,,M,0.033,N,0.062,K,D*3C
$GNGGA,135353.00,3030.86270,N,11420.30048,E,2,12,0.82,17.2,M,-10.8,M,,0000*58
$GNGSA,A,3,07,01,17,08,22,30,28,18,11,41,,,1.46,0.82,1.21*1A
$GNGSA,A,3,82,79,83,78,81,,,,,,,,1.46,0.82,1.21*1E
$GPGSV,4,1,15,01,72,141,30,07,61,215,39,08,33,046,35,09,01,205,*74
$GPGSV,4,2,15,11,79,036,29,13,01,311,,16,01,111,,17,20,260,22*7C
$GPGSV,4,3,15,18,59,061,32,22,18,131,18,27,07,060,,28,32,316,33*71
$GPGSV,4,4,15,30,55,286,26,40,18,253,,41,41,230,34*49
$GLGSV,2,1,06,78,16,144,24,79,68,130,29,80,52,334,,81,35,025,22*65
$GLGSV,2,2,06,82,69,305,34,83,31,235,31*68
$GNGLL,3030.86270,N,11420.30048,E,135353.00,A,D*72
$GNRMC,135354.00,A,3030.86269,N,11420.30050,E,0.044,,200119,,,D*66
$GNVTG,,T,,M,0.044,N,0.081,K,D*31
$GNGGA,135354.00,3030.86269,N,11420.30050,E,2,12,0.82,17.1,M,-10.8,M,,0000*5D
$GNGSA,A,3,07,01,17,08,22,30,28,18,11,41,,,1.46,0.82,1.21*1A
$GNGSA,A,3,82,79,83,78,81,,,,,,,,1.46,0.82,1.21*1E
$GPGSV,4,1,15,01,72,141,30,07,61,215,39,08,33,046,35,09,01,205,*74
$GPGSV,4,2,15,11,79,036,29,13,01,311,,16,01,111,,17,20,260,22*7C
$GPGSV,4,3,15,18,59,061,33,22,18,131,17,27,07,060,,28,32,316,34*78
$GPGSV,4,4,15,30,55,286,26,40,18,253,,41,41,230,35*48
$GLGSV,2,1,06,78,16,144,24,79,68,130,29,80,52,334,,81,35,025,22*65
$GLGSV,2,2,06,82,69,305,34,83,31,235,31*68
$GNGLL,3030.86269,N,11420.30050,E,135354.00,A,D*74
$GNRMC,135355.00,A,3030.86269,N,11420.30053,E,0.022,,200119,,,D*64
$GNVTG,,T,,M,0.022,N,0.042,K,D*3E
$GNGGA,135355.00,3030.86269,N,11420.30053,E,2,12,0.82,17.0,M,-10.8,M,,0000*5E
$GNGSA,A,3,07,01,17,08,22,30,28,18,11,41,,,1.46,0.82,1.21*1A
$GNGSA,A,3,82,79,83,78,81,,,,,,,,1.46,0.82,1.21*1E
$GPGSV,4,1,15,01,72,141,30,07,61,215,40,08,33,046,35,09,01,205,*7A
$GPGSV,4,2,15,11,79,036,30,13,01,311,,16,01,111,,17,20,260,22*74
$GPGSV,4,3,15,18,59,061,33,22,18,131,14,27,07,060,,28,32,316,34*7B
$GPGSV,4,4,15,30,55,286,26,40,18,253,,41,41,230,35*48
$GLGSV,2,1,06,78,16,144,24,79,68,130,28,80,52,334,,81,35,025,22*64
$GLGSV,2,2,06,82,69,305,34,83,31,235,31*68
$GNGLL,3030.86269,N,11420.30053,E,135355.00,A,D*76
$GNRMC,135356.00,A,3030.86267,N,11420.30055,E,0.047,,200119,,,D*6C
$GNVTG,,T,,M,0.047,N,0.087,K,D*34
$GNGGA,135356.00,3030.86267,N,11420.30055,E,2,12,0.82,16.8,M,-10.8,M,,0000*5C
$GNGSA,A,3,07,01,17,08,22,30,28,18,11,41,,,1.46,0.82,1.21*1A
$GNGSA,A,3,82,79,83,78,81,,,,,,,,1.46,0.82,1.21*1E
$GPGSV,4,1,15,01,72,141,30,07,61,215,39,08,33,046,36,09,01,205,*77
$GPGSV,4,2,15,11,79,036,30,13,01,311,,16,01,111,,17,20,260,24*72
$GPGSV,4,3,15,18,59,061,33,22,18,131,15,27,07,060,,28,32,316,34*7A
$GPGSV,4,4,15,30,55,286,26,40,18,253,,41,41,230,35*48
$GLGSV,2,1,06,78,16,144,22,79,68,130,28,80,52,334,,81,35,025,20*60
$GLGSV,2,2,06,82,69,305,34,83,31,235,33*6A
$GNGLL,3030.86267,N,11420.30055,E,135356.00,A,D*7D
$GNRMC,135357.00,A,3030.86269,N,11420.30058,E,0.012,,200119,,,D*6E
$GNVTG,,T,,M,0.012,N,0.022,K,D*3B
$GNGGA,135357.00,3030.86269,N,11420.30058,E,2,12,0.82,16.8,M,-10.8,M,,0000*5E
$GNGSA,A,3,07,01,17,08,22,30,28,18,11,41,,,1.46,0.82,1.21*1A
$GNGSA,A,3,82,79,83,78,81,,,,,,,,1.46,0.82,1.21*1E
$GPGSV,4,1,15,01,72,141,30,07,61,215,39,08,33,046,35,09,01,205,*74
$GPGSV,4,2,15,11,79,036,30,13,01,311,,16,01,111,,17,20,260,25*73
$GPGSV,4,3,15,18,59,061,33,22,18,131,16,27,07,060,,28,32,316,35*78
$GPGSV,4,4,15,30,55,286,26,40,18,253,,41,41,230,35*48
$GLGSV,2,1,06,78,16,144,22,79,68,130,29,80,52,334,,81,35,025,20*61
$GLGSV,2,2,06,82,69,305,34,83,31,235,33*6A
$GNGLL,3030.86269,N,11420.30058,E,135357.00,A,D*7F
$GNRMC,135358.00,A,3030.86273,N,11420.30059,E,0.028,,200119,,,D*62
$GNVTG,,T,,M,0.028,N,0.053,K,D*34
$GNGGA,135358.00,3030.86273,N,11420.30059,E,2,12,0.82,17.0,M,-10.8,M,,0000*52
$GNGSA,A,3,07,01,17,08,22,30,28,18,11,41,,,1.46,0.82,1.21*1A
$GNGSA,A,3,82,79,83,78,81,,,,,,,,1.46,0.82,1.21*1E
$GPGSV,4,1,15,01,72,141,31,07,61,215,40,08,33,046,35,09,01,205,*7B
$GPGSV,4,2,15,11,79,036,30,13,01,311,,16,01,111,,17,20,260,23*75
$GPGSV,4,3,15,18,59,061,33,22,18,131,18,27,07,060,,28,32,316,34*77
$GPGSV,4,4,15,30,55,286,26,40,18,253,,41,41,230,35*48
$GLGSV,2,1,06,78,15,144,21,79,68,130,32,80,52,334,,81,35,025,19*61
$GLGSV,2,2,06,82,69,305,34,83,31,235,33*6A
$GNGLL,3030.86273,N,11420.30059,E,135358.00,A,D*7A
$GNRMC,135359.00,A,3030.86273,N,11420.30061,E,0.056,,200119,,,D*61
$GNVTG,,T,,M,0.056,N,0.103,K,D*39
$GNGGA,135359.00,3030.86273,N,11420.30061,E,2,12,0.82,17.0,M,-10.8,M,,0000*58
$GNGSA,A,3,07,01,17,08,22,30,28,18,11,41,,,1.46,0.82,1.21*1A
$GNGSA,A,3,82,79,83,78,81,,,,,,,,1.46,0.82,1.21*1E
$GPGSV,4,1,15,01,72,141,31,07,61,215,39,08,33,046,36,09,01,205,*76
$GPGSV,4,2,15,11,79,036,30,13,01,311,,16,01,111,,17,20,260,24*72
$GPGSV,4,3,15,18,59,061,34,22,18,131,20,27,07,060,,28,32,316,34*7B
$GPGSV,4,4,15,30,55,286,26,40,18,253,,41,41,230,35*48
$GLGSV,2,1,06,78,15,144,22,79,68,132,31,80,52,334,,81,35,025,18*62
$GLGSV,2,2,06,82,69,305,34,83,31,235,33*6A
$GNGLL,3030.86273,N,11420.30061,E,135359.00,A,D*70
$GNRMC,135400.00,A,3030.86270,N,11420.30063,E,0.083,,200119,,,D*63
$GNVTG,,T,,M,0.083,N,0.154,K,D*33
$GNGGA,135400.00,3030.86270,N,11420.30063,E,2,12,0.86,16.8,M,-10.8,M,,0000*5F
$GNGSA,A,3,07,01,17,08,22,30,28,18,11,41,,,1.60,0.86,1.35*1F
$GNGSA,A,3,82,79,83,78,81,,,,,,,,1.60,0.86,1.35*1B
$GPGSV,4,1,15,01,72,141,30,07,61,215,38,08,33,046,35,09,01,205,*75
$GPGSV,4,2,15,11,79,036,30,13,01,311,,16,01,111,,17,20,260,26*70
$GPGSV,4,3,15,18,59,061,34,22,18,131,19,27,07,060,,28,32,316,33*76
$GPGSV,4,4,15,30,55,286,31,40,18,253,,41,41,230,35*4E
$GLGSV,2,1,06,78,15,144,22,79,68,132,31,80,53,334,,81,35,025,16*6D
$GLGSV,2,2,06,82,69,305,34,83,31,235,33*6A
$GNGLL,3030.86270,N,11420.30063,E,135400.00,A,D*7A
$GNRMC,135401.00,A,3030.86276,N,11420.30064,E,0.048,,200119,,,D*64
$GNVTG,,T,,M,0.048,N,0.088,K,D*34
$GNGGA,135401.00,3030.86276,N,11420.30064,E,2,12,0.82,17.1,M,-10.8,M,,0000*53
$GNGSA,A,3,07,01,17,08,22,30,28,18,11,41,,,1.46,0.82,1.21*1A
$GNGSA,A,3,82,79,83,78,81,,,,,,,,1.46,0.82,1.21*1E
$GPGSV,4,1,15,01,72,141,29,07,61,215,38,08,33,046,35,09,01,205,*7D
$GPGSV,4,2,15,11,79,036,30,13,01,311,,16,01,111,,17,20,260,26*70
$GPGSV,4,3,15,18,59,061,32,22,18,131,19,27,07,060,,28,32,316,35*76
$GPGSV,4,4,15,30,55,286,29,40,18,253,,41,41,230,34*46
$GLGSV,2,1,06,78,15,144,22,79,68,132,31,80,53,334,,81,34,025,17*6D
$GLGSV,2,2,06,82,69,305,35,83,31,235,32*6A
$GNGLL,3030.86276,N,11420.30064,E,135401.00,A,D*7A
$GNRMC,135402.00,A,3030.86286,N,11420.30061,E,0.173,,200119,,,D*64
$GNVTG,,T,,M,0.173,N,0.320,K,D*3C
$GNGGA,135402.00,3030.86286,N,11420.30061,E,2,12,0.86,17.3,M,-10.8,M,,0000*5C
$GNGSA,A,3,07,01,17,08,22,30,28,18,11,41,,,1.60,0.86,1.35*1F
$GNGSA,A,3,82,79,83,78,81,,,,,,,,1.60,0.86,1.35*1B
$GPGSV,4,1,15,01,72,141,30,07,61,215,40,08,33,046,34,09,01,205,*7B
$GPGSV,4,2,15,11,79,036,29,13,01,311,,16,01,111,,17,20,260,26*78
$GPGSV,4,3,15,18,59,061,33,22,18,131,18,27,07,060,,28,32,316,35*76
$GPGSV,4,4,15,30,55,286,28,40,18,253,,41,41,230,35*46
$GLGSV,2,1,06,78,15,144,22,79,68,132,32,80,53,334,,81,34,025,18*61
$GLGSV,2,2,06,82,69,307,34,83,31,235,32*69
$GNGLL,3030.86286,N,11420.30061,E,135402.00,A,D*73
$GNRMC,135403.00,A,3030.86289,N,11420.30060,E,0.094,,200119,,,D*63
$GNVTG,,T,,M,0.094,N,0.173,K,D*30
$GNGGA,135403.00,3030.86289,N,11420.30060,E,2,12,0.86,17.2,M,-10.8,M,,0000*52
$GNGSA,A,3,07,01,17,08,22,30,28,18,11,41,,,1.60,0.86,1.35*1F
$GNGSA,A,3,82,79,83,78,81,,,,,,,,1.60,0.86,1.35*1B
$GPGSV,4,1,15,01,72,141,30,07,61,215,39,08,33,046,35,09,01,205,*74
$GPGSV,4,2,15,11,79,036,29,13,01,311,,16,01,111,,17,20,260,27*79
$GPGSV,4,3,15,18,59,061,33,22,18,131,18,27,07,060,,28,32,316,35*76
$GPGSV,4,4,15,30,55,286,27,40,18,253,,41,41,230,35*49
$GLGSV,2,1,06,78,15,144,21,79,68,132,31,80,53,334,,81,34,025,18*61
$GLGSV,2,2,06,82,69,307,33,83,32,236,31*6D
$GNGLL,3030.86289,N,11420.30060,E,135403.00,A,D*7C
$GNRMC,135404.00,A,3030.86295,N,11420.30057,E,0.108,,200119,,,D*69
$GNVTG,,T,,M,0.108,N,0.199,K,D*30
$GNGGA,135404.00,3030.86295,N,11420.30057,E,2,12,0.86,17.4,M,-10.8,M,,0000*5A
$GNGSA,A,3,07,01,17,08,22,30,28,18,11,41,,,1.60,0.86,1.35*1F
$GNGSA,A,3,82,79,83,78,81,,,,,,,,1.60,0.86,1.35*1B
$GPGSV,4,1,15,01,72,141,31,07,61,215,39,08,33,046,35,09,01,205,*75
$GPGSV,4,2,15,11,79,036,29,13,01,311,,16,01,111,,17,20,260,27*79
$GPGSV,4,3,15,18,59,061,29,22,18,131,18,27,07,060,,28,32,316,34*7C
$GPGSV,4,4,15,30,55,286,33,40,18,253,,41,41,230,35*4C
$GLGSV,2,1,06,78,15,144,21,79,68,132,32,80,53,334,,81,34,025,17*6D
$GLGSV,2,2,06,82,69,307,33,83,32,236,31*6D
$GNGLL,3030.86295,N,11420.30057,E,135404.00,A,D*72
$GNRMC,135405.00,A,3030.86297,N,11420.30059,E,0.052,,200119,,,D*6A
$GNVTG,,T,,M,0.052,N,0.096,K,D*30
$GNGGA,135405.00,3030.86297,N,11420.30059,E,2,12,0.86,17.4,M,-10.8,M,,0000*57
$GNGSA,A,3,07,01,17,08,22,30,28,18,11,41,,,1.60,0.86,1.35*1F
$GNGSA,A,3,82,79,83,78,81,,,,,,,,1.60,0.86,1.35*1B
$GPGSV,4,1,15,01,72,141,29,07,61,215,39,08,33,046,35,09,01,205,*7C
$GPGSV,4,2,15,11,79,036,30,13,01,311,,16,01,111,,17,20,260,29*7F
$GPGSV,4,3,15,18,59,061,32,22,18,131,18,27,07,060,,28,32,316,35*77
$GPGSV,4,4,15,30,55,286,27,40,18,253,,41,41,230,35*49
$GLGSV,2,1,06,78,15,144,20,79,68,132,32,80,53,334,,81,34,025,17*6C
$GLGSV,2,2,06,82,69,307,33,83,32,236,31*6D
$GNGLL,3030.86297,N,11420.30059,E,135405.00,A,D*7F
$GNRMC,135406.00,A,3030.86300,N,11420.30058,E,0.068,,200119,,,D*6E
$GNVTG,,T,,M,0.068,N,0.126,K,D*33
$GNGGA,135406.00,3030.86300,N,11420.30058,E,2,12,0.86,17.4,M,-10.8,M,,0000*5A
$GNGSA,A,3,07,01,17,08,22,30,28,18,11,41,,,1.60,0.86,1.35*1F
$GNGSA,A,3,82,79,83,78,81,,,,,,,,1.60,0.86,1.35*1B
$GPGSV,4,1,15,01,72,141,30,07,61,215,40,08,33,046,35,09,01,205,*7A
$GPGSV,4,2,15,11,79,036,30,13,01,311,,16,01,111,,17,20,260,28*7E
$GPGSV,4,3,15,18,59,061,33,22,18,131,18,27,07,060,,28,32,316,33*70
$GPGSV,4,4,15,30,55,286,26,40,18,253,,41,41,230,35*48
$GLGSV,2,1,06,78,15,144,20,79,68,132,29,80,53,334,,81,34,025,16*67
$GLGSV,2,2,06,82,69,307,34,83,32,236,31*6A
$GNGLL,3030.86300,N,11420.30058,E,135406.00,A,D*72
$GNRMC,135407.00,A,3030.86306,N,11420.30056,E,0.123,,200119,,,D*69
$GNVTG,,T,,M,0.123,N,0.228,K,D*30
$GNGGA,135407.00,3030.86306,N,11420.30056,E,2,12,0.86,17.4,M,-10.8,M,,0000*53
$GNGSA,A,3,07,01,17,08,22,30,28,18,11,41,,,1.60,0.86,1.35*1F
$GNGSA,A,3,82,79,83,78,81,,,,,,,,1.60,0.86,1.35*1B
$GPGSV,4,1,15,01,72,141,31,07,61,215,39,08,33,046,36,09,01,205,*76
$GPGSV,4,2,15,11,79,036,30,13,01,311,,16,01,111,,17,20,260,29*7F
$GPGSV,4,3,15,18,59,061,34,22,18,131,17,27,07,060,,28,32,316,35*7E
$GPGSV,4,4,15,30,55,286,27,40,18,253,,41,41,230,34*48
$GLGSV,2,1,06,78,15,144,20,79,68,132,31,80,53,334,,81,34,025,15*6D
$GLGSV,2,2,06,82,69,307,35,83,32,236,31*6B
$GNGLL,3030.86306,N,11420.30056,E,135407.00,A,D*7B
$GNRMC,135408.00,A,3030.86308,N,11420.30055,E,0.016,,200119,,,D*6C
$GNVTG,,T,,M,0.016,N,0.029,K,D*34
$GNGGA,135408.00,3030.86308,N,11420.30055,E,2,12,0.86,17.5,M,-10.8,M,,0000*50
$GNGSA,A,3,07,01,08,22,30,28,18,11,41,,,,1.60,0.86,1.35*19
$GNGSA,A,3,82,79,83,78,81,,,,,,,,1.60,0.86,1.35*1B
$GPGSV,4,1,15,01,72,141,32,07,61,215,38,08,33,046,35,09,01,205,*77
$GPGSV,4,2,15,11,79,036,29,13,01,311,,16,01,111,,17,20,260,30*7F
$GPGSV,4,3,15,18,59,061,33,22,18,131,18,27,07,060,,28,32,316,34*77
$GPGSV,4,4,15,30,55,286,33,40,18,253,,41,41,230,35*4C
$GLGSV,2,1,06,78,15,144,20,79,68,132,30,80,53,334,,81,34,025,15*6C
$GLGSV,2,2,06,82,69,307,35,83,32,236,31*6B
$GNGLL,3030.86308,N,11420.30055,E,135408.00,A,D*79
$GNRMC,135409.00,A,3030.86314,N,11420.30053,E,0.099,,200119,,,D*61
$GNVTG,,T,,M,0.099,N,0.183,K,D*32
$GNGGA,135409.00,3030.86314,N,11420.30053,E,2,12,0.86,17.6,M,-10.8,M,,0000*59
$GNGSA,A,3,07,01,17,08,22,30,28,18,11,41,,,1.60,0.86,1.35*1F
$GNGSA,A,3,82,79,83,78,81,,,,,,,,1.60,0.86,1.35*1B
$GPGSV,4,1,15,01,72,140,31,07,61,215,39,08,33,046,35,09,01,205,*74
$GPGSV,4,2,15,11,79,036,29,13,01,311,,16,01,111,,17,20,260,29*77
$GPGSV,4,3,15,18,59,061,32,22,18,131,18,27,07,060,,28,32,316,34*76
$GPGSV,4,4,15,30,55,286,28,40,18,253,,41,41,230,35*46
$GLGSV,2,1,06,78,15,144,20,79,68,132,30,80,53,334,,81,34,025,15*6C
$GLGSV,2,2,06,82,69,307,35,83,32,236,32*68
$GNGLL,3030.86314,N,11420.30053,E,135409.00,A,D*73
$GNRMC,135410.00,A,3030.86319,N,11420.30054,E,0.100,,200119,,,D*62
$GNVTG,,T,,M,0.100,N,0.185,K,D*35
$GNGGA,135410.00,3030.86319,N,11420.30054,E,2,12,0.86,17.6,M,-10.8,M,,0000*5B
$GNGSA,A,3,07,01,17,08,22,30,28,18,11,41,,,1.60,0.86,1.35*1F
$GNGSA,A,3,82,79,83,78,81,,,,,,,,1.60,0.86,1.35*1B
$GPGSV,4,1,15,01,72,140,31,07,61,215,40,08,33,046,34,09,01,205,*7B
$GPGSV,4,2,15,11,79,036,29,13,01,311,,16,01,111,,17,20,260,28*76
$GPGSV,4,3,15,18,59,061,31,22,18,131,18,27,07,060,,28,32,316,35*74
$GPGSV,4,4,15,30,55,286,29,40,18,253,,41,41,230,34*46
$GLGSV,2,1,06,78,15,144,20,79,68,132,31,80,53,334,,81,34,025,15*6D
$GLGSV,2,2,06,82,69,307,34,83,32,236,32*69
$GNGLL,3030.86319,N,11420.30054,E,135410.00,A,D*71
$GNRMC,135411.00,A,3030.86329,N,11420.30050,E,0.145,,200119,,,D*65
$GNVTG,,T,,M,0.145,N,0.268,K,D*34
$GNGGA,135411.00,3030.86329,N,11420.30050,E,2,12,0.81,17.9,M,-10.8,M,,0000*55
$GNGSA,A,3,07,01,08,22,30,28,18,11,41,,,,1.46,0.81,1.22*1C
$GNGSA,A,3,82,79,83,78,81,,,,,,,,1.46,0.81,1.22*1E
$GPGSV,4,1,15,01,72,140,31,07,61,215,40,08,33,046,35,09,01,205,*7A
$GPGSV,4,2,15,11,79,036,29,13,01,311,,16,01,111,,17,20,260,*7C
$GPGSV,4,3,15,18,59,061,32,22,18,131,17,27,07,060,,28,32,316,35*78
$GPGSV,4,4,15,30,55,286,29,40,18,253,,41,41,230,34*46
$GLGSV,2,1,06,78,15,144,20,79,68,132,30,80,53,334,,81,34,025,15*6C
$GLGSV,2,2,06,82,69,307,35,83,32,236,32*68
$GNGLL,3030.86329,N,11420.30050,E,135411.00,A,D*77
$GNRMC,135412.00,A,3030.86332,N,11420.30048,E,0.037,,200119,,,D*61
$GNVTG,,T,,M,0.037,N,0.068,K,D*32
$GNGGA,135412.00,3030.86332,N,11420.30048,E,2,12,0.81,18.0,M,-10.8,M,,0000*53
$GNGSA,A,3,07,01,08,22,30,28,18,11,41,,,,1.46,0.81,1.22*1C
$GNGSA,A,3,82,79,83,78,81,,,,,,,,1.46,0.81,1.22*1E
$GPGSV,4,1,15,01,72,140,31,07,61,215,38,08,33,046,35,09,01,205,*75
$GPGSV,4,2,15,11,79,036,29,13,01,311,,16,01,111,,17,20,260,28*76
$GPGSV,4,3,15,18,59,061,31,22,18,131,16,27,07,060,,28,32,316,35*7A
$GPGSV,4,4,15,30,55,286,29,40,18,253,,41,41,230,35*47
$GLGSV,2,1,06,78,15,144,19,79,68,132,31,80,53,334,,81,34,025,15*67
$GLGSV,2,2,06,82,69,307,35,83,32,236,31*6B
$GNGLL,3030.86332,N,11420.30048,E,135412.00,A,D*77
$GNRMC,135413.00,A,3030.86340,N,11420.30045,E,0.121,,200119,,,D*6E
$GNVTG,,T,,M,0.121,N,0.225,K,D*3F
$GNGGA,135413.00,3030.86340,N,11420.30045,E,2,12,0.81,18.1,M,-10.8,M,,0000*5B
$GNGSA,A,3,07,01,17,08,22,30,28,18,11,41,,,1.46,0.81,1.22*1A
$GNGSA,A,3,82,79,83,78,81,,,,,,,,1.46,0.81,1.22*1E
$GPGSV,4,1,15,01,72,140,32,07,61,214,40,08,33,046,35,09,01,205,*78
$GPGSV,4,2,15,11,79,036,29,13,01,311,,16,01,111,,17,20,260,28*76
$GPGSV,4,3,15,18,59,061,32,22,18,131,17,27,07,060,,28,32,316,34*79
$GPGSV,4,4,15,30,55,286,30,40,18,253,,41,41,230,35*4F
$GLGSV,2,1,06,78,15,144,18,79,68,132,31,80,53,334,,81,34,025,16*65
$GLGSV,2,2,06,82,69,307,34,83,32,236,31*6A
$GNGLL,3030.86340,N,11420.30045,E,135413.00,A,D*7E
$GNRMC,135414.00,A,3030.86345,N,11420.30041,E,0.056,,200119,,,D*69
$GNVTG,,T,,M,0.056,N,0.103,K,D*39
$GNGGA,135414.00,3030.86345,N,11420.30041,E,2,12,0.81,18.2,M,-10.8,M,,0000*5E
$GNGSA,A,3,07,01,17,08,22,30,28,18,11,41,,,1.46,0.81,1.22*1A
$GNGSA,A,3,82,79,83,78,81,,,,,,,,1.46,0.81,1.22*1E
$GPGSV,4,1,15,01,72,140,31,07,61,214,38,08,33,046,35,09,01,205,*74
$GPGSV,4,2,15,11,79,036,29,13,01,311,,16,01,111,,17,20,260,30*7F
$GPGSV,4,3,15,18,59,061,32,22,18,131,18,27,07,060,,28,32,316,34*76
