####################第六圈###############写个字吧################################
GSV,4,2,14,16,14,208,08,20,01,164,,22,27,303,22,25,31,042,*7C
$GPGSV,4,3,14,26,42,209,36,29,21,094,16,31,58,318,34,32,67,083,15*78
$GPGSV,4,4,14,40,18,253,,41,41,230,29*7F
$GLGSV,2,1,08,66,01,152,,67,51,155,26,68,68,324,19,69,17,331,10*6D
$GLGSV,2,2,08,77,24,032,09,78,62,336,28,79,36,252,35,87,01,077,*62
$GNGLL,3030.88963,N,11420.30657,E,062200.00,A,D*79
$GNRMC,062201.00,A,3030.88968,N,11420.30661,E,0.049,,220119,,,D*6B
$GNVTG,,T,,M,0.049,N,0.090,K,D*3C
$GNGGA,062201.00,3030.88968,N,11420.30661,E,2,12,0.69,18.8,M,-10.8,M,,0000*5C
$GNGSA,A,3,14,22,26,31,32,03,10,41,29,,,,1.24,0.69,1.03*18
$GNGSA,A,3,68,79,78,77,67,69,,,,,,,1.24,0.69,1.03*17
$GPGSV,4,1,14,03,13,319,32,10,24,177,33,12,00,036,,14,70,018,30*7A
$GPGSV,4,2,14,16,14,208,07,20,01,164,,22,27,303,22,25,31,042,*73
$GPGSV,4,3,14,26,42,209,38,29,21,094,15,31,58,318,37,32,67,083,14*77
$GPGSV,4,4,14,40,18,253,,41,41,230,31*76
$GLGSV,2,1,08,66,01,152,,67,51,155,25,68,68,324,20,69,17,331,13*67
$GLGSV,2,2,08,77,24,032,07,78,62,336,30,79,36,252,35,87,01,077,*65
$GNGLL,3030.88968,N,11420.30661,E,062201.00,A,D*76
$GNRMC,062202.00,A,3030.88975,N,11420.30654,E,0.119,,220119,,,D*66
$GNVTG,,T,,M,0.119,N,0.221,K,D*30
$GNGGA,062202.00,3030.88975,N,11420.30654,E,2,12,0.69,19.0,M,-10.8,M,,0000*5C
$GNGSA,A,3,14,22,26,31,32,03,10,41,29,,,,1.24,0.69,1.03*18
$GNGSA,A,3,68,79,78,77,67,69,,,,,,,1.24,0.69,1.03*17
$GPGSV,4,1,14,03,13,319,32,10,24,177,37,12,00,036,,14,70,018,30*7E
$GPGSV,4,2,14,16,14,208,08,20,01,164,,22,27,303,25,25,31,042,*7B
$GPGSV,4,3,14,26,42,209,42,29,21,094,12,31,58,318,42,32,67,083,25*7D
$GPGSV,4,4,14,40,18,253,,41,41,230,37*70
$GLGSV,2,1,08,66,01,152,,67,51,155,26,68,68,324,31,69,17,331,08*6E
$GLGSV,2,2,08,77,24,032,09,78,62,336,38,79,36,252,37,87,01,077,*61
$GNGLL,3030.88975,N,11420.30654,E,062202.00,A,D*7F
$GNRMC,062203.00,A,3030.88984,N,11420.30660,E,0.286,,220119,,,D*6B
$GNVTG,,T,,M,0.286,N,0.529,K,D*3A
$GNGGA,062203.00,3030.88984,N,11420.30660,E,2,12,0.93,19.0,M,-10.8,M,,0000*51
$GNGSA,A,3,14,22,26,31,32,03,10,41,,,,,1.67,0.93,1.38*19
$GNGSA,A,3,68,79,78,77,67,69,,,,,,,1.67,0.93,1.38*1D
$GPGSV,4,1,14,03,13,319,35,10,24,177,34,12,00,036,,14,70,018,31*7B
$GPGSV,4,2,14,16,14,208,14,20,01,164,,22,27,303,30,25,31,042,*72
$GPGSV,4,3,14,26,42,209,41,29,21,094,,31,58,318,39,32,67,083,36*73
$GPGSV,4,4,14,40,18,253,,41,41,230,37*70
$GLGSV,2,1,08,66,01,152,,67,51,155,35,68,68,324,33,69,17,331,08*6E
$GLGSV,2,2,08,77,24,032,10,78,62,336,35,79,36,252,35,87,01,077,*66
$GNGLL,3030.88984,N,11420.30660,E,062203.00,A,D*77
$GNRMC,062204.00,A,3030.88991,N,11420.30661,E,0.058,,220119,,,D*68
$GNVTG,,T,,M,0.058,N,0.108,K,D*3C
$GNGGA,062204.00,3030.88991,N,11420.30661,E,2,12,0.74,19.1,M,-10.8,M,,0000*5B
$GNGSA,A,3,14,22,26,31,32,03,10,41,,,,,1.32,0.74,1.09*12
$GNGSA,A,3,68,79,78,77,67,69,,,,,,,1.32,0.74,1.09*16
$GPGSV,4,1,14,03,13,319,35,10,24,177,37,12,00,036,,14,70,018,27*7F
$GPGSV,4,2,14,16,14,208,17,20,01,164,,22,27,303,37,25,31,042,*76
$GPGSV,4,3,14,26,42,209,39,29,21,094,16,31,58,318,41,32,67,083,35*77
$GPGSV,4,4,14,40,18,253,,41,41,230,34*73
$GLGSV,2,1,08,66,01,152,,67,51,155,32,68,68,324,23,69,17,331,16*67
$GLGSV,2,2,08,77,24,032,12,78,62,336,32,79,36,252,39,87,01,077,*6F
$GNGLL,3030.88991,N,11420.30661,E,062204.00,A,D*75
$GNRMC,062205.00,A,3030.88995,N,11420.30647,E,0.612,,220119,,,D*61
$GNVTG,,T,,M,0.612,N,1.133,K,D*3D
$GNGGA,062205.00,3030.88995,N,11420.30647,E,2,12,0.74,19.1,M,-10.8,M,,0000*5A
$GNGSA,A,3,14,22,26,31,32,03,10,41,,,,,1.32,0.74,1.09*12
$GNGSA,A,3,68,79,78,77,67,69,,,,,,,1.32,0.74,1.09*16
$GPGSV,4,1,14,03,13,319,31,10,24,177,34,12,00,036,,14,70,018,26*79
$GPGSV,4,2,14,16,14,208,19,20,01,164,,22,27,303,39,25,31,042,*76
$GPGSV,4,3,14,26,42,209,34,29,21,094,16,31,58,318,41,32,67,083,31*7E
$GPGSV,4,4,14,40,18,253,,41,41,230,37*70
$GLGSV,2,1,08,66,01,152,,67,51,155,30,68,68,324,21,69,17,331,15*64
$GLGSV,2,2,08,77,24,032,09,78,62,336,25,79,36,252,36,87,01,077,*6C
$GNGLL,3030.88995,N,11420.30647,E,062205.00,A,D*74
$GNRMC,062206.00,A,3030.89006,N,11420.30603,E,1.639,263.30,220119,,,D*72
$GNVTG,263.30,T,,M,1.639,N,3.036,K,D*29
$GNGGA,062206.00,3030.89006,N,11420.30603,E,2,12,0.93,19.1,M,-10.8,M,,0000*52
$GNGSA,A,3,14,22,26,31,32,03,10,41,,,,,1.67,0.93,1.38*19
$GNGSA,A,3,68,79,78,77,67,69,,,,,,,1.67,0.93,1.38*1D
$GPGSV,4,1,14,03,13,319,35,10,24,177,34,12,00,036,,14,70,018,27*7C
$GPGSV,4,2,14,16,14,208,20,20,01,164,,22,27,303,38,25,31,042,17*7B
$GPGSV,4,3,14,26,42,209,41,29,21,094,15,31,58,318,42,32,67,083,37*7A
$GPGSV,4,4,14,40,18,253,,41,41,230,36*71
$GLGSV,2,1,08,66,01,152,,67,51,155,30,68,68,324,21,69,17,331,14*65
$GLGSV,2,2,08,77,24,032,10,78,62,336,32,79,36,252,38,87,01,077,*6C
$GNGLL,3030.89006,N,11420.30603,E,062206.00,A,D*75
$GNRMC,062207.00,A,3030.89017,N,11420.30548,E,1.630,272.00,220119,,,D*75
$GNVTG,272.00,T,,M,1.630,N,3.019,K,D*2E
$GNGGA,062207.00,3030.89017,N,11420.30548,E,2,12,0.74,18.9,M,-10.8,M,,0000*5F
$GNGSA,A,3,14,22,26,31,32,03,10,41,,,,,1.32,0.74,1.09*12
$GNGSA,A,3,68,79,78,77,67,69,,,,,,,1.32,0.74,1.09*16
$GPGSV,4,1,14,03,13,319,37,10,24,177,37,12,00,036,,14,70,018,31*7A
$GPGSV,4,2,14,16,14,208,24,20,01,164,,22,27,303,38,25,31,042,15*7D
$GPGSV,4,3,14,26,42,209,39,29,21,094,16,31,58,318,42,32,67,083,33*72
$GPGSV,4,4,14,40,18,253,,41,41,230,38*7F
$GLGSV,2,1,08,66,01,152,,67,51,155,34,68,68,324,27,69,17,331,15*66
$GLGSV,2,2,08,77,24,032,07,78,62,336,33,79,36,252,38,87,01,077,*6B
$GNGLL,3030.89017,N,11420.30548,E,062207.00,A,D*78
$GNRMC,062208.00,A,3030.89022,N,11420.30481,E,2.062,273.47,220119,,,D*78
$GNVTG,273.47,T,,M,2.062,N,3.819,K,D*26
$GNGGA,062208.00,3030.89022,N,11420.30481,E,2,12,0.74,19.0,M,-10.8,M,,0000*5A
$GNGSA,A,3,14,22,26,31,32,03,10,41,29,,,,1.32,0.74,1.09*19
$GNGSA,A,3,68,79,78,77,67,69,,,,,,,1.32,0.74,1.09*16
$GPGSV,4,1,14,03,13,319,37,10,24,177,33,12,00,036,,14,70,018,28*76
$GPGSV,4,2,14,16,14,208,24,20,01,164,,22,27,303,35,25,31,042,15*70
$GPGSV,4,3,14,26,42,209,39,29,21,094,16,31,58,318,43,32,67,083,33*73
$GPGSV,4,4,14,40,18,253,,41,41,230,40*70
$GLGSV,2,1,08,66,01,152,,67,51,155,33,68,68,324,22,69,17,331,15*64
$GLGSV,2,2,08,77,24,032,11,78,62,336,32,79,36,252,39,87,01,077,*6C
$GNGLL,3030.89022,N,11420.30481,E,062208.00,A,D*75
$GNRMC,062209.00,A,3030.89029,N,11420.30408,E,2.161,275.87,220119,,,D*7B
$GNVTG,275.87,T,,M,2.161,N,4.002,K,D*2B
$GNGGA,062209.00,3030.89029,N,11420.30408,E,2,12,0.88,18.9,M,-10.8,M,,0000*5A
$GNGSA,A,3,14,22,26,31,32,03,10,41,29,,,,1.50,0.88,1.22*17
$GNGSA,A,3,68,79,78,77,67,69,,,,,,,1.50,0.88,1.22*18
$GPGSV,4,1,14,03,13,319,34,10,24,177,33,12,00,036,,14,70,018,30*7C
$GPGSV,4,2,14,16,14,208,30,20,01,164,,22,27,303,31,25,31,042,15*71
$GPGSV,4,3,14,26,42,209,38,29,21,094,16,31,58,318,43,32,67,083,33*72
$GPGSV,4,4,14,40,18,253,,41,41,230,38*7F
$GLGSV,2,1,08,66,01,152,,67,51,155,28,68,68,324,23,69,17,331,08*63
$GLGSV,2,2,08,77,24,032,12,78,62,336,31,79,36,252,37,87,01,077,*62
$GNGLL,3030.89029,N,11420.30408,E,062209.00,A,D*7E
$GNRMC,062210.00,A,3030.89038,N,11420.30340,E,1.980,277.17,220119,,,D*77
$GNVTG,277.17,T,,M,1.980,N,3.666,K,D*27
$GNGGA,062210.00,3030.89038,N,11420.30340,E,2,12,0.74,19.0,M,-10.8,M,,0000*52
$GNGSA,A,3,14,22,26,31,32,03,10,25,41,29,,,1.32,0.74,1.09*1E
$GNGSA,A,3,68,79,78,77,67,69,,,,,,,1.32,0.74,1.09*16
$GPGSV,4,1,14,03,13,319,29,10,24,177,36,12,00,036,,14,70,018,29*7D
$GPGSV,4,2,14,16,14,208,31,20,01,164,,22,27,303,30,25,31,042,14*70
$GPGSV,4,3,14,26,42,209,37,29,21,094,18,31,58,318,39,32,67,083,33*7E
$GPGSV,4,4,14,40,18,253,,41,41,230,32*75
$GLGSV,2,1,08,66,01,152,,67,51,155,32,68,68,324,24,69,17,331,08*6F
$GLGSV,2,2,08,77,24,032,09,78,62,336,30,79,36,252,37,87,01,077,*69
$GNGLL,3030.89038,N,11420.30340,E,062210.00,A,D*7D
$GNRMC,062211.00,A,3030.89052,N,11420.30276,E,1.922,283.58,220119,,,D*76
$GNVTG,283.58,T,,M,1.922,N,3.559,K,D*20
$GNGGA,062211.00,3030.89052,N,11420.30276,E,2,12,0.74,19.2,M,-10.8,M,,0000*59
$GNGSA,A,3,14,22,26,31,32,03,10,25,41,29,,,1.32,0.74,1.09*1E
$GNGSA,A,3,68,79,78,77,67,69,,,,,,,1.32,0.74,1.09*16
$GPGSV,4,1,14,03,13,319,36,10,24,177,35,12,00,036,,14,70,018,29*70
$GPGSV,4,2,14,16,14,208,23,20,01,164,,22,27,303,29,25,31,042,14*7B
$GPGSV,4,3,14,26,42,209,43,29,21,094,22,31,58,318,41,32,67,083,33*7B
$GPGSV,4,4,14,40,18,253,,41,41,230,38*7F
$GLGSV,2,1,08,66,01,152,,67,51,155,32,68,68,324,25,69,17,331,13*64
$GLGSV,2,2,08,77,24,032,10,78,62,336,30,79,36,252,36,87,01,077,*60
$GNGLL,3030.89052,N,11420.30276,E,062211.00,A,D*74
$GNRMC,062212.00,A,3030.89066,N,11420.30213,E,1.791,283.89,220119,,,D*7B
$GNVTG,283.89,T,,M,1.791,N,3.318,K,D*29
$GNGGA,062212.00,3030.89066,N,11420.30213,E,2,12,0.76,19.1,M,-10.8,M,,0000*5F
$GNGSA,A,3,14,22,26,31,32,03,10,25,41,29,,,1.37,0.76,1.14*15
$GNGSA,A,3,68,79,78,77,67,69,,,,,,,1.37,0.76,1.14*1D
$GPGSV,4,1,14,03,13,319,38,10,24,177,35,12,00,036,,14,70,018,28*7F
$GPGSV,4,2,14,16,14,208,25,20,01,164,,22,27,303,29,25,31,042,14*7D
$GPGSV,4,3,14,26,42,209,41,29,21,094,24,31,58,318,42,32,67,083,35*7A
$GPGSV,4,4,14,40,18,253,,41,41,230,37*70
$GLGSV,2,1,08,66,01,152,,67,51,155,35,68,68,324,26,69,17,331,11*62
$GLGSV,2,2,08,77,24,032,12,78,62,336,30,79,36,252,40,87,01,077,*63
$GNGLL,3030.89066,N,11420.30213,E,062212.00,A,D*73
$GNRMC,062213.00,A,3030.89072,N,11420.30158,E,1.522,281.26,220119,,,D*7E
$GNVTG,281.26,T,,M,1.522,N,2.818,K,D*2E
$GNGGA,062213.00,3030.89072,N,11420.30158,E,2,12,0.67,19.2,M,-10.8,M,,0000*54
$GNGSA,A,3,14,22,26,31,32,03,10,25,41,29,,,1.21,0.67,1.01*16
$GNGSA,A,3,68,79,78,77,67,69,,,,,,,1.21,0.67,1.01*1E
$GPGSV,4,1,14,03,13,319,38,10,24,177,35,12,00,036,,14,70,018,33*75
$GPGSV,4,2,14,16,14,208,27,20,01,164,,22,27,303,27,25,31,042,14*71
$GPGSV,4,3,14,26,42,209,41,29,21,094,30,31,58,318,41,32,67,083,34*7D
$GPGSV,4,4,14,40,18,253,,41,41,230,41*71
$GLGSV,2,1,08,66,01,152,,67,51,155,31,68,68,324,27,69,17,331,11*67
$GLGSV,2,2,08,77,24,032,08,78,62,336,31,79,36,252,37,87,01,077,*69
$GNGLL,3030.89072,N,11420.30158,E,062213.00,A,D*7B
$GNRMC,062214.00,A,3030.89076,N,11420.30099,E,1.802,277.89,220119,,,D*72
$GNVTG,277.89,T,,M,1.802,N,3.338,K,D*25
$GNGGA,062214.00,3030.89076,N,11420.30099,E,2,12,0.67,19.3,M,-10.8,M,,0000*5A
$GNGSA,A,3,14,22,26,31,32,03,10,25,41,29,,,1.21,0.67,1.01*16
$GNGSA,A,3,68,79,78,77,67,69,,,,,,,1.21,0.67,1.01*1E
$GPGSV,4,1,14,03,13,319,37,10,24,177,37,12,00,036,,14,70,018,27*7D
$GPGSV,4,2,14,16,14,208,32,20,01,164,,22,27,303,24,25,31,042,14*76
$GPGSV,4,3,14,26,42,209,39,29,21,094,28,31,58,318,43,32,67,083,30*7D
$GPGSV,4,4,14,40,18,253,,41,41,230,39*7E
$GLGSV,2,1,08,66,01,152,,67,51,155,29,68,68,324,25,69,17,331,16*6B
$GLGSV,2,2,08,77,24,032,09,78,62,336,30,79,36,252,38,87,01,077,*66
$GNGLL,3030.89076,N,11420.30099,E,062214.00,A,D*74
$GNRMC,062215.00,A,3030.89086,N,11420.30035,E,2.012,280.74,220119,,,D*7A
$GNVTG,280.74,T,,M,2.012,N,3.727,K,D*2F
$GNGGA,062215.00,3030.89086,N,11420.30035,E,2,12,0.74,19.2,M,-10.8,M,,0000*51
$GNGSA,A,3,14,22,26,31,32,03,10,25,41,29,,,1.29,0.74,1.05*18
$GNGSA,A,3,68,79,78,67,69,,,,,,,,1.29,0.74,1.05*10
$GPGSV,4,1,14,03,13,319,33,10,24,177,38,12,00,036,,14,70,018,27*76
$GPGSV,4,2,14,16,14,208,33,20,01,164,,22,27,303,23,25,31,042,14*70
$GPGSV,4,3,14,26,42,209,43,29,21,094,27,31,58,318,42,32,67,083,34*7A
$GPGSV,4,4,14,40,18,253,,41,41,230,36*71
$GLGSV,2,1,08,66,01,152,,67,51,155,32,68,68,324,24,69,17,331,13*65
$GLGSV,2,2,08,77,24,032,06,78,62,336,30,79,36,252,38,87,01,077,*69
$GNGLL,3030.89086,N,11420.30035,E,062215.00,A,D*7C
$GNRMC,062216.00,A,3030.89101,N,11420.29964,E,2.236,281.72,220119,,,D*71
$GNVTG,281.72,T,,M,2.236,N,4.142,K,D*2E
$GNGGA,062216.00,3030.89101,N,11420.29964,E,2,12,0.68,19.4,M,-10.8,M,,0000*52
$GNGSA,A,3,14,22,26,31,32,03,10,25,41,29,,,1.22,0.68,1.01*1A
$GNGSA,A,3,68,79,78,77,67,69,,,,,,,1.22,0.68,1.01*12
$GPGSV,4,1,14,03,13,319,30,10,24,177,37,12,00,036,,14,70,018,29*74
$GPGSV,4,2,14,16,14,208,33,20,01,164,,22,27,303,21,25,31,042,13*75
$GPGSV,4,3,14,26,42,209,42,29,21,094,24,31,58,318,44,32,67,083,33*79
$GPGSV,4,4,14,40,18,253,,41,41,230,38*7F
$GLGSV,2,1,08,66,01,152,,67,51,155,32,68,68,324,24,69,17,331,10*66
$GLGSV,2,2,08,77,24,032,10,78,62,336,30,79,36,252,37,87,01,077,*61
$GNGLL,3030.89101,N,11420.29964,E,062216.00,A,D*74
$GNRMC,062217.00,A,3030.89115,N,11420.29890,E,2.200,282.37,220119,,,D*78
$GNVTG,282.37,T,,M,2.200,N,4.074,K,D*2D
$GNGGA,062217.00,3030.89115,N,11420.29890,E,2,12,0.67,19.6,M,-10.8,M,,0000*51
$GNGSA,A,3,14,22,26,31,32,03,10,25,41,29,,,1.21,0.67,1.01*16
$GNGSA,A,3,68,79,78,77,67,69,,,,,,,1.21,0.67,1.01*1E
$GPGSV,4,1,14,03,13,319,33,10,24,177,35,12,00,036,,14,70,018,29*75
$GPGSV,4,2,14,16,14,208,28,20,01,164,,22,27,303,21,25,31,042,11*7D
$GPGSV,4,3,14,26,42,209,42,29,21,094,25,31,58,318,42,32,67,083,34*79
$GPGSV,4,4,14,40,18,253,,41,41,230,37*70
$GLGSV,2,1,08,66,00,152,,67,51,155,32,68,68,324,26,69,17,331,10*65
$GLGSV,2,2,08,77,24,032,10,78,62,336,33,79,36,252,37,87,01,077,*62
$GNGLL,3030.89115,N,11420.29890,E,062217.00,A,D*7A
$GNRMC,062218.00,A,3030.89130,N,11420.29820,E,2.120,282.47,220119,,,D*7D
$GNVTG,282.47,T,,M,2.120,N,3.926,K,D*22
$GNGGA,062218.00,3030.89130,N,11420.29820,E,2,12,0.73,19.6,M,-10.8,M,,0000*57
$GNGSA,A,3,14,22,26,31,32,03,10,41,29,,,,1.28,0.73,1.05*19
$GNGSA,A,3,68,79,78,77,67,69,,,,,,,1.28,0.73,1.05*16
$GPGSV,4,1,14,03,13,319,32,10,24,177,40,12,00,036,,14,70,018,29*76
$GPGSV,4,2,14,16,14,208,38,20,01,164,,22,27,303,21,25,31,042,*7C
$GPGSV,4,3,14,26,42,209,43,29,21,094,30,31,58,318,43,32,67,083,34*7D
$GPGSV,4,4,14,40,18,253,,41,41,230,38*7F
$GLGSV,2,1,08,66,00,152,,67,51,156,32,68,68,324,26,69,17,331,19*6F
$GLGSV,2,2,08,77,24,032,13,78,62,336,32,79,36,252,38,87,01,077,*6F
$GNGLL,3030.89130,N,11420.29820,E,062218.00,A,D*79
$GNRMC,062219.00,A,3030.89138,N,11420.29755,E,2.045,280.62,220119,,,D*7E
$GNVTG,280.62,T,,M,2.045,N,3.788,K,D*2F
$GNGGA,062219.00,3030.89138,N,11420.29755,E,2,12,0.67,19.6,M,-10.8,M,,0000*56
$GNGSA,A,3,14,22,26,31,32,03,10,41,29,,,,1.21,0.67,1.01*11
$GNGSA,A,3,68,79,78,77,67,69,,,,,,,1.21,0.67,1.01*1E
$GPGSV,4,1,14,03,13,319,28,10,24,177,36,12,00,036,,14,70,018,30*74
$GPGSV,4,2,14,16,14,208,32,20,01,164,,22,27,303,23,25,31,042,*74
$GPGSV,4,3,14,26,42,209,40,29,21,094,23,31,58,318,40,32,67,083,33*78
$GPGSV,4,4,14,40,18,253,,41,41,230,36*71
$GLGSV,2,1,08,66,00,152,,67,51,156,31,68,69,323,22,69,17,331,17*60
$GLGSV,2,2,08,77,24,032,09,78,62,336,27,79,36,252,38,87,01,077,*60
$GNGLL,3030.89138,N,11420.29755,E,062219.00,A,D*7D
$GNRMC,062220.00,A,3030.89145,N,11420.29693,E,1.918,277.48,220119,,,D*77
$GNVTG,277.48,T,,M,1.918,N,3.552,K,D*28
$GNGGA,062220.00,3030.89145,N,11420.29693,E,2,12,0.67,19.6,M,-10.8,M,,0000*5D
$GNGSA,A,3,14,22,26,31,32,03,10,41,29,,,,1.21,0.67,1.01*11
$GNGSA,A,3,68,79,78,77,67,69,,,,,,,1.21,0.67,1.01*1E
$GPGSV,4,1,14,03,13,319,28,10,24,177,34,12,00,036,,14,70,018,31*77
$GPGSV,4,2,14,16,14,208,34,20,01,164,,22,27,303,25,25,31,042,*74
$GPGSV,4,3,14,26,42,209,41,29,21,094,23,31,58,318,43,32,67,083,34*7D
$GPGSV,4,4,14,40,18,253,,41,41,230,37*70
$GLGSV,2,1,08,66,00,152,,67,51,156,31,68,69,323,19,69,17,331,19*66
$GLGSV,2,2,08,77,24,032,10,78,62,336,26,79,36,252,39,87,01,077,*68
$GNGLL,3030.89145,N,11420.29693,E,062220.00,A,D*76
$GNRMC,062221.00,A,3030.89149,N,11420.29644,E,1.376,276.36,220119,,,D*7A
$GNVTG,276.36,T,,M,1.376,N,2.549,K,D*29
$GNGGA,062221.00,3030.89149,N,11420.29644,E,2,12,0.73,19.5,M,-10.8,M,,0000*5C
$GNGSA,A,3,14,22,26,31,32,03,10,41,29,,,,1.28,0.73,1.05*19
$GNGSA,A,3,68,79,78,77,67,69,,,,,,,1.28,0.73,1.05*16
$GPGSV,4,1,14,03,13,319,26,10,24,177,36,12,00,036,,14,70,018,31*7B
$GPGSV,4,2,14,16,14,208,30,20,01,164,,22,27,303,25,25,31,042,15*74
$GPGSV,4,3,14,26,42,209,41,29,21,094,24,31,58,318,37,32,67,083,32*7F
$GPGSV,4,4,14,40,18,253,,41,41,230,37*70
$GLGSV,2,1,08,66,00,152,,67,51,156,33,68,69,323,16,69,17,331,22*63
$GLGSV,2,2,08,77,24,032,11,78,62,336,28,79,36,252,37,87,01,077,*69
$GNGLL,3030.89149,N,11420.29644,E,062221.00,A,D*71
$GNRMC,062222.00,A,3030.89154,N,11420.29639,E,0.204,,220119,,,D*62
$GNVTG,,T,,M,0.204,N,0.377,K,D*3D
$GNGGA,062222.00,3030.89154,N,11420.29639,E,2,12,0.68,19.4,M,-10.8,M,,0000*52
$GNGSA,A,3,14,22,26,31,32,03,10,41,29,,,,1.22,0.68,1.01*1D
$GNGSA,A,3,68,79,78,77,67,69,,,,,,,1.22,0.68,1.01*12
$GPGSV,4,1,14,03,13,319,25,10,24,177,28,12,00,036,,14,70,018,31*77
$GPGSV,4,2,14,16,14,208,21,20,01,164,,22,27,303,22,25,31,042,*77
$GPGSV,4,3,14,26,42,209,29,29,21,094,39,31,58,318,36,32,67,083,34*7A
$GPGSV,4,4,14,40,18,253,,41,41,230,33*74
$GLGSV,2,1,08,66,00,152,,67,51,156,20,68,69,323,22,69,17,331,34*61
$GLGSV,2,2,08,77,24,032,11,78,62,336,34,79,36,252,39,87,01,077,*6A
$GNGLL,3030.89154,N,11420.29639,E,062222.00,A,D*74
$GNRMC,062223.00,A,3030.89157,N,11420.29658,E,0.489,,220119,,,D*64
$GNVTG,,T,,M,0.489,N,0.905,K,D*31
$GNGGA,062223.00,3030.89157,N,11420.29658,E,2,12,0.67,19.1,M,-10.8,M,,0000*5D
$GNGSA,A,3,14,22,26,31,32,03,10,41,29,,,,1.21,0.67,1.01*11
$GNGSA,A,3,68,79,78,77,67,69,,,,,,,1.21,0.67,1.01*1E
$GPGSV,4,1,15,03,13,319,24,10,24,177,38,12,00,036,,14,70,018,36*71
$GPGSV,4,2,15,16,14,208,29,20,01,164,,22,27,303,20,25,31,042,*7C
$GPGSV,4,3,15,26,42,209,36,29,21,094,37,31,58,318,21,32,67,083,39*70
$GPGSV,4,4,15,40,18,253,,41,41,230,33,42,45,137,33*47
$GLGSV,2,1,08,66,00,152,,67,51,156,36,68,69,323,22,69,17,331,37*65
$GLGSV,2,2,08,77,24,032,11,78,62,336,32,79,36,252,24,87,01,077,*60
$GNGLL,3030.89157,N,11420.29658,E,062223.00,A,D*71
$GNRMC,062224.00,A,3030.89153,N,11420.29699,E,1.558,166.79,220119,,,D*77
$GNVTG,166.79,T,,M,1.558,N,2.886,K,D*24
$GNGGA,062224.00,3030.89153,N,11420.29699,E,2,12,0.73,19.0,M,-10.8,M,,0000*57
$GNGSA,A,3,14,22,26,31,32,03,10,41,29,,,,1.28,0.73,1.05*19
$GNGSA,A,3,68,79,78,77,67,69,,,,,,,1.28,0.73,1.05*16
$GPGSV,4,1,15,03,13,319,22,10,24,177,37,12,00,036,,14,70,018,36*78
$GPGSV,4,2,15,16,14,208,28,20,01,164,,22,27,303,16,25,31,042,*78
$GPGSV,4,3,15,26,42,209,36,29,21,094,37,31,58,318,23,32,67,083,39*72
$GPGSV,4,4,15,40,18,253,,41,41,230,33,42,45,137,33*47
$GLGSV,2,1,08,66,00,152,,67,51,156,33,68,69,323,24,69,17,331,37*66
$GLGSV,2,2,08,77,24,032,11,78,62,336,30,79,36,252,26,87,01,077,*60
$GNGLL,3030.89153,N,11420.29699,E,062224.00,A,D*7F
$GNRMC,062225.00,A,3030.89150,N,11420.29759,E,1.798,123.58,220119,,,D*74
$GNVTG,123.58,T,,M,1.798,N,3.330,K,D*2F
$GNGGA,062225.00,3030.89150,N,11420.29759,E,2,12,0.67,18.8,M,-10.8,M,,0000*54
$GNGSA,A,3,14,22,26,31,32,03,10,41,29,,,,1.21,0.67,1.01*11
$GNGSA,A,3,68,79,78,77,67,69,,,,,,,1.21,0.67,1.01*1E
$GPGSV,4,1,15,03,13,319,23,10,24,177,37,12,00,036,,14,70,018,36*79
$GPGSV,4,2,15,16,14,208,30,20,01,164,,22,27,303,13,25,31,042,25*73
$GPGSV,4,3,15,26,42,209,38,29,21,094,34,31,58,318,23,32,67,083,39*7F
$GPGSV,4,4,15,40,18,253,,41,41,230,33,42,45,137,33*47
$GLGSV,2,1,08,66,00,152,,67,51,156,36,68,69,323,26,69,17,331,32*64
$GLGSV,2,2,08,77,24,032,10,78,62,336,30,79,36,252,26,87,01,077,*61
$GNGLL,3030.89150,N,11420.29759,E,062225.00,A,D*70
$GNRMC,062226.00,A,3030.89140,N,11420.29814,E,1.669,111.75,220119,,,D*71
$GNVTG,111.75,T,,M,1.669,N,3.091,K,D*26
$GNGGA,062226.00,3030.89140,N,11420.29814,E,2,12,0.67,18.5,M,-10.8,M,,0000*5D
$GNGSA,A,3,14,22,26,31,32,03,10,41,29,,,,1.21,0.67,1.01*11
$GNGSA,A,3,68,79,78,77,67,69,,,,,,,1.21,0.67,1.01*1E
$GPGSV,4,1,15,03,13,319,23,10,24,177,42,12,00,036,,14,70,018,38*75
$GPGSV,4,2,15,16,14,208,29,20,01,164,,22,27,303,12,25,31,042,21*7E
$GPGSV,4,3,15,26,42,209,37,29,21,094,35,31,58,318,22,32,67,083,43*7D
$GPGSV,4,4,15,40,18,253,,41,41,230,35,42,45,137,33*41
$GLGSV,2,1,08,66,00,152,,67,51,156,36,68,69,323,27,69,17,331,32*65
$GLGSV,2,2,08,77,24,032,09,78,62,336,30,79,36,252,26,87,01,077,*69
$GNGLL,3030.89140,N,11420.29814,E,062226.00,A,D*74
$GNRMC,062227.00,A,3030.89131,N,11420.29880,E,1.983,106.34,220119,,,D*73
$GNVTG,106.34,T,,M,1.983,N,3.672,K,D*25
$GNGGA,062227.00,3030.89131,N,11420.29880,E,2,12,0.73,18.3,M,-10.8,M,,0000*54
$GNGSA,A,3,14,22,26,31,32,03,10,41,29,,,,1.28,0.73,1.05*19
$GNGSA,A,3,68,79,78,77,67,69,,,,,,,1.28,0.73,1.05*16
$GPGSV,4,1,15,03,13,319,26,10,24,177,39,12,00,036,,14,70,018,39*7D
$GPGSV,4,2,15,16,14,208,26,20,01,164,,22,27,303,12,25,31,042,20*70
$GPGSV,4,3,15,26,42,209,41,29,21,094,39,31,58,318,26,32,67,083,42*75
$GPGSV,4,4,15,40,18,253,,41,41,230,28,42,45,137,34*4A
$GLGSV,2,1,08,66,00,152,,67,51,156,36,68,69,323,28,69,17,331,31*69
$GLGSV,2,2,08,77,24,032,13,78,62,336,30,79,36,252,27,87,01,077,*63
$GNGLL,3030.89131,N,11420.29880,E,062227.00,A,D*7E
$GNRMC,062228.00,A,3030.89119,N,11420.29943,E,1.968,104.53,220119,,,D*7E
$GNVTG,104.53,T,,M,1.968,N,3.645,K,D*27
$GNGGA,062228.00,3030.89119,N,11420.29943,E,2,12,0.67,18.2,M,-10.8,M,,0000*5B
$GNGSA,A,3,14,22,26,31,32,03,10,41,29,,,,1.21,0.67,1.01*11
$GNGSA,A,3,68,79,78,77,67,69,,,,,,,1.21,0.67,1.01*1E
$GPGSV,4,1,15,03,13,319,27,10,24,177,39,12,00,036,,14,70,018,37*72
$GPGSV,4,2,15,16,14,208,27,20,01,164,,22,27,303,12,25,31,042,16*74
$GPGSV,4,3,15,26,42,209,33,29,21,094,38,31,58,318,25,32,67,083,38*7F
$GPGSV,4,4,15,40,18,253,,41,41,230,33,42,45,137,34*40
$GLGSV,2,1,08,66,00,152,,67,51,156,38,68,69,323,29,69,17,331,25*63
$GLGSV,2,2,08,77,24,032,10,78,62,336,30,79,36,252,28,87,01,077,*6F
$GNGLL,3030.89119,N,11420.29943,E,062228.00,A,D*75
$GNRMC,062229.00,A,3030.89110,N,11420.29997,E,1.638,101.34,220119,,,D*71
$GNVTG,101.34,T,,M,1.638,N,3.033,K,D*2E
$GNGGA,062229.00,3030.89110,N,11420.29997,E,2,12,0.67,18.1,M,-10.8,M,,0000*59
$GNGSA,A,3,14,22,26,31,32,03,10,25,41,29,,,1.21,0.67,1.01*16
$GNGSA,A,3,68,79,78,77,67,69,,,,,,,1.21,0.67,1.01*1E
$GPGSV,4,1,15,03,13,319,28,10,24,177,35,12,00,036,,14,70,018,37*71
$GPGSV,4,2,15,16,14,208,25,20,01,164,,22,27,303,12,25,31,042,15*75
$GPGSV,4,3,15,26,42,209,38,29,21,094,38,31,58,318,24,32,67,083,38*75
$GPGSV,4,4,15,40,18,253,,41,41,230,33,42,45,137,34*40
$GLGSV,2,1,08,66,00,152,,67,51,156,36,68,69,323,29,69,17,331,23*6B
$GLGSV,2,2,08,77,24,032,09,78,62,337,29,79,36,252,27,87,01,077,*61
$GNGLL,3030.89110,N,11420.29997,E,062229.00,A,D*74
$GNRMC,062230.00,A,3030.89106,N,11420.30048,E,1.556,96.52,220119,,,D*49
$GNVTG,96.52,T,,M,1.556,N,2.882,K,D*19
$GNGGA,062230.00,3030.89106,N,11420.30048,E,2,12,0.73,18.0,M,-10.8,M,,0000*51
$GNGSA,A,3,14,22,26,31,32,03,10,25,41,29,,,1.28,0.73,1.05*1E
$GNGSA,A,3,68,79,78,77,67,69,,,,,,,1.28,0.73,1.05*16
$GPGSV,4,1,15,03,13,319,29,10,24,177,43,12,00,036,,14,70,018,38*7E
$GPGSV,4,2,15,16,14,208,25,20,01,164,,22,27,303,12,25,31,042,13*73
$GPGSV,4,3,15,26,42,209,42,29,21,094,40,31,58,318,23,32,67,083,41*7E
$GPGSV,4,4,15,40,18,253,,41,41,230,36,42,45,137,36*47
$GLGSV,2,1,08,66,00,152,,67,51,156,37,68,69,323,29,69,17,331,23*6A
$GLGSV,2,2,08,77,24,032,09,78,62,337,29,79,36,253,26,87,01,077,*61
$GNGLL,3030.89106,N,11420.30048,E,062230.00,A,D*78
$GNRMC,062231.00,A,3030.89102,N,11420.30087,E,1.100,97.34,220119,,,D*49
$GNVTG,97.34,T,,M,1.100,N,2.037,K,D*19
$GNGGA,062231.00,3030.89102,N,11420.30087,E,2,12,0.67,17.8,M,-10.8,M,,0000*55
$GNGSA,A,3,14,22,26,31,32,03,10,25,41,29,,,1.21,0.67,1.01*16
$GNGSA,A,3,68,79,78,77,67,69,,,,,,,1.21,0.67,1.01*1E
$GPGSV,4,1,15,03,13,319,34,10,24,177,38,12,00,036,,14,70,018,36*70
$GPGSV,4,2,15,16,14,208,26,20,01,164,,22,27,303,14,25,31,042,13*76
$GPGSV,4,3,15,26,42,209,38,29,21,094,38,31,58,318,22,32,67,083,39*72
$GPGSV,4,4,15,40,18,253,,41,41,230,29,42,45,137,33*4C
$GLGSV,2,1,08,66,00,152,,67,51,156,37,68,69,323,29,69,17,331,22*6B
$GLGSV,2,2,08,77,24,032,09,78,62,337,29,79,36,253,27,87,01,077,*60
$GNGLL,3030.89102,N,11420.30087,E,062231.00,A,D*7E
$GNRMC,062232.00,A,3030.89105,N,11420.30115,E,0.640,95.25,220119,,,D*47
$GNVTG,95.25,T,,M,0.640,N,1.185,K,D*12
$GNGGA,062232.00,3030.89105,N,11420.30115,E,2,12,0.67,17.6,M,-10.8,M,,0000*55
$GNGSA,A,3,14,22,26,31,32,03,10,25,41,29,,,1.21,0.67,1.01*16
$GNGSA,A,3,68,79,78,77,67,69,,,,,,,1.21,0.67,1.01*1E
$GPGSV,4,1,15,03,13,319,34,10,24,177,41,12,00,036,,14,70,018,37*7F
$GPGSV,4,2,15,16,14,208,25,20,01,164,,22,27,303,14,25,31,042,14*72
$GPGSV,4,3,15,26,42,209,39,29,21,094,38,31,58,318,24,32,67,083,39*75
$GPGSV,4,4,15,40,18,253,,41,41,230,33,42,45,137,34*40
$GLGSV,2,1,08,66,00,152,,67,51,156,35,68,69,323,29,69,17,331,22*69
$GLGSV,2,2,08,77,24,032,10,78,62,337,29,79,36,253,27,87,01,077,*68
$GNGLL,3030.89105,N,11420.30115,E,062232.00,A,D*70
$GNRMC,062233.00,A,3030.89112,N,11420.30137,E,0.183,,220119,,,D*6D
$GNVTG,,T,,M,0.183,N,0.340,K,D*35
$GNGGA,062233.00,3030.89112,N,11420.30137,E,2,12,0.73,17.4,M,-10.8,M,,0000*55
$GNGSA,A,3,14,22,26,31,32,03,10,25,41,29,,,1.28,0.73,1.05*1E
$GNGSA,A,3,68,79,78,77,67,69,,,,,,,1.28,0.73,1.05*16
$GPGSV,4,1,15,03,13,319,37,10,24,177,41,12,00,036,,14,70,018,37*7C
$GPGSV,4,2,15,16,14,208,32,20,01,164,,22,27,303,18,25,31,042,15*79
$GPGSV,4,3,15,26,42,209,42,29,21,094,36,31,58,318,32,32,67,083,39*70
$GPGSV,4,4,15,40,18,253,,41,41,230,33,42,45,137,36*42
$GLGSV,2,1,08,66,00,152,,67,51,156,35,68,69,323,30,69,17,331,23*60
$GLGSV,2,2,08,77,24,032,11,78,62,337,29,79,36,253,27,87,01,077,*69
$GNGLL,3030.89112,N,11420.30137,E,062233.00,A,D*77
$GNRMC,062234.00,A,3030.89104,N,11420.30127,E,0.469,,220119,,,D*6D
$GNVTG,,T,,M,0.469,N,0.869,K,D*34
$GNGGA,062234.00,3030.89104,N,11420.30127,E,2,12,0.67,17.3,M,-10.8,M,,0000*56
$GNGSA,A,3,14,22,26,31,32,03,10,25,41,29,,,1.21,0.67,1.01*16
$GNGSA,A,3,68,79,78,77,67,69,,,,,,,1.21,0.67,1.01*1E
$GPGSV,4,1,15,03,13,319,25,10,24,177,31,12,00,036,,14,70,018,34*7B
$GPGSV,4,2,15,16,14,208,25,20,01,164,,22,27,303,17,25,31,042,15*70
$GPGSV,4,3,15,26,42,209,42,29,21,094,42,31,58,318,32,32,67,083,40*7D
$GPGSV,4,4,15,40,18,253,,41,41,230,42,42,45,137,33*41
$GLGSV,2,1,08,66,00,152,,67,51,156,39,68,69,323,30,69,17,331,21*6E
$GLGSV,2,2,08,77,24,032,14,78,62,337,28,79,36,253,37,87,01,077,*6C
$GNGLL,3030.89104,N,11420.30127,E,062234.00,A,D*76
$GNRMC,062235.00,A,3030.89087,N,11420.30125,E,0.656,137.29,220119,,,D*7A
$GNVTG,137.29,T,,M,0.656,N,1.215,K,D*2A
$GNGGA,062235.00,3030.89087,N,11420.30125,E,2,12,0.67,17.3,M,-10.8,M,,0000*5F
$GNGSA,A,3,14,22,26,31,32,03,10,25,41,29,,,1.21,0.67,1.01*16
$GNGSA,A,3,68,79,78,77,67,69,,,,,,,1.21,0.67,1.01*1E
$GPGSV,4,1,15,03,13,319,31,10,24,177,40,12,00,036,,14,70,018,30*7C
$GPGSV,4,2,15,16,14,208,22,20,01,164,,22,27,303,19,25,31,042,16*7A
$GPGSV,4,3,15,26,42,209,41,29,21,094,38,31,58,318,33,32,67,083,38*7D
$GPGSV,4,4,15,40,18,253,,41,41,230,40,42,45,137,34*44
$GLGSV,2,1,08,66,00,152,,67,51,156,36,68,69,323,31,69,17,331,19*6B
$GLGSV,2,2,08,77,24,032,11,78,62,337,28,79,36,253,36,87,01,077,*68
$GNGLL,3030.89087,N,11420.30125,E,062235.00,A,D*7F
$GNRMC,062236.00,A,3030.89050,N,11420.30120,E,1.516,180.96,220119,,,D*78
$GNVTG,180.96,T,,M,1.516,N,2.809,K,D*20
$GNGGA,062236.00,3030.89050,N,11420.30120,E,2,12,0.67,17.3,M,-10.8,M,,0000*53
$GNGSA,A,3,14,22,26,31,32,03,10,25,41,29,,,1.21,0.67,1.01*16
$GNGSA,A,3,68,79,78,77,67,69,,,,,,,1.21,0.67,1.01*1E
$GPGSV,4,1,15,03,13,319,24,10,24,177,34,12,00,036,,14,70,018,28*72
$GPGSV,4,2,15,16,14,208,18,20,01,164,,22,27,303,20,25,31,042,15*7A
$GPGSV,4,3,15,26,42,209,38,29,21,094,36,31,58,318,34,32,67,083,34*76
$GPGSV,4,4,15,40,18,253,,41,41,230,35,42,45,137,29*4A
$GLGSV,2,1,08,66,00,152,,67,51,156,38,68,69,323,31,69,17,331,17*6B
$GLGSV,2,2,08,77,24,032,10,78,62,337,30,79,36,253,37,87,01,077,*61
$GNGLL,3030.89050,N,11420.30120,E,062236.00,A,D*73
$GNRMC,062237.00,A,3030.89005,N,11420.30117,E,1.667,184.57,220119,,,D*71
$GNVTG,184.57,T,,M,1.667,N,3.087,K,D*23
$GNGGA,062237.00,3030.89005,N,11420.30117,E,2,12,0.67,17.3,M,-10.8,M,,0000*56
$GNGSA,A,3,14,22,26,31,32,03,10,25,41,29,,,1.21,0.67,1.01*16
$GNGSA,A,3,68,79,78,77,67,69,,,,,,,1.21,0.67,1.01*1E
$GPGSV,4,1,15,03,13,319,27,10,24,177,36,12,00,036,,14,70,018,29*72
$GPGSV,4,2,15,16,14,208,18,20,01,164,,22,27,303,19,25,31,042,14*71
$GPGSV,4,3,15,26,42,209,40,29,21,094,38,31,58,318,31,32,67,083,37*71
$GPGSV,4,4,15,40,18,253,,41,41,230,39,42,45,137,31*4F
$GLGSV,2,1,08,66,00,152,,67,51,156,38,68,69,323,30,69,17,331,16*6B
$GLGSV,2,2,08,77,24,032,11,78,62,337,31,79,36,253,35,87,01,077,*63
$GNGLL,3030.89005,N,11420.30117,E,062237.00,A,D*76
$GNRMC,062238.00,A,3030.88952,N,11420.30113,E,1.961,184.27,220119,,,D*7E
$GNVTG,184.27,T,,M,1.961,N,3.631,K,D*26
$GNGGA,062238.00,3030.88952,N,11420.30113,E,2,12,0.69,17.3,M,-10.8,M,,0000*59
$GNGSA,A,3,14,22,26,31,32,03,10,41,29,,,,1.23,0.69,1.02*1E
$GNGSA,A,3,68,79,78,77,67,69,,,,,,,1.23,0.69,1.02*11
$GPGSV,4,1,15,03,13,319,26,10,24,177,37,12,00,036,,14,70,018,30*7A
$GPGSV,4,2,15,16,14,208,16,20,01,164,,22,27,303,19,25,31,042,22*7A
$GPGSV,4,3,15,26,42,209,42,29,21,094,40,31,58,318,34,32,67,083,37*79
$GPGSV,4,4,15,40,18,253,,41,41,230,39,42,45,137,32*4C
$GLGSV,2,1,08,66,00,152,,67,51,156,38,68,69,323,30,69,17,331,16*6B
$GLGSV,2,2,08,77,24,032,09,78,62,337,31,79,36,253,37,87,01,076,*69
$GNGLL,3030.88952,N,11420.30113,E,062238.00,A,D*77
$GNRMC,062239.00,A,3030.88900,N,11420.30107,E,1.811,185.47,220119,,,D*7C
$GNVTG,185.47,T,,M,1.811,N,3.355,K,D*20
$GNGGA,062239.00,3030.88900,N,11420.30107,E,2,12,0.75,17.2,M,-10.8,M,,0000*56
$GNGSA,A,3,14,22,26,31,32,03,10,41,29,,,,1.30,0.75,1.07*14
$GNGSA,A,3,68,79,78,77,67,69,,,,,,,1.30,0.75,1.07*1B
$GPGSV,4,1,15,03,13,319,27,10,24,177,35,12,00,036,,14,70,018,30*79
$GPGSV,4,2,15,16,14,208,17,20,01,164,,22,27,303,20,25,31,042,19*79
$GPGSV,4,3,15,26,42,209,40,29,21,094,35,31,58,318,31,32,67,083,37*7C
$GPGSV,4,4,15,40,18,253,,41,41,230,36,42,45,137,32*43
$GLGSV,2,1,08,66,00,152,,67,51,156,39,68,69,323,30,69,17,331,16*6A
$GLGSV,2,2,08,77,24,032,09,78,62,337,32,79,36,253,37,87,01,076,*6A
$GNGLL,3030.88900,N,11420.30107,E,062239.00,A,D*74
$GNRMC,062240.00,A,3030.88848,N,11420.30095,E,1.813,190.09,220119,,,D*79
$GNVTG,190.09,T,,M,1.813,N,3.357,K,D*2E
$GNGGA,062240.00,3030.88848,N,11420.30095,E,2,12,0.67,17.3,M,-10.8,M,,0000*5D
$GNGSA,A,3,14,22,26,31,32,03,10,41,29,,,,1.21,0.67,1.01*11
$GNGSA,A,3,68,79,78,77,67,69,,,,,,,1.21,0.67,1.01*1E
$GPGSV,4,1,15,03,13,319,27,10,24,177,35,12,00,036,,14,70,018,31*78
$GPGSV,4,2,15,16,14,208,17,20,01,164,,22,27,303,21,25,31,042,18*79
$GPGSV,4,3,15,26,42,209,42,29,21,094,36,31,58,318,35,32,67,083,38*76
$GPGSV,4,4,15,40,18,253,,41,41,230,40,42,45,137,35*45
$GLGSV,2,1,08,66,00,152,,67,51,156,36,68,69,323,31,69,17,331,17*65
$GLGSV,2,2,08,77,24,032,09,78,62,337,32,79,36,253,38,87,01,076,*65
$GNGLL,3030.88848,N,11420.30095,E,062240.00,A,D*7D
$GNRMC,062241.00,A,3030.88795,N,11420.30080,E,1.890,191.72,220119,,,D*75
$GNVTG,191.72,T,,M,1.890,N,3.500,K,D*2C
$GNGGA,062241.00,3030.88795,N,11420.30080,E,2,12,0.67,17.1,M,-10.8,M,,0000*55
$GNGSA,A,3,14,22,26,31,32,03,10,41,29,,,,1.21,0.67,1.01*11
$GNGSA,A,3,68,79,78,77,67,69,,,,,,,1.21,0.67,1.01*1E
$GPGSV,4,1,15,03,13,319,27,10,24,177,39,12,00,036,,14,70,018,32*77
$GPGSV,4,2,15,16,14,208,18,20,01,164,,22,27,303,22,25,31,042,18*75
$GPGSV,4,3,15,26,42,209,43,29,21,094,38,31,58,318,36,32,67,083,37*75
$GPGSV,4,4,15,40,18,253,,41,41,230,40,42,45,137,37*47
$GLGSV,2,1,08,66,00,152,,67,51,156,38,68,69,323,31,69,17,331,19*65
$GLGSV,2,2,08,77,24,032,10,78,62,337,34,79,36,253,37,87,01,076,*64
$GNGLL,3030.88795,N,11420.30080,E,062241.00,A,D*77
$GNRMC,062242.00,A,3030.88739,N,11420.30072,E,1.975,189.33,220119,,,D*7B
$GNVTG,189.33,T,,M,1.975,N,3.657,K,D*2B
$GNGGA,062242.00,3030.88739,N,11420.30072,E,2,12,0.73,17.2,M,-10.8,M,,0000*5B
$GNGSA,A,3,14,22,26,31,32,03,10,25,41,29,,,1.28,0.73,1.05*1E
$GNGSA,A,3,68,79,78,77,67,69,,,,,,,1.28,0.73,1.05*16
$GPGSV,4,1,15,03,13,319,26,10,24,177,37,12,00,036,,14,70,018,33*79
$GPGSV,4,2,15,16,14,208,19,20,01,164,,22,27,303,25,25,31,042,17*7C
$GPGSV,4,3,15,26,42,209,41,29,21,094,39,31,58,318,34,32,67,083,39*7A
$GPGSV,4,4,15,40,18,253,,41,41,230,39,42,45,137,34*4A
$GLGSV,2,1,08,66,00,152,,67,51,156,38,68,69,323,30,69,17,331,22*6C
$GLGSV,2,2,08,77,24,032,11,78,62,337,30,79,36,253,35,87,01,076,*63
$GNGLL,3030.88739,N,11420.30072,E,062242.00,A,D*7F
$GNRMC,062243.00,A,3030.88679,N,11420.30063,E,2.141,188.24,220119,,,D*74
$GNVTG,188.24,T,,M,2.141,N,3.966,K,D*2D
$GNGGA,062243.00,3030.88679,N,11420.30063,E,2,12,0.67,17.1,M,-10.8,M,,0000*59
$GNGSA,A,3,14,22,26,31,32,03,10,25,41,29,,,1.21,0.67,1.01*16
$GNGSA,A,3,68,79,78,77,67,69,,,,,,,1.21,0.67,1.01*1E
$GPGSV,4,1,15,03,13,319,24,10,24,177,38,12,00,036,,14,70,018,32*75
$GPGSV,4,2,15,16,14,208,18,20,01,164,,22,27,303,26,25,31,042,15*7C
$GPGSV,4,3,15,26,42,209,41,29,21,094,38,31,58,318,34,32,67,083,38*7A
$GPGSV,4,4,15,40,18,253,,41,41,230,37,42,45,137,32*42
$GLGSV,2,1,08,66,00,152,,67,51,156,39,68,69,323,30,69,17,331,28*67
$GLGSV,2,2,08,77,24,032,11,78,62,337,30,79,36,253,36,87,01,076,*60
$GNGLL,3030.88679,N,11420.30063,E,062243.00,A,D*7B
$GNRMC,062244.00,A,3030.88624,N,11420.30054,E,1.832,189.14,220119,,,D*73
$GNVTG,189.14,T,,M,1.832,N,3.393,K,D*21
$GNGGA,062244.00,3030.88624,N,11420.30054,E,2,12,0.67,17.1,M,-10.8,M,,0000*52
$GNGSA,A,3,14,22,26,31,32,03,10,25,41,29,,,1.21,0.67,1.01*16
$GNGSA,A,3,68,79,78,77,67,69,,,,,,,1.21,0.67,1.01*1E
$GPGSV,4,1,15,03,13,319,20,10,24,177,39,12,00,036,,14,70,018,31*73
$GPGSV,4,2,15,16,14,208,18,20,01,164,,22,27,303,27,25,31,042,15*7D
$GPGSV,4,3,15,26,42,209,42,29,21,094,35,31,58,318,32,32,67,083,36*7C
$GPGSV,4,4,15,40,18,253,,41,41,230,38,42,45,137,33*4C
$GLGSV,2,1,08,66,00,152,,67,51,156,36,68,69,323,29,69,17,331,29*61
$GLGSV,2,2,08,77,24,032,10,78,62,337,28,79,36,253,32,87,01,076,*6C
$GNGLL,3030.88624,N,11420.30054,E,062244.00,A,D*70
$GNRMC,062245.00,A,3030.88573,N,11420.30040,E,1.911,190.81,220119,,,D*72
$GNVTG,190.81,T,,M,1.911,N,3.540,K,D*2D
$GNGGA,062245.00,3030.88573,N,11420.30040,E,2,12,0.73,17.2,M,-10.8,M,,0000*51
$GNGSA,A,3,14,22,26,31,32,03,10,25,41,29,,,1.28,0.73,1.05*1E
$GNGSA,A,3,68,79,78,77,67,69,,,,,,,1.28,0.73,1.05*16
$GPGSV,4,1,15,03,13,319,14,10,24,177,36,12,00,036,,14,70,018,31*7B
$GPGSV,4,2,15,16,14,208,17,20,01,164,,22,27,303,32,25,31,042,16*75
$GPGSV,4,3,15,26,42,209,41,29,21,094,37,31,58,318,35,32,67,083,40*7B
$GPGSV,4,4,15,40,18,253,,41,41,230,40,42,45,137,33*43
$GLGSV,2,1,08,66,00,152,,67,51,156,39,68,69,323,30,69,17,331,33*6D
$GLGSV,2,2,08,77,24,032,08,78,62,337,30,79,36,253,35,87,01,076,*6B
$GNGLL,3030.88573,N,11420.30040,E,062245.00,A,D*75
$GNRMC,062246.00,A,3030.88518,N,11420.30024,E,2.091,191.54,220119,,,D*75
$GNVTG,191.54,T,,M,2.091,N,3.873,K,D*2B
$GNGGA,062246.00,3030.88518,N,11420.30024,E,2,12,0.67,17.0,M,-10.8,M,,0000*5A
$GNGSA,A,3,14,22,26,31,32,03,10,25,41,29,,,1.21,0.67,1.01*16
$GNGSA,A,3,68,79,78,77,67,69,,,,,,,1.21,0.67,1.01*1E
$GPGSV,4,1,15,03,13,319,15,10,24,177,36,12,00,036,,14,70,018,35*7E
$GPGSV,4,2,15,16,14,208,18,20,01,164,,22,27,303,35,25,31,042,20*78
$GPGSV,4,3,15,26,42,209,42,29,21,094,31,31,58,318,35,32,67,083,38*71
$GPGSV,4,4,15,40,18,253,,41,41,230,40,42,45,137,34*44
$GLGSV,2,1,08,66,00,152,,67,51,156,39,68,69,323,31,69,17,331,33*6C
$GLGSV,2,2,08,77,24,032,11,78,62,337,34,79,36,253,35,87,01,076,*67
$GNGLL,3030.88518,N,11420.30024,E,062246.00,A,D*79
$GNRMC,062247.00,A,3030.88460,N,11420.30012,E,1.992,189.28,220119,,,D*74
$GNVTG,189.28,T,,M,1.992,N,3.690,K,D*23
$GNGGA,062247.00,3030.88460,N,11420.30012,E,2,12,0.67,17.1,M,-10.8,M,,0000*51
$GNGSA,A,3,14,22,26,31,32,03,10,25,41,29,,,1.21,0.67,1.01*16
$GNGSA,A,3,68,79,78,77,67,69,,,,,,,1.21,0.67,1.01*1E
$GPGSV,4,1,15,03,13,319,19,10,24,177,38,12,00,036,,14,70,018,35*7C
$GPGSV,4,2,15,16,14,208,19,20,01,164,,22,27,303,30,25,31,042,19*76
$GPGSV,4,3,15,26,42,209,41,29,21,094,41,31,58,318,37,32,67,083,39*76
$GPGSV,4,4,15,40,18,253,,41,41,230,40,42,45,137,34*44
$GLGSV,2,1,08,66,00,152,,67,51,156,41,68,69,323,30,69,17,331,31*60
$GLGSV,2,2,08,77,24,032,10,78,62,337,29,79,36,253,37,87,01,076,*68
$GNGLL,3030.88460,N,11420.30012,E,062247.00,A,D*73
$GNRMC,062248.00,A,3030.88402,N,11420.30000,E,2.003,188.78,220119,,,D*7A
$GNVTG,188.78,T,,M,2.003,N,3.709,K,D*24
$GNGGA,062248.00,3030.88402,N,11420.30000,E,2,12,0.73,17.2,M,-10.8,M,,0000*5F
$GNGSA,A,3,14,22,26,31,32,03,10,25,41,29,,,1.28,0.73,1.05*1E
$GNGSA,A,3,68,79,78,77,67,69,,,,,,,1.28,0.73,1.05*16
$GPGSV,4,1,15,03,13,319,20,10,23,176,41,12,00,036,,14,70,018,34*7F
$GPGSV,4,2,15,16,14,208,20,20,01,164,,22,27,303,36,25,31,042,20*70
$GPGSV,4,3,15,26,42,209,43,29,21,094,39,31,58,318,34,32,67,083,40*76
$GPGSV,4,4,15,40,18,253,,41,41,230,41,42,45,137,34*45
$GLGSV,2,1,08,66,00,152,,67,51,156,42,68,69,323,31,69,17,331,32*61
$GLGSV,2,2,08,77,24,032,09,78,62,337,32,79,36,253,37,87,01,076,*6A
$GNGLL,3030.88402,N,11420.30000,E,062248.00,A,D*7B
$GNRMC,062249.00,A,3030.88346,N,11420.29988,E,1.934,188.86,220119,,,D*72
$GNVTG,188.86,T,,M,1.934,N,3.581,K,D*29
$GNGGA,062249.00,3030.88346,N,11420.29988,E,2,12,0.67,17.0,M,-10.8,M,,0000*5F
$GNGSA,A,3,14,22,26,31,32,03,10,25,41,29,,,1.21,0.67,1.01*16
$GNGSA,A,3,68,79,78,77,67,69,,,,,,,1.21,0.67,1.01*1E
$GPGSV,4,1,15,03,13,319,20,10,23,176,41,12,00,036,,14,70,018,34*7F
$GPGSV,4,2,15,16,14,208,19,20,01,164,,22,27,303,36,25,31,042,20*7A
$GPGSV,4,3,15,26,42,209,42,29,21,094,39,31,58,318,34,32,67,083,38*78
$GPGSV,4,4,15,40,18,253,,41,41,230,42,42,45,137,34*46
$GLGSV,2,1,08,66,00,152,,67,51,156,41,68,69,323,34,69,17,331,31*64
$GLGSV,2,2,08,77,24,032,08,78,62,337,33,79,36,253,37,87,01,076,*6A
$GNGLL,3030.88346,N,11420.29988,E,062249.00,A,D*7C
$GNRMC,062250.00,A,3030.88296,N,11420.29977,E,1.771,190.41,220119,,,D*7B
$GNVTG,190.41,T,,M,1.771,N,3.279,K,D*24
$GNGGA,062250.00,3030.88296,N,11420.29977,E,2,12,0.69,17.0,M,-10.8,M,,0000*55
$GNGSA,A,3,14,22,26,31,32,03,10,25,41,29,,,1.31,0.69,1.11*18
$GNGSA,A,3,68,79,78,77,67,69,,,,,,,1.31,0.69,1.11*10
$GPGSV,4,1,15,03,13,319,18,10,23,176,39,12,00,036,,14,70,018,34*7B
$GPGSV,4,2,15,16,14,208,18,20,01,164,,22,27,303,37,25,31,042,20*7A
$GPGSV,4,3,15,26,42,209,43,29,21,094,39,31,58,318,33,32,67,083,39*7F
$GPGSV,4,4,15,40,18,253,,41,41,230,41,42,45,137,34*45
$GLGSV,2,1,08,66,00,152,,67,51,156,38,68,69,323,33,69,17,331,30*6C
$GLGSV,2,2,08,77,24,032,11,78,62,337,29,79,36,253,35,87,01,076,*6B
$GNGLL,3030.88296,N,11420.29977,E,062250.00,A,D*78
$GNRMC,062251.00,A,3030.88248,N,11420.29960,E,1.741,192.76,220119,,,D*7A
$GNVTG,192.76,T,,M,1.741,N,3.225,K,D*28
$GNGGA,062251.00,3030.88248,N,11420.29960,E,2,12,0.75,16.8,M,-10.8,M,,0000*55
$GNGSA,A,3,14,22,26,31,32,03,10,25,41,29,,,1.41,0.75,1.19*1A
$GNGSA,A,3,68,79,78,77,67,69,,,,,,,1.41,0.75,1.19*12
$GPGSV,4,1,15,03,13,319,17,10,23,176,38,12,00,036,,14,70,018,34*75
$GPGSV,4,2,15,16,14,208,20,20,01,164,,22,27,303,36,25,31,042,22*72
$GPGSV,4,3,15,26,42,209,43,29,21,094,39,31,58,318,39,32,67,083,40*7B
$GPGSV,4,4,15,40,18,253,,41,41,230,41,42,45,137,34*45
$GLGSV,2,1,08,66,00,152,,67,51,156,39,68,69,323,36,69,17,331,28*61
$GLGSV,2,2,08,77,24,032,09,78,62,337,34,79,36,253,38,87,01,076,*63
$GNGLL,3030.88248,N,11420.29960,E,062251.00,A,D*7C
$GNRMC,062252.00,A,3030.88210,N,11420.29951,E,1.315,189.54,220119,,,D*79
$GNVTG,189.54,T,,M,1.315,N,2.436,K,D*22
$GNGGA,062252.00,3030.88210,N,11420.29951,E,2,12,0.69,16.7,M,-10.8,M,,0000*5B
$GNGSA,A,3,14,22,26,31,32,03,10,25,41,29,,,1.31,0.69,1.11*18
$GNGSA,A,3,68,79,78,77,67,69,,,,,,,1.31,0.69,1.11*10
$GPGSV,4,1,15,03,13,319,17,10,23,176,36,12,00,036,,14,70,020,34*70
$GPGSV,4,2,15,16,14,208,20,20,01,164,,22,27,303,37,25,31,042,23*72
$GPGSV,4,3,15,26,42,209,42,29,21,094,38,31,58,318,36,32,67,083,41*75
$GPGSV,4,4,15,40,18,253,,41,41,230,40,42,45,137,33*43
$GLGSV,2,1,08,66,00,152,,67,51,156,38,68,69,323,34,69,17,331,33*68
$GLGSV,2,2,08,77,24,032,09,78,62,337,33,79,36,253,37,87,01,076,*6B
$GNGLL,3030.88210,N,11420.29951,E,062252.00,A,D*70
$GNRMC,062253.00,A,3030.88187,N,11420.29938,E,0.782,196.75,220119,,,D*7C
$GNVTG,196.75,T,,M,0.782,N,1.449,K,D*2F
$GNGGA,062253.00,3030.88187,N,11420.29938,E,2,12,0.69,16.5,M,-10.8,M,,0000*5A
$GNGSA,A,3,14,22,26,31,32,10,25,41,29,,,,1.31,0.69,1.11*1B
$GNGSA,A,3,68,79,78,77,67,69,,,,,,,1.31,0.69,1.11*10
$GPGSV,4,1,16,03,13,319,,10,23,176,39,12,00,036,,14,70,020,33*7D
$GPGSV,4,2,16,16,14,208,20,20,01,164,,22,27,303,42,25,31,042,23*73
$GPGSV,4,3,16,26,42,209,42,29,21,094,39,31,58,318,39,32,67,083,34*7A
$GPGSV,4,4,16,40,18,253,,41,41,230,36,42,45,137,34,50,41,131,37*71
$GLGSV,2,1,08,66,00,152,,67,51,156,39,68,69,323,30,69,17,331,32*6C
$GLGSV,2,2,08,77,24,032,08,78,62,337,32,79,36,253,34,87,01,076,*68
$GNGLL,3030.88187,N,11420.29938,E,062253.00,A,D*73
$GNRMC,062254.00,A,3030.88187,N,11420.29929,E,0.328,,220119,,,D*6D
$GNVTG,,T,,M,0.328,N,0.607,K,D*30
$GNGGA,062254.00,3030.88187,N,11420.29929,E,2,12,0.69,16.4,M,-10.8,M,,0000*5C
$GNGSA,A,3,14,22,26,31,32,10,25,41,29,,,,1.34,0.69,1.15*1A
$GNGSA,A,3,68,79,78,77,67,69,,,,,,,1.34,0.69,1.15*11
$GPGSV,4,1,16,03,13,319,23,10,23,176,35,12,00,036,,14,70,020,33*70
$GPGSV,4,2,16,16,15,208,28,20,01,164,,22,27,303,40,25,31,042,25*7E
$GPGSV,4,3,16,26,42,209,39,29,21,094,31,31,58,318,37,32,67,083,37*73
$GPGSV,4,4,16,40,18,253,,41,41,230,42,42,45,137,28,50,41,131,28*71
$GLGSV,2,1,08,66,00,152,,67,51,156,25,68,69,323,23,69,17,331,37*66
$GLGSV,2,2,08,77,24,032,10,78,62,337,27,79,36,253,33,87,01,076,*62
$GNGLL,3030.88187,N,11420.29929,E,062254.00,A,D*74
$GNRMC,062255.00,A,3030.88197,N,11420.29906,E,0.898,238.55,220119,,,D*77
$GNVTG,238.55,T,,M,0.898,N,1.663,K,D*24
$GNGGA,062255.00,3030.88197,N,11420.29906,E,2,12,0.63,16.3,M,-10.8,M,,0000*5C
$GNGSA,A,3,14,22,26,31,32,03,10,25,41,29,,,1.19,0.63,1.00*18
$GNGSA,A,3,68,79,78,77,67,69,,,,,,,1.19,0.63,1.00*10
$GPGSV,4,1,15,03,13,319,24,10,23,176,39,12,00,036,,14,70,020,33*78
$GPGSV,4,2,15,16,15,208,30,20,01,164,,22,27,303,31,25,31,042,26*71
$GPGSV,4,3,15,26,42,209,40,29,21,094,34,31,58,318,42,32,67,083,37*79
$GPGSV,4,4,15,40,18,253,,41,41,230,43,50,41,131,27*44
$GLGSV,2,1,08,66,00,152,,67,51,156,31,68,69,323,21,69,17,331,39*6F
$GLGSV,2,2,08,77,24,032,10,78,62,337,28,79,36,253,35,87,01,076,*6B
$GNGLL,3030.88197,N,11420.29906,E,062255.00,A,D*79
$GNRMC,062256.00,A,3030.88224,N,11420.29877,E,1.440,292.24,220119,,,D*76
$GNVTG,292.24,T,,M,1.440,N,2.667,K,D*2D
$GNGGA,062256.00,3030.88224,N,11420.29877,E,2,12,0.65,16.3,M,-10.8,M,,0000*55
$GNGSA,A,3,14,22,26,31,32,03,10,25,41,29,,,1.28,0.65,1.10*1D
$GNGSA,A,3,68,79,78,77,67,69,,,,,,,1.28,0.65,1.10*15
$GPGSV,4,1,14,03,13,319,23,10,23,176,37,12,00,036,,14,70,020,31*72
$GPGSV,4,2,14,16,15,208,31,20,01,164,,22,27,303,39,25,31,042,27*78
$GPGSV,4,3,14,26,42,209,40,29,21,094,28,31,58,318,39,32,67,083,34*7A
$GPGSV,4,4,14,40,18,253,,41,41,230,43*73
$GLGSV,2,1,08,66,00,152,,67,51,156,26,68,69,323,22,69,17,331,40*64
$GLGSV,2,2,08,77,24,032,08,78,62,337,31,79,36,253,35,87,01,076,*6A
$GNGLL,3030.88224,N,11420.29877,E,062256.00,A,D*76
$GNRMC,062257.00,A,3030.88253,N,11420.29845,E,1.222,302.93,220119,,,D*70
$GNVTG,302.93,T,,M,1.222,N,2.264,K,D*2C
$GNGGA,062257.00,3030.88253,N,11420.29845,E,2,12,0.69,16.2,M,-10.8,M,,0000*58
$GNGSA,A,3,14,22,26,31,32,03,10,25,41,29,,,1.34,0.69,1.15*19
$GNGSA,A,3,68,79,78,77,67,69,,,,,,,1.34,0.69,1.15*11
$GPGSV,4,1,14,03,13,319,20,10,23,176,26,12,00,036,,14,70,020,24*75
$GPGSV,4,2,14,16,15,208,28,20,01,164,,22,27,303,39,25,31,042,25*72
$GPGSV,4,3,14,26,42,209,38,29,21,094,27,31,58,318,37,32,67,083,34*74
$GPGSV,4,4,14,40,18,253,,41,41,230,40*70
$GLGSV,2,1,08,66,00,152,,67,51,156,27,68,69,323,25,69,17,331,39*6C
$GLGSV,2,2,08,77,24,032,09,78,62,337,35,79,36,253,37,87,01,076,*6D
$GNGLL,3030.88253,N,11420.29845,E,062257.00,A,D*76
$GNRMC,062258.00,A,3030.88279,N,11420.29804,E,1.248,306.85,220119,,,D*7D
$GNVTG,306.85,T,,M,1.248,N,2.312,K,D*23
$GNGGA,062258.00,3030.88279,N,11420.29804,E,2,12,0.71,16.0,M,-10.8,M,,0000*51
$GNGSA,A,3,14,22,26,31,32,03,10,25,41,29,,,1.36,0.71,1.16*11
$GNGSA,A,3,68,79,78,77,67,69,,,,,,,1.36,0.71,1.16*19
$GPGSV,4,1,14,03,13,319,18,10,23,176,33,12,00,036,,14,70,020,30*7F
$GPGSV,4,2,14,16,15,208,28,20,01,164,,22,27,303,38,25,31,042,24*72
$GPGSV,4,3,14,26,42,209,40,29,21,094,26,31,58,318,37,32,67,083,34*7A
$GPGSV,4,4,14,40,18,253,,41,41,230,41*71
$GLGSV,2,1,08,66,00,152,,67,51,156,26,68,69,323,27,69,17,331,34*62
$GLGSV,2,2,08,77,24,032,10,78,62,337,31,79,36,253,36,87,01,076,*60
$GNGLL,3030.88279,N,11420.29804,E,062258.00,A,D*74
$GNRMC,062259.00,A,3030.88304,N,11420.29773,E,1.205,314.44,220119,,,D*7F
$GNVTG,314.44,T,,M,1.205,N,2.232,K,D*27
$GNGGA,062259.00,3030.88304,N,11420.29773,E,2,12,0.71,16.1,M,-10.8,M,,0000*55
$GNGSA,A,3,14,22,26,31,32,03,10,25,41,29,,,1.36,0.71,1.16*11
$GNGSA,A,3,68,79,78,77,67,69,,,,,,,1.36,0.71,1.16*19
$GPGSV,4,1,14,03,13,319,16,10,23,176,29,12,00,036,,14,70,020,30*7A
$GPGSV,4,2,14,16,15,208,28,20,01,164,,22,27,303,34,25,31,042,23*79
$GPGSV,4,3,14,26,42,209,34,29,21,094,29,31,58,318,27,32,67,083,33*70
$GPGSV,4,4,14,40,18,253,,41,41,230,39*7E
$GLGSV,2,1,08,66,00,152,,67,51,156,24,68,69,323,27,69,17,331,23*66
$GLGSV,2,2,08,77,24,032,09,78,62,337,30,79,36,253,37,87,01,076,*68
$GNGLL,3030.88304,N,11420.29773,E,062259.00,A,D*71
$GNRMC,062300.00,A,3030.88312,N,11420.29756,E,0.211,,220119,,,D*6E
$GNVTG,,T,,M,0.211,N,0.391,K,D*31
$GNGGA,062300.00,3030.88312,N,11420.29756,E,2,12,0.78,16.0,M,-10.8,M,,0000*50
$GNGSA,A,3,14,22,26,31,32,03,10,25,41,29,,,1.44,0.78,1.21*19
$GNGSA,A,3,68,79,78,77,67,69,,,,,,,1.44,0.78,1.21*11
$GPGSV,4,1,14,03,13,319,17,10,23,176,28,12,00,036,,14,70,020,29*72
$GPGSV,4,2,14,16,15,208,29,20,01,164,,22,27,303,28,25,31,042,22*74
$GPGSV,4,3,14,26,42,209,31,29,21,094,28,31,58,318,28,32,67,083,27*7E
$GPGSV,4,4,14,40,18,253,,41,41,230,38*7F
$GLGSV,2,1,08,66,00,152,,67,51,156,25,68,69,323,26,69,17,331,23*66
$GLGSV,2,2,08,77,24,032,08,78,62,337,23,79,36,253,38,87,01,076,*64
$GNGLL,3030.88312,N,11420.29756,E,062300.00,A,D*7C
$GNRMC,062301.00,A,3030.88312,N,11420.29747,E,0.046,,220119,,,D*6F
$GNVTG,,T,,M,0.046,N,0.084,K,D*36
$GNGGA,062301.00,3030.88312,N,11420.29747,E,2,12,0.82,16.0,M,-10.8,M,,0000*54
$GNGSA,A,3,14,22,26,31,32,03,10,25,41,29,,,1.64,0.82,1.42*1B
$GNGSA,A,3,68,79,78,67,69,,,,,,,,1.64,0.82,1.42*13
$GPGSV,4,1,14,03,13,319,17,10,23,176,28,12,00,036,,14,70,020,29*72
$GPGSV,4,2,14,16,15,208,28,20,01,164,,22,27,303,25,25,31,042,22*78
$GPGSV,4,3,14,26,42,209,31,29,21,094,29,31,58,318,28,32,67,083,25*7D
$GPGSV,4,4,14,40,18,253,,41,41,230,35*72
$GLGSV,2,1,08,66,00,152,,67,51,156,26,68,69,323,26,69,17,331,31*66
$GLGSV,2,2,08,77,24,032,05,78,62,337,25,79,36,253,38,87,01,076,*6F
$GNGLL,3030.88312,N,11420.29747,E,062301.00,A,D*7D
$GNRMC,062302.00,A,3030.88310,N,11420.29737,E,0.029,,220119,,,D*60
$GNVTG,,T,,M,0.029,N,0.053,K,D*35
$GNGGA,0