###############第三圈数据###########################################################################################
$GNRMC,060550.00,A,3030.87369,N,11420.30543,E,0.011,,220119,,,D*60
$GNVTG,,T,,M,0.011,N,0.021,K,D*3B
$GNGGA,060550.00,3030.87369,N,11420.30543,E,2,12,0.79,24.2,M,-10.8,M,,0000*5E
$GNGSA,A,3,14,22,26,31,32,03,10,25,,,,,1.44,0.79,1.20*17
$GNGSA,A,3,68,79,78,66,77,67,,,,,,,1.44,0.79,1.20*1E
$GPGSV,4,1,13,03,07,323,15,10,32,178,32,12,06,037,,14,66,001,29*7D
$GPGSV,4,2,13,16,07,207,19,22,23,309,32,25,38,046,23,26,35,206,30*70
$GPGSV,4,3,13,29,,,33,31,56,304,24,32,69,060,27,40,18,253,*43
$GPGSV,4,4,13,41,41,230,27*4F
$GLGSV,2,1,07,66,08,149,26,67,60,147,36,68,60,331,25,69,10,330,27*64
$GLGSV,2,2,07,77,31,028,24,78,66,317,23,79,31,243,16*59
$GNGLL,3030.87369,N,11420.30543,E,060550.00,A,D*70
$GNRMC,060551.00,A,3030.87367,N,11420.30542,E,0.210,,220119,,,D*6D
$GNVTG,,T,,M,0.210,N,0.389,K,D*39
$GNGGA,060551.00,3030.87367,N,11420.30542,E,2,12,0.77,24.3,M,-10.8,M,,0000*5F
$GNGSA,A,3,14,22,26,31,32,03,10,25,,,,,1.41,0.77,1.19*16
$GNGSA,A,3,68,79,78,66,77,67,,,,,,,1.41,0.77,1.19*1F
$GPGSV,4,1,13,03,08,322,16,10,32,178,31,12,06,037,21,14,66,001,33*7B
$GPGSV,4,2,13,16,07,207,17,22,23,309,31,25,38,046,29,26,35,206,30*77
$GPGSV,4,3,13,29,,,31,31,56,304,25,32,69,060,28,40,18,253,*4F
$GPGSV,4,4,13,41,41,230,27*4F
$GLGSV,2,1,07,66,08,149,27,67,60,147,39,68,60,331,27,69,10,330,29*66
$GLGSV,2,2,07,77,31,028,25,78,66,317,19,79,31,243,28*5C
$GNGLL,3030.87367,N,11420.30542,E,060551.00,A,D*7E
$GNRMC,060552.00,A,3030.87352,N,11420.30537,E,0.495,,220119,,,D*61
$GNVTG,,T,,M,0.495,N,0.917,K,D*3F
$GNGGA,060552.00,3030.87352,N,11420.30537,E,2,12,0.81,24.4,M,-10.8,M,,0000*56
$GNGSA,A,3,14,22,26,31,32,03,10,25,,,,,1.44,0.81,1.19*1A
$GNGSA,A,3,68,79,78,66,77,67,,,,,,,1.44,0.81,1.19*13
$GPGSV,4,1,13,03,08,322,18,10,32,178,31,12,06,037,20,14,66,001,28*7E
$GPGSV,4,2,13,16,07,207,15,22,23,309,31,25,38,046,30,26,35,206,24*78
$GPGSV,4,3,13,29,,,34,31,56,304,39,32,69,060,29,40,18,253,*46
$GPGSV,4,4,13,41,41,230,*4A
$GLGSV,2,1,07,66,08,149,27,67,60,147,36,68,60,331,26,69,10,330,28*69
$GLGSV,2,2,07,77,31,028,25,78,66,317,28,79,31,243,27*51
$GNGLL,3030.87352,N,11420.30537,E,060552.00,A,D*79
$GNRMC,060553.00,A,3030.87313,N,11420.30544,E,1.736,193.76,220119,,,D*7E
$GNVTG,193.76,T,,M,1.736,N,3.215,K,D*2A
$GNGGA,060553.00,3030.87313,N,11420.30544,E,2,12,0.77,24.0,M,-10.8,M,,0000*5B
$GNGSA,A,3,14,22,26,31,32,03,10,25,,,,,1.41,0.77,1.19*16
$GNGSA,A,3,68,79,78,66,77,67,,,,,,,1.41,0.77,1.19*1F
$GPGSV,4,1,13,03,08,322,17,10,32,178,34,12,06,037,18,14,66,001,33*75
$GPGSV,4,2,13,16,07,207,16,22,23,309,27,25,38,046,33,26,35,206,41*7C
$GPGSV,4,3,13,29,,,39,31,56,304,32,32,69,060,45,40,18,253,*4A
$GPGSV,4,4,13,41,41,230,*4A
$GLGSV,2,1,07,66,08,149,35,67,60,147,36,68,60,331,31,69,10,330,29*6D
$GLGSV,2,2,07,77,31,028,23,78,66,317,28,79,31,243,38*59
$GNGLL,3030.87313,N,11420.30544,E,060553.00,A,D*79
$GNRMC,060554.00,A,3030.87249,N,11420.30530,E,2.303,193.11,220119,,,D*74
$GNVTG,193.11,T,,M,2.303,N,4.266,K,D*29
$GNGGA,060554.00,3030.87249,N,11420.30530,E,2,12,0.73,24.1,M,-10.8,M,,0000*54
$GNGSA,A,3,14,22,26,31,32,03,10,25,41,,,,1.39,0.73,1.19*18
$GNGSA,A,3,68,79,78,66,77,67,,,,,,,1.39,0.73,1.19*14
$GPGSV,4,1,13,03,08,322,16,10,32,178,30,12,06,037,16,14,66,001,27*7B
$GPGSV,4,2,13,16,07,207,17,22,23,309,28,25,38,046,30,26,35,206,37*70
$GPGSV,4,3,13,29,,,36,31,56,304,36,32,69,060,40,40,18,253,36*41
$GPGSV,4,4,13,41,41,230,39*40
$GLGSV,2,1,07,66,08,149,35,67,60,147,33,68,60,331,34,69,10,330,22*66
$GLGSV,2,2,07,77,31,028,21,78,66,317,33,79,31,243,33*5A
$GNGLL,3030.87249,N,11420.30530,E,060554.00,A,D*73
$GNRMC,060555.00,A,3030.87179,N,11420.30507,E,2.479,193.58,220119,,,D*76
$GNVTG,193.58,T,,M,2.479,N,4.592,K,D*22
$GNGGA,060555.00,3030.87179,N,11420.30507,E,2,12,0.69,23.9,M,-10.8,M,,0000*55
$GNGSA,A,3,14,22,26,31,32,03,10,25,41,29,,,1.32,0.69,1.12*18
$GNGSA,A,3,68,79,78,66,77,67,,,,,,,1.32,0.69,1.12*1F
$GPGSV,4,1,13,03,08,322,15,10,32,178,30,12,06,037,14,14,66,001,36*7A
$GPGSV,4,2,13,16,07,207,,22,23,309,28,25,38,046,37,26,35,206,38*7E
$GPGSV,4,3,13,29,17,101,38,31,56,304,42,32,69,060,45,40,18,253,36*7F
$GPGSV,4,4,13,41,41,230,44*4A
$GLGSV,2,1,07,66,08,149,26,67,60,147,34,68,60,331,34,69,10,330,33*63
$GLGSV,2,2,07,77,31,028,20,78,66,317,28,79,31,243,38*5A
$GNGLL,3030.87179,N,11420.30507,E,060555.00,A,D*76
$GNRMC,060556.00,A,3030.87112,N,11420.30477,E,2.379,195.17,220119,,,D*74
$GNVTG,195.17,T,,M,2.379,N,4.406,K,D*24
$GNGGA,060556.00,3030.87112,N,11420.30477,E,2,12,0.69,24.0,M,-10.8,M,,0000*53
$GNGSA,A,3,14,22,26,31,32,03,10,25,41,29,,,1.32,0.69,1.12*18
$GNGSA,A,3,68,79,78,66,77,67,,,,,,,1.32,0.69,1.12*1F
$GPGSV,4,1,13,03,08,322,15,10,31,178,33,12,06,037,16,14,66,001,34*7A
$GPGSV,4,2,13,16,07,207,,22,23,309,32,25,38,046,31,26,35,206,38*73
$GPGSV,4,3,13,29,17,101,21,31,56,304,37,32,69,060,43,40,18,253,36*73
$GPGSV,4,4,13,41,41,230,41*4F
$GLGSV,2,1,07,66,08,149,26,67,60,147,30,68,60,331,33,69,10,330,29*6B
$GLGSV,2,2,07,77,31,028,20,78,66,317,28,79,31,243,37*55
$GNGLL,3030.87112,N,11420.30477,E,060556.00,A,D*7E
$GNRMC,060557.00,A,3030.87045,N,11420.30462,E,2.441,192.42,220119,,,D*79
$GNVTG,192.42,T,,M,2.441,N,4.520,K,D*2A
$GNGGA,060557.00,3030.87045,N,11420.30462,E,2,12,0.69,23.7,M,-10.8,M,,0000*55
$GNGSA,A,3,14,22,26,31,32,03,10,25,41,29,,,1.32,0.69,1.12*18
$GNGSA,A,3,68,79,78,66,77,67,,,,,,,1.32,0.69,1.12*1F
$GPGSV,4,1,13,03,08,322,15,10,31,178,32,12,06,037,,14,66,001,34*7C
$GPGSV,4,2,13,16,07,207,,22,23,309,31,25,38,046,30,26,35,206,36*7F
$GPGSV,4,3,13,29,17,101,28,31,56,304,39,32,69,060,43,40,18,253,35*77
$GPGSV,4,4,13,41,41,230,40*4E
$GLGSV,2,1,07,66,08,149,30,67,60,147,30,68,60,331,32,69,10,330,30*65
$GLGSV,2,2,07,77,31,028,20,78,66,317,26,79,31,243,35*59
$GNGLL,3030.87045,N,11420.30462,E,060557.00,A,D*78
$GNRMC,060558.00,A,3030.86970,N,11420.30442,E,2.589,192.86,220119,,,D*77
$GNVTG,192.86,T,,M,2.589,N,4.796,K,D*28
$GNGGA,060558.00,3030.86970,N,11420.30442,E,2,12,0.69,23.7,M,-10.8,M,,0000*56
$GNGSA,A,3,14,22,26,31,32,03,10,25,41,29,,,1.32,0.69,1.12*18
$GNGSA,A,3,68,79,78,66,77,67,,,,,,,1.32,0.69,1.12*1F
$GPGSV,4,1,13,03,08,322,13,10,31,178,38,12,06,037,,14,66,001,39*7D
$GPGSV,4,2,13,16,07,207,,22,23,309,35,25,38,046,29,26,35,206,39*7C
$GPGSV,4,3,13,29,17,101,21,31,56,304,41,32,69,060,45,40,18,253,36*74
$GPGSV,4,4,13,41,41,230,43*4D
$GLGSV,2,1,07,66,08,149,24,67,60,147,34,68,60,331,27,69,10,330,29*68
$GLGSV,2,2,07,77,31,028,20,78,66,317,25,79,31,243,38*57
$GNGLL,3030.86970,N,11420.30442,E,060558.00,A,D*7B
$GNRMC,060559.00,A,3030.86893,N,11420.30422,E,2.617,193.40,220119,,,D*73
$GNVTG,193.40,T,,M,2.617,N,4.847,K,D*24
$GNGGA,060559.00,3030.86893,N,11420.30422,E,2,12,0.69,23.3,M,-10.8,M,,0000*59
$GNGSA,A,3,14,22,26,31,32,10,25,41,29,,,,1.32,0.69,1.12*1B
$GNGSA,A,3,68,79,78,66,77,67,,,,,,,1.32,0.69,1.12*1F
$GPGSV,4,1,13,03,08,322,19,10,31,178,36,12,06,037,,14,66,001,36*76
$GPGSV,4,2,13,16,07,207,,22,23,309,34,25,38,046,32,26,35,206,38*76
$GPGSV,4,3,13,29,17,101,28,31,56,304,42,32,69,060,42,40,18,253,36*79
$GPGSV,4,4,13,41,41,230,42*4C
$GLGSV,2,1,07,66,08,149,26,67,60,147,34,68,60,331,27,69,10,330,28*6B
$GLGSV,2,2,07,77,31,028,20,78,66,317,22,79,31,243,37*5F
$GNGLL,3030.86893,N,11420.30422,E,060559.00,A,D*70
$GNRMC,060600.00,A,3030.86818,N,11420.30401,E,2.604,192.48,220119,,,D*75
$GNVTG,192.48,T,,M,2.604,N,4.823,K,D*2D
$GNGGA,060600.00,3030.86818,N,11420.30401,E,2,12,0.69,23.1,M,-10.8,M,,0000*56
$GNGSA,A,3,14,22,26,31,32,10,25,41,29,,,,1.32,0.69,1.12*1B
$GNGSA,A,3,68,79,78,66,77,67,,,,,,,1.32,0.69,1.12*1F
$GPGSV,4,1,13,03,08,322,,10,31,178,38,12,06,037,,14,66,002,34*71
$GPGSV,4,2,13,16,07,207,,22,23,309,32,25,38,046,32,26,35,206,40*7F
$GPGSV,4,3,13,29,17,101,33,31,56,304,38,32,69,060,43,40,18,253,36*7F
$GPGSV,4,4,13,41,41,230,40*4E
$GLGSV,2,1,07,66,08,149,26,67,60,147,34,68,60,331,33,69,10,330,27*61
$GLGSV,2,2,07,77,31,028,21,78,66,317,29,79,31,243,39*5B
$GNGLL,3030.86818,N,11420.30401,E,060600.00,A,D*7D
$GNRMC,060601.00,A,3030.86753,N,11420.30372,E,2.512,192.43,220119,,,D*78
$GNVTG,192.43,T,,M,2.512,N,4.652,K,D*2A
$GNGGA,060601.00,3030.86753,N,11420.30372,E,2,12,0.69,22.7,M,-10.8,M,,0000*53
$GNGSA,A,3,14,22,26,31,32,10,25,41,29,,,,1.32,0.69,1.12*1B
$GNGSA,A,3,68,79,78,66,77,67,,,,,,,1.32,0.69,1.12*1F
$GPGSV,4,1,13,03,08,322,,10,31,178,41,12,06,037,,14,66,002,37*7C
$GPGSV,4,2,13,16,07,207,,22,23,309,36,25,38,046,32,26,35,206,40*7B
$GPGSV,4,3,13,29,17,101,28,31,56,304,41,32,69,060,43,40,18,253,36*7B
$GPGSV,4,4,13,41,41,230,43*4D
$GLGSV,2,1,07,66,08,149,25,67,60,147,34,68,60,331,28,69,10,330,26*69
$GLGSV,2,2,07,77,31,028,24,78,66,317,20,79,31,243,37*59
$GNGLL,3030.86753,N,11420.30372,E,060601.00,A,D*7F
$GNRMC,060602.00,A,3030.86679,N,11420.30354,E,2.718,191.38,220119,,,D*71
$GNVTG,191.38,T,,M,2.718,N,5.034,K,D*2A
$GNGGA,060602.00,3030.86679,N,11420.30354,E,2,12,0.69,22.5,M,-10.8,M,,0000*5F
$GNGSA,A,3,14,22,26,31,32,10,25,41,29,,,,1.32,0.69,1.12*1B
$GNGSA,A,3,68,79,78,66,77,67,,,,,,,1.32,0.69,1.12*1F
$GPGSV,4,1,13,03,08,322,,10,31,178,37,12,06,037,,14,66,002,36*7C
$GPGSV,4,2,13,16,08,207,,22,23,309,36,25,38,046,35,26,35,206,38*7C
$GPGSV,4,3,13,29,17,101,29,31,56,304,41,32,69,060,43,40,18,253,36*7A
$GPGSV,4,4,13,41,41,230,42*4C
$GLGSV,2,1,07,66,08,149,24,67,60,147,29,68,60,331,31,69,10,330,24*6E
$GLGSV,2,2,07,77,31,028,25,78,66,317,21,79,31,243,38*56
$GNGLL,3030.86679,N,11420.30354,E,060602.00,A,D*71
$GNRMC,060603.00,A,3030.86602,N,11420.30338,E,2.681,189.33,220119,,,D*75
$GNVTG,189.33,T,,M,2.681,N,4.965,K,D*25
$GNGGA,060603.00,3030.86602,N,11420.30338,E,2,12,0.69,22.6,M,-10.8,M,,0000*5B
$GNGSA,A,3,14,22,26,31,32,10,25,41,29,,,,1.32,0.69,1.12*1B
$GNGSA,A,3,68,79,78,66,77,67,,,,,,,1.32,0.69,1.12*1F
$GPGSV,4,1,13,03,08,322,,10,31,178,30,12,06,037,,14,66,002,34*79
$GPGSV,4,2,13,16,08,207,,22,23,309,36,25,38,046,26,26,35,206,36*70
$GPGSV,4,3,13,29,17,101,31,31,56,304,41,32,69,060,41,40,18,253,36*71
$GPGSV,4,4,13,41,41,230,39*40
$GLGSV,2,1,07,66,08,149,26,67,60,147,31,68,60,331,32,69,10,330,22*60
$GLGSV,2,2,07,77,31,028,26,78,66,317,22,79,31,243,38*56
$GNGLL,3030.86602,N,11420.30338,E,060603.00,A,D*76
$GNRMC,060604.00,A,3030.86523,N,11420.30323,E,2.808,189.03,220119,,,D*74
$GNVTG,189.03,T,,M,2.808,N,5.200,K,D*20
$GNGGA,060604.00,3030.86523,N,11420.30323,E,2,12,0.69,22.6,M,-10.8,M,,0000*56
$GNGSA,A,3,14,22,26,31,32,10,25,41,29,,,,1.32,0.69,1.12*1B
$GNGSA,A,3,68,79,78,66,77,67,,,,,,,1.32,0.69,1.12*1F
$GPGSV,4,1,13,03,08,322,,10,31,178,31,12,06,037,,14,66,002,32*7E
$GPGSV,4,2,13,16,08,207,,22,23,309,27,25,38,046,34,26,35,206,32*77
$GPGSV,4,3,13,29,17,101,23,31,56,304,38,32,69,060,41,40,18,253,36*7C
$GPGSV,4,4,13,41,41,230,40*4E
$GLGSV,2,1,07,66,08,149,26,67,60,147,31,68,60,331,33,69,10,330,19*69
$GLGSV,2,2,07,77,31,028,27,78,66,317,23,79,31,243,37*59
$GNGLL,3030.86523,N,11420.30323,E,060604.00,A,D*7B
$GNRMC,060605.00,A,3030.86445,N,11420.30306,E,2.724,189.95,220119,,,D*7D
$GNVTG,189.95,T,,M,2.724,N,5.045,K,D*2D
$GNGGA,060605.00,3030.86445,N,11420.30306,E,2,12,0.69,22.6,M,-10.8,M,,0000*51
$GNGSA,A,3,14,22,26,31,32,10,25,41,29,,,,1.32,0.69,1.12*1B
$GNGSA,A,3,68,79,78,66,77,67,,,,,,,1.32,0.69,1.12*1F
$GPGSV,4,1,13,03,08,322,,10,31,178,31,12,06,037,,14,66,002,35*79
$GPGSV,4,2,13,16,08,207,,22,23,309,28,25,38,045,32,26,35,206,32*7D
$GPGSV,4,3,13,29,17,101,30,31,56,304,40,32,69,060,42,40,18,253,32*76
$GPGSV,4,4,13,41,41,230,38*41
$GLGSV,2,1,07,66,08,149,24,67,60,147,37,68,60,331,32,69,10,330,18*6D
$GLGSV,2,2,07,77,31,028,27,78,66,317,24,79,31,243,38*51
$GNGLL,3030.86445,N,11420.30306,E,060605.00,A,D*7C
$GNRMC,060606.00,A,3030.86372,N,11420.30300,E,2.640,188.50,220119,,,D*70
$GNVTG,188.50,T,,M,2.640,N,4.889,K,D*2F
$GNGGA,060606.00,3030.86372,N,11420.30300,E,2,12,0.69,22.4,M,-10.8,M,,0000*55
$GNGSA,A,3,14,22,26,31,32,10,25,41,29,,,,1.32,0.69,1.12*1B
$GNGSA,A,3,68,79,78,66,77,67,,,,,,,1.32,0.69,1.12*1F
$GPGSV,4,1,13,03,08,322,,10,31,178,26,12,06,037,,14,66,002,36*7C
$GPGSV,4,2,13,16,08,207,,22,23,309,36,25,38,045,30,26,35,206,35*77
$GPGSV,4,3,13,29,17,101,37,31,56,304,41,32,69,060,42,40,18,253,37*75
$GPGSV,4,4,13,41,41,230,41*4F
$GLGSV,2,1,07,66,08,149,23,67,60,147,38,68,60,331,32,69,10,330,17*6A
$GLGSV,2,2,07,77,31,028,28,78,66,317,23,79,31,243,35*54
$GNGLL,3030.86372,N,11420.30300,E,060606.00,A,D*7A
$GNRMC,060607.00,A,3030.86295,N,11420.30288,E,2.687,187.94,220119,,,D*74
$GNVTG,187.94,T,,M,2.687,N,4.976,K,D*22
$GNGGA,060607.00,3030.86295,N,11420.30288,E,2,12,0.69,22.2,M,-10.8,M,,0000*5B
$GNGSA,A,3,14,22,26,31,32,10,25,41,29,,,,1.32,0.69,1.12*1B
$GNGSA,A,3,68,79,78,66,77,67,,,,,,,1.32,0.69,1.12*1F
$GPGSV,4,1,13,03,08,322,,10,31,178,35,12,06,037,,14,66,002,35*7D
$GPGSV,4,2,13,16,08,207,,22,23,309,33,25,38,045,30,26,35,206,35*72
$GPGSV,4,3,13,29,17,101,27,31,56,304,41,32,69,060,40,40,18,253,35*74
$GPGSV,4,4,13,41,41,230,42*4C
$GLGSV,2,1,07,66,08,149,30,67,60,147,37,68,60,331,32,69,10,330,17*67
$GLGSV,2,2,07,77,31,028,29,78,66,317,23,79,31,243,35*55
$GNGLL,3030.86295,N,11420.30288,E,060607.00,A,D*72
$GNRMC,060608.00,A,3030.86226,N,11420.30277,E,2.459,188.67,220119,,,D*71
$GNVTG,188.67,T,,M,2.459,N,4.555,K,D*2D
$GNGGA,060608.00,3030.86226,N,11420.30277,E,2,12,0.69,21.9,M,-10.8,M,,0000*54
$GNGSA,A,3,14,22,26,31,32,10,25,41,29,,,,1.32,0.69,1.12*1B
$GNGSA,A,3,68,79,78,66,77,67,,,,,,,1.32,0.69,1.12*1F
$GPGSV,4,1,13,03,08,322,,10,31,178,27,12,06,037,,14,66,002,35*7E
$GPGSV,4,2,13,16,08,207,,22,23,309,35,25,38,045,34,26,35,206,34*71
$GPGSV,4,3,13,29,17,101,31,31,56,304,40,32,69,060,42,40,18,253,37*72
$GPGSV,4,4,13,41,41,230,40*4E
$GLGSV,2,1,07,66,08,149,23,67,60,147,34,68,60,331,32,69,10,330,16*67
$GLGSV,2,2,07,77,31,028,28,78,66,317,23,79,31,243,38*59
$GNGLL,3030.86226,N,11420.30277,E,060608.00,A,D*75
$GNRMC,060609.00,A,3030.86155,N,11420.30260,E,2.625,192.34,220119,,,D*75
$GNVTG,192.34,T,,M,2.625,N,4.862,K,D*20
$GNGGA,060609.00,3030.86155,N,11420.30260,E,2,12,0.69,21.7,M,-10.8,M,,0000*5A
$GNGSA,A,3,14,22,26,31,32,10,25,41,29,,,,1.32,0.69,1.12*1B
$GNGSA,A,3,68,79,78,66,77,67,,,,,,,1.32,0.69,1.12*1F
$GPGSV,4,1,13,03,08,322,,10,31,178,29,12,06,037,,14,66,002,34*71
$GPGSV,4,2,13,16,08,207,,22,23,309,35,25,38,045,31,26,35,206,37*77
$GPGSV,4,3,13,29,18,101,36,31,56,304,40,32,69,060,42,40,18,253,35*78
$GPGSV,4,4,13,41,41,230,40*4E
$GLGSV,2,1,07,66,08,149,23,67,60,147,34,68,60,331,32,69,10,330,16*67
$GLGSV,2,2,07,77,31,028,28,78,66,317,29,79,31,243,39*52
$GNGLL,3030.86155,N,11420.30260,E,060609.00,A,D*75
$GNRMC,060610.00,A,3030.86084,N,11420.30239,E,2.569,192.55,220119,,,D*70
$GNVTG,192.55,T,,M,2.569,N,4.758,K,D*2A
$GNGGA,060610.00,3030.86084,N,11420.30239,E,2,12,0.69,21.7,M,-10.8,M,,0000*53
$GNGSA,A,3,14,22,26,31,32,10,25,41,29,,,,1.32,0.69,1.12*1B
$GNGSA,A,3,68,79,78,66,77,67,,,,,,,1.32,0.69,1.12*1F
$GPGSV,4,1,13,03,08,322,,10,31,178,29,12,06,037,,14,66,002,35*70
$GPGSV,4,2,13,16,08,207,,22,23,309,32,25,38,045,31,26,35,206,34*73
$GPGSV,4,3,13,29,18,101,33,31,56,305,41,32,69,060,41,40,18,253,35*7E
$GPGSV,4,4,13,41,41,230,39*40
$GLGSV,2,1,07,66,08,149,22,67,60,147,34,68,60,331,33,69,10,330,17*66
$GLGSV,2,2,07,77,31,028,28,78,66,317,26,79,31,243,36*52
$GNGLL,3030.86084,N,11420.30239,E,060610.00,A,D*7C
$GNRMC,060611.00,A,3030.86013,N,11420.30221,E,2.383,191.30,220119,,,D*74
$GNVTG,191.30,T,,M,2.383,N,4.414,K,D*23
$GNGGA,060611.00,3030.86013,N,11420.30221,E,2,12,0.69,21.9,M,-10.8,M,,0000*5B
$GNGSA,A,3,14,22,26,31,32,10,25,41,29,,,,1.32,0.69,1.12*1B
$GNGSA,A,3,68,79,78,66,77,67,,,,,,,1.32,0.69,1.12*1F
$GPGSV,4,1,13,03,08,322,19,10,31,178,23,12,06,037,,14,66,002,35*72
$GPGSV,4,2,13,16,08,207,,22,23,309,32,25,38,045,34,26,35,206,36*74
$GPGSV,4,3,13,29,18,101,29,31,56,305,40,32,69,062,42,40,18,253,26*77
$GPGSV,4,4,13,41,41,230,36*4F
$GLGSV,2,1,07,66,08,149,23,67,60,147,35,68,60,331,33,69,10,330,17*66
$GLGSV,2,2,07,77,31,028,26,78,66,317,24,79,31,243,38*50
$GNGLL,3030.86013,N,11420.30221,E,060611.00,A,D*7A
$GNRMC,060612.00,A,3030.85939,N,11420.30203,E,2.728,193.10,220119,,,D*70
$GNVTG,193.10,T,,M,2.728,N,5.052,K,D*21
$GNGGA,060612.00,3030.85939,N,11420.30203,E,2,12,0.69,22.0,M,-10.8,M,,0000*50
$GNGSA,A,3,14,22,26,31,32,10,25,41,29,,,,1.32,0.69,1.12*1B
$GNGSA,A,3,68,79,78,66,77,67,,,,,,,1.32,0.69,1.12*1F
$GPGSV,4,1,13,03,08,322,17,10,31,178,31,12,06,037,,14,66,002,35*7F
$GPGSV,4,2,13,16,08,207,,22,23,309,36,25,38,045,30,26,35,206,29*7A
$GPGSV,4,3,13,29,18,101,34,31,56,305,41,32,69,062,43,40,18,253,35*79
$GPGSV,4,4,13,41,41,230,38*41
$GLGSV,2,1,07,66,08,149,23,67,60,147,37,68,60,331,33,69,10,330,18*6B
$GLGSV,2,2,07,77,31,028,27,78,66,317,22,79,31,243,39*56
$GNGLL,3030.85939,N,11420.30203,E,060612.00,A,D*7B
$GNRMC,060613.00,A,3030.85866,N,11420.30182,E,2.635,193.69,220119,,,D*73
$GNVTG,193.69,T,,M,2.635,N,4.880,K,D*24
$GNGGA,060613.00,3030.85866,N,11420.30182,E,2,12,0.69,21.9,M,-10.8,M,,0000*5A
$GNGSA,A,3,14,22,26,31,32,10,25,41,29,,,,1.32,0.69,1.12*1B
$GNGSA,A,3,68,79,78,66,77,67,,,,,,,1.32,0.69,1.12*1F
$GPGSV,4,1,14,03,08,322,16,10,31,178,34,12,06,037,,14,66,002,34*7D
$GPGSV,4,2,14,16,08,207,,18,01,258,,22,23,309,32,25,38,045,29*7B
$GPGSV,4,3,14,26,35,206,29,29,18,101,36,31,56,305,42,32,69,062,41*7F
$GPGSV,4,4,14,40,18,253,34,41,41,230,37*77
$GLGSV,2,1,07,66,08,149,24,67,60,147,37,68,60,331,33,69,10,330,17*63
$GLGSV,2,2,07,77,31,028,26,78,66,317,22,79,31,243,40*59
$GNGLL,3030.85866,N,11420.30182,E,060613.00,A,D*7B
$GNRMC,060614.00,A,3030.85797,N,11420.30166,E,2.605,192.85,220119,,,D*7F
$GNVTG,192.85,T,,M,2.605,N,4.824,K,D*2A
$GNGGA,060614.00,3030.85797,N,11420.30166,E,2,12,0.69,21.7,M,-10.8,M,,0000*58
$GNGSA,A,3,14,22,26,31,32,10,25,41,29,,,,1.32,0.69,1.12*1B
$GNGSA,A,3,68,79,78,66,77,67,,,,,,,1.32,0.69,1.12*1F
$GPGSV,4,1,14,03,08,322,16,10,31,178,30,12,06,037,,14,66,002,36*7B
$GPGSV,4,2,14,16,08,207,,18,01,258,,22,23,309,33,25,38,045,33*71
$GPGSV,4,3,14,26,35,206,29,29,18,101,37,31,56,305,42,32,69,062,42*7D
$GPGSV,4,4,14,40,18,253,37,41,41,230,39*7A
$GLGSV,2,1,07,66,08,149,22,67,60,147,35,68,60,331,32,69,10,330,16*67
$GLGSV,2,2,07,77,31,028,26,78,66,317,24,79,31,243,36*5E
$GNGLL,3030.85797,N,11420.30166,E,060614.00,A,D*77
$GNRMC,060615.00,A,3030.85726,N,11420.30145,E,2.655,193.48,220119,,,D*70
$GNVTG,193.48,T,,M,2.655,N,4.917,K,D*2E
$GNGGA,060615.00,3030.85726,N,11420.30145,E,2,12,0.69,21.5,M,-10.8,M,,0000*50
$GNGSA,A,3,14,22,26,31,32,03,10,25,41,29,,,1.32,0.69,1.12*18
$GNGSA,A,3,68,79,78,66,77,67,,,,,,,1.32,0.69,1.12*1F
$GPGSV,4,1,14,03,08,322,16,10,31,178,30,12,06,037,,14,66,002,36*7B
$GPGSV,4,2,14,16,08,207,,18,01,258,,22,23,309,36,25,38,045,32*75
$GPGSV,4,3,14,26,35,206,31,29,18,101,24,31,56,305,42,32,69,062,42*76
$GPGSV,4,4,14,40,18,253,31,41,41,230,40*72
$GLGSV,2,1,07,66,08,149,24,67,60,147,37,68,60,331,32,69,10,330,14*61
$GLGSV,2,2,07,77,31,028,27,78,66,317,24,79,31,243,36*5F
$GNGLL,3030.85726,N,11420.30145,E,060615.00,A,D*7D
$GNRMC,060616.00,A,3030.85652,N,11420.30128,E,2.547,191.87,220119,,,D*7B
$GNVTG,191.87,T,,M,2.547,N,4.717,K,D*21
$GNGGA,060616.00,3030.85652,N,11420.30128,E,2,12,0.69,21.5,M,-10.8,M,,0000*5A
$GNGSA,A,3,14,22,26,31,32,03,10,25,41,29,,,1.32,0.69,1.12*18
$GNGSA,A,3,68,79,78,66,77,67,,,,,,,1.32,0.69,1.12*1F
$GPGSV,4,1,14,03,08,322,16,10,31,178,30,12,06,037,,14,66,002,32*7F
$GPGSV,4,2,14,16,08,207,,18,01,258,,22,23,309,34,25,38,045,32*77
$GPGSV,4,3,14,26,35,206,35,29,18,101,29,31,56,305,39,32,69,062,41*70
$GPGSV,4,4,14,40,18,253,35,41,41,230,38*79
$GLGSV,2,1,07,66,08,149,25,67,60,147,33,68,60,331,32,69,10,330,13*63
$GLGSV,2,2,07,77,31,028,28,78,66,317,24,79,31,243,38*5E
$GNGLL,3030.85652,N,11420.30128,E,060616.00,A,D*77
$GNRMC,060617.00,A,3030.85578,N,11420.30116,E,2.644,189.69,220119,,,D*75
$GNVTG,189.69,T,,M,2.644,N,4.897,K,D*2F
$GNGGA,060617.00,3030.85578,N,11420.30116,E,2,12,0.69,21.4,M,-10.8,M,,0000*5C
$GNGSA,A,3,14,22,26,31,32,03,10,25,41,29,,,1.32,0.69,1.12*18
$GNGSA,A,3,68,79,78,66,77,67,,,,,,,1.32,0.69,1.12*1F
$GPGSV,4,1,14,03,08,322,14,10,31,178,29,12,06,037,,14,66,002,33*74
$GPGSV,4,2,14,16,08,207,,18,01,258,,22,23,309,39,25,38,045,32*7A
$GPGSV,4,3,14,26,35,206,34,29,18,101,28,31,56,305,39,32,69,062,42*73
$GPGSV,4,4,14,40,18,253,33,41,41,230,40*70
$GLGSV,2,1,07,66,08,149,23,67,60,147,35,68,60,331,33,69,10,330,11*60
$GLGSV,2,2,07,77,31,028,28,78,66,317,24,79,31,243,38*5E
$GNGLL,3030.85578,N,11420.30116,E,060617.00,A,D*70
$GNRMC,060618.00,A,3030.85500,N,11420.30099,E,2.698,189.62,220119,,,D*79
$GNVTG,189.62,T,,M,2.698,N,4.997,K,D*24
$GNGGA,060618.00,3030.85500,N,11420.30099,E,2,12,0.69,21.4,M,-10.8,M,,0000*5A
$GNGSA,A,3,14,22,26,31,32,03,10,25,41,29,,,1.32,0.69,1.12*18
$GNGSA,A,3,68,79,78,66,77,67,,,,,,,1.32,0.69,1.12*1F
$GPGSV,4,1,14,03,08,322,13,10,31,178,29,12,06,037,,14,66,002,36*76
$GPGSV,4,2,14,16,08,207,,18,01,258,,22,23,309,34,25,38,045,31*74
$GPGSV,4,3,14,26,35,206,37,29,18,101,17,31,56,305,39,32,69,062,40*7E
$GPGSV,4,4,14,40,18,253,32,41,41,230,37*71
$GLGSV,2,1,07,66,08,149,23,67,60,147,32,68,60,331,33,69,10,330,15*63
$GLGSV,2,2,07,77,31,028,28,78,66,317,27,79,31,243,39*5C
$GNGLL,3030.85500,N,11420.30099,E,060618.00,A,D*76
$GNRMC,060619.00,A,3030.85430,N,11420.30078,E,2.441,191.17,220119,,,D*78
$GNVTG,191.17,T,,M,2.441,N,4.522,K,D*2B
$GNGGA,060619.00,3030.85430,N,11420.30078,E,2,12,0.69,21.5,M,-10.8,M,,0000*57
$GNGSA,A,3,14,22,26,31,32,03,10,25,41,29,,,1.32,0.69,1.12*18
$GNGSA,A,3,68,79,78,66,77,67,,,,,,,1.32,0.69,1.12*1F
$GPGSV,4,1,14,03,08,322,11,10,31,178,28,12,06,037,,14,66,002,34*77
$GPGSV,4,2,14,16,08,207,,18,01,258,,22,23,309,31,25,38,045,31*71
$GPGSV,4,3,14,26,35,206,32,29,18,101,20,31,56,305,41,32,69,062,40*70
$GPGSV,4,4,14,40,18,253,35,41,41,230,40*76
$GLGSV,2,1,07,66,08,149,23,67,60,147,32,68,60,331,33,69,10,330,16*60
$GLGSV,2,2,07,77,31,028,27,78,66,317,25,79,31,243,38*50
$GNGLL,3030.85430,N,11420.30078,E,060619.00,A,D*7A
$GNRMC,060620.00,A,3030.85353,N,11420.30060,E,2.858,189.57,220119,,,D*70
$GNVTG,189.57,T,,M,2.858,N,5.294,K,D*29
$GNGGA,060620.00,3030.85353,N,11420.30060,E,2,12,0.69,21.6,M,-10.8,M,,0000*55
$GNGSA,A,3,14,22,26,31,32,03,10,25,41,29,,,1.32,0.69,1.12*18
$GNGSA,A,3,68,79,78,66,77,67,,,,,,,1.32,0.69,1.12*1F
$GPGSV,4,1,14,03,08,322,12,10,31,178,22,12,06,037,,14,66,002,36*7C
$GPGSV,4,2,14,16,08,207,,18,01,258,,22,23,309,35,25,38,045,33*77
$GPGSV,4,3,14,26,35,206,33,29,18,101,20,31,56,305,42,32,69,062,41*73
$GPGSV,4,4,14,40,18,253,34,41,41,230,38*78
$GLGSV,2,1,07,66,08,149,22,67,60,147,36,68,60,331,31,69,10,330,17*66
$GLGSV,2,2,07,77,31,028,27,78,66,317,23,79,31,243,39*57
$GNGLL,3030.85353,N,11420.30060,E,060620.00,A,D*7B
$GNRMC,060621.00,A,3030.85277,N,11420.30042,E,2.701,190.63,220119,,,D*7A
$GNVTG,190.63,T,,M,2.701,N,5.003,K,D*29
$GNGGA,060621.00,3030.85277,N,11420.30042,E,2,12,0.69,21.5,M,-10.8,M,,0000*50
$GNGSA,A,3,14,22,26,31,32,03,10,25,41,29,,,1.32,0.69,1.12*18
$GNGSA,A,3,68,79,78,66,77,67,,,,,,,1.32,0.69,1.12*1F
$GPGSV,4,1,14,03,08,322,12,10,31,178,24,12,06,037,,14,66,002,33*7F
$GPGSV,4,2,14,16,08,207,,18,01,258,,22,23,309,34,25,38,045,32*77
$GPGSV,4,3,14,26,35,206,34,29,18,101,18,31,56,305,38,32,69,062,42*71
$GPGSV,4,4,14,40,18,253,32,41,41,230,38*7E
$GLGSV,2,1,07,66,08,149,20,67,60,147,35,68,60,331,34,69,10,330,17*62
$GLGSV,2,2,07,77,31,028,27,78,66,317,30,79,31,243,37*5B
$GNGLL,3030.85277,N,11420.30042,E,060621.00,A,D*7D
$GNRMC,060622.00,A,3030.85202,N,11420.30025,E,2.674,190.60,220119,,,D*7A
$GNVTG,190.60,T,,M,2.674,N,4.952,K,D*25
$GNGGA,060622.00,3030.85202,N,11420.30025,E,2,12,0.69,21.4,M,-10.8,M,,0000*51
$GNGSA,A,3,14,22,26,31,32,03,10,25,41,29,,,1.32,0.69,1.12*18
$GNGSA,A,3,68,79,78,66,77,67,,,,,,,1.32,0.69,1.12*1F
$GPGSV,4,1,14,03,08,322,14,10,31,178,26,12,06,037,,14,66,002,32*7A
$GPGSV,4,2,14,16,08,207,,18,01,258,,22,23,309,34,25,38,045,33*76
$GPGSV,4,3,14,26,35,206,36,29,18,101,16,31,56,305,39,32,69,062,42*7C
$GPGSV,4,4,14,40,18,253,35,41,41,230,39*78
$GLGSV,2,1,07,66,08,149,19,67,60,147,31,68,60,331,32,69,10,330,16*6B
$GLGSV,2,2,07,77,31,028,27,78,66,317,29,79,31,243,35*51
$GNGLL,3030.85202,N,11420.30025,E,060622.00,A,D*7D
$GNRMC,060623.00,A,3030.85126,N,11420.30010,E,2.726,190.11,220119,,,D*78
$GNVTG,190.11,T,,M,2.726,N,5.048,K,D*26
$GNGGA,060623.00,3030.85126,N,11420.30010,E,2,12,0.69,21.4,M,-10.8,M,,0000*53
$GNGSA,A,3,14,22,26,31,32,03,10,25,41,29,,,1.32,0.69,1.12*18
$GNGSA,A,3,68,79,78,66,77,67,,,,,,,1.32,0.69,1.12*1F
$GPGSV,4,1,14,03,08,322,15,10,31,178,30,12,06,037,,14,66,002,27*78
$GPGSV,4,2,14,16,08,207,,18,01,258,,22,23,309,30,25,38,045,33*72
$GPGSV,4,3,14,26,35,206,38,29,18,101,15,31,56,305,37,32,69,062,42*7F
$GPGSV,4,4,14,40,18,253,35,41,41,230,42*74
$GLGSV,2,1,07,66,08,149,16,67,60,147,32,68,60,331,32,69,10,330,15*64
$GLGSV,2,2,07,77,31,028,26,78,66,317,29,79,31,243,37*52
$GNGLL,3030.85126,N,11420.30010,E,060623.00,A,D*7F
$GNRMC,060624.00,A,3030.85051,N,11420.29992,E,2.676,191.23,220119,,,D*71
$GNVTG,191.23,T,,M,2.676,N,4.956,K,D*25
$GNGGA,060624.00,3030.85051,N,11420.29992,E,2,12,0.69,21.3,M,-10.8,M,,0000*59
$GNGSA,A,3,14,22,26,31,32,10,25,41,29,,,,1.32,0.69,1.12*1B
$GNGSA,A,3,68,79,78,66,77,67,,,,,,,1.32,0.69,1.12*1F
$GPGSV,4,1,14,03,08,322,,10,31,178,27,12,06,037,,14,66,002,34*78
$GPGSV,4,2,14,16,08,207,,18,01,258,,22,23,309,33,25,38,045,33*71
$GPGSV,4,3,14,26,35,206,36,29,18,101,13,31,56,305,39,32,69,062,42*79
$GPGSV,4,4,14,40,18,253,34,41,41,230,40*77
$GLGSV,2,1,07,66,08,149,15,67,60,147,33,68,60,331,31,69,10,330,14*64
$GLGSV,2,2,07,77,31,028,25,78,66,317,20,79,31,243,33*5C
$GNGLL,3030.85051,N,11420.29992,E,060624.00,A,D*72
$GNRMC,060625.00,A,3030.84977,N,11420.29974,E,2.600,190.87,220119,,,D*7A
$GNVTG,190.87,T,,M,2.600,N,4.815,K,D*2D
$GNGGA,060625.00,3030.84977,N,11420.29974,E,2,12,0.69,21.3,M,-10.8,M,,0000*5C
$GNGSA,A,3,14,22,26,31,32,10,25,41,29,,,,1.32,0.69,1.12*1B
$GNGSA,A,3,68,79,78,66,77,67,,,,,,,1.32,0.69,1.12*1F
$GPGSV,4,1,14,03,08,322,,10,31,178,31,12,06,037,,14,66,002,32*79
$GPGSV,4,2,14,16,08,207,,18,01,258,,22,23,309,29,25,38,045,29*71
$GPGSV,4,3,14,26,35,206,36,29,18,101,12,31,56,305,34,32,69,062,39*79
$GPGSV,4,4,14,40,18,253,34,41,41,230,39*79
$GLGSV,2,1,07,66,08,149,14,67,60,147,33,68,60,331,33,69,10,330,16*65
$GLGSV,2,2,07,77,31,028,26,78,66,317,30,79,31,243,38*55
$GNGLL,3030.84977,N,11420.29974,E,060625.00,A,D*77
$GNRMC,060626.00,A,3030.84903,N,11420.29955,E,2.661,191.86,220119,,,D*7E
$GNVTG,191.86,T,,M,2.661,N,4.928,K,D*25
$GNGGA,060626.00,3030.84903,N,11420.29955,E,2,12,0.69,21.3,M,-10.8,M,,0000*5F
$GNGSA,A,3,14,22,26,31,32,10,25,41,29,,,,1.32,0.69,1.12*1B
$GNGSA,A,3,68,79,78,66,77,67,,,,,,,1.32,0.69,1.12*1F
$GPGSV,4,1,14,03,08,322,19,10,31,178,32,12,06,037,,14,66,002,33*73
$GPGSV,4,2,14,16,08,207,,18,01,258,,22,23,309,28,25,38,045,29*70
$GPGSV,4,3,14,26,35,206,36,29,18,101,12,31,56,305,39,32,69,062,41*7B
$GPGSV,4,4,14,40,18,253,34,41,41,230,40*77
$GLGSV,2,1,07,66,08,149,15,67,60,147,33,68,60,331,33,69,10,330,18*6A
$GLGSV,2,2,07,77,31,028,27,78,66,317,29,79,31,243,38*5C
$GNGLL,3030.84903,N,11420.29955,E,060626.00,A,D*74
$GNRMC,060627.00,A,3030.84828,N,11420.29936,E,2.665,191.23,220119,,,D*79
$GNVTG,191.23,T,,M,2.665,N,4.936,K,D*21
$GNGGA,060627.00,3030.84828,N,11420.29936,E,2,12,0.69,21.3,M,-10.8,M,,0000*53
$GNGSA,A,3,14,22,26,31,32,10,25,41,29,,,,1.32,0.69,1.12*1B
$GNGSA,A,3,68,79,78,66,77,67,,,,,,,1.32,0.69,1.12*1F
$GPGSV,4,1,14,03,08,322,,10,31,178,27,12,06,037,,14,66,002,28*75
$GPGSV,4,2,14,16,08,207,,18,01,258,,22,23,309,35,25,38,045,33*77
$GPGSV,4,3,14,26,35,206,36,29,18,101,13,31,56,305,39,32,69,062,41*7A
$GPGSV,4,4,14,40,18,253,34,41,41,230,40*77
$GLGSV,2,1,07,66,08,149,15,67,60,147,28,68,60,331,32,69,10,330,19*60
$GLGSV,2,2,07,77,31,028,26,78,66,317,29,79,31,243,33*56
$GNGLL,3030.84828,N,11420.29936,E,060627.00,A,D*78
$GNRMC,060628.00,A,3030.84751,N,11420.29914,E,2.899,192.35,220119,,,D*7E
$GNVTG,192.35,T,,M,2.899,N,5.368,K,D*28
$GNGGA,060628.00,3030.84751,N,11420.29914,E,2,12,0.69,21.3,M,-10.8,M,,0000*5D
$GNGSA,A,3,14,22,26,31,32,10,25,41,29,,,,1.32,0.69,1.12*1B
$GNGSA,A,3,68,79,78,66,77,67,,,,,,,1.32,0.69,1.12*1F
$GPGSV,4,1,14,03,08,322,19,10,31,178,29,12,06,037,,14,66,002,32*78
$GPGSV,4,2,14,16,08,207,,18,01,258,,22,23,309,32,25,38,045,35*76
$GPGSV,4,3,14,26,35,206,35,29,18,101,14,31,56,305,40,32,69,062,42*73
$GPGSV,4,4,14,40,18,253,34,41,41,230,40*77
$GLGSV,2,1,07,66,08,149,12,67,60,147,33,68,60,331,31,69,10,330,18*6F
$GLGSV,2,2,07,77,31,028,26,78,66,317,29,79,31,243,36*53
$GNGLL,3030.84751,N,11420.29914,E,060628.00,A,D*76
$GNRMC,060629.00,A,3030.84672,N,11420.29891,E,2.816,192.69,220119,,,D*7D
$GNVTG,192.69,T,,M,2.816,N,5.216,K,D*2E
$GNGGA,060629.00,3030.84672,N,11420.29891,E,2,12,0.69,21.5,M,-10.8,M,,0000*56
$GNGSA,A,3,14,22,26,31,32,10,25,41,29,,,,1.32,0.69,1.12*1B
$GNGSA,A,3,68,79,78,66,77,67,,,,,,,1.32,0.69,1.12*1F
$GPGSV,4,1,14,03,08,322,18,10,31,178,22,12,06,037,,14,66,002,32*72
$GPGSV,4,2,14,16,08,207,,18,01,258,,22,23,309,32,25,38,045,31*72
$GPGSV,4,3,14,26,35,206,33,29,18,101,14,31,56,305,40,32,69,062,42*75
$GPGSV,4,4,14,40,18,253,34,41,41,230,40*77
$GLGSV,2,1,07,66,08,149,11,67,60,147,31,68,60,331,29,69,10,330,16*69
$GLGSV,2,2,07,77,31,028,26,78,66,317,29,79,31,243,35*50
$GNGLL,3030.84672,N,11420.29891,E,060629.00,A,D*7B
$GNRMC,060630.00,A,3030.84596,N,11420.29866,E,2.844,194.53,220119,,,D*7C
$GNVTG,194.53,T,,M,2.844,N,5.266,K,D*21
$GNGGA,060630.00,3030.84596,N,11420.29866,E,2,12,0.69,21.5,M,-10.8,M,,0000*5F
$GNGSA,A,3,14,22,26,31,32,10,25,41,29,,,,1.32,0.69,1.12*1B
$GNGSA,A,3,68,79,78,66,77,67,,,,,,,1.32,0.69,1.12*1F
$GPGSV,4,1,14,03,08,322,,10,31,178,29,12,06,037,,14,66,002,32*70
$GPGSV,4,2,14,16,08,207,,18,01,258,,22,23,309,32,25,38,045,31*72
$GPGSV,4,3,14,26,35,206,34,29,18,101,13,31,56,305,39,32,69,062,43*7A
$GPGSV,4,4,14,40,18,253,34,41,41,230,38*78
$GLGSV,2,1,07,66,08,149,10,67,60,147,32,68,60,331,31,69,10,330,18*6C
$GLGSV,2,2,07,77,31,028,26,78,66,317,27,79,31,243,36*5D
$GNGLL,3030.84596,N,11420.29866,E,060630.00,A,D*72
$GNRMC,060631.00,A,3030.84516,N,11420.29847,E,2.994,192.42,220119,,,D*7C
$GNVTG,192.42,T,,M,2.994,N,5.545,K,D*2D
$GNGGA,060631.00,3030.84516,N,11420.29847,E,2,12,0.69,21.4,M,-10.8,M,,0000*54
$GNGSA,A,3,14,22,26,31,32,10,25,41,29,,,,1.32,0.69,1.12*1B
$GNGSA,A,3,68,79,78,66,77,67,,,,,,,1.32,0.69,1.12*1F
$GPGSV,4,1,14,03,08,322,18,10,31,178,27,12,06,037,,14,66,002,33*76
$GPGSV,4,2,14,16,08,207,,18,01,258,,22,23,309,31,25,38,045,31*71
$GPGSV,4,3,14,26,35,206,33,29,18,101,14,31,56,305,41,32,69,062,42*74
$GPGSV,4,4,14,40,18,253,33,41,41,230,35*72
$GLGSV,2,1,07,66,08,149,09,67,60,147,32,68,60,331,31,69,10,330,18*64
$GLGSV,2,2,07,77,31,028,26,78,66,317,28,79,31,243,35*51
$GNGLL,3030.84516,N,11420.29847,E,060631.00,A,D*78
$GNRMC,060632.00,A,3030.84442,N,11420.29828,E,2.731,192.41,220119,,,D*74
$GNVTG,192.41,T,,M,2.731,N,5.057,K,D*29
$GNGGA,060632.00,3030.84442,N,11420.29828,E,2,12,0.65,21.3,M,-10.8,M,,0000*55
$GNGSA,A,3,14,22,26,31,32,10,25,41,29,40,,,1.23,0.65,1.05*15
$GNGSA,A,3,68,79,78,66,77,67,,,,,,,1.23,0.65,1.05*15
$GPGSV,4,1,14,03,08,322,19,10,31,178,21,12,06,037,,14,66,002,32*70
$GPGSV,4,2,14,16,08,207,,18,01,258,,22,23,309,31,25,38,045,32*72
$GPGSV,4,3,14,26,35,206,33,29,18,101,15,31,56,305,43,32,69,062,42*77
$GPGSV,4,4,14,40,18,253,34,41,41,230,37*77
$GLGSV,2,1,07,66,08,149,11,67,60,147,33,68,60,331,29,69,10,330,18*65
$GLGSV,2,2,07,77,31,028,25,78,66,317,27,79,31,243,35*5D
$GNGLL,3030.84442,N,11420.29828,E,060632.00,A,D*72
$GNRMC,060633.00,A,3030.84365,N,11420.29810,E,2.867,192.20,220119,,,D*77
$GNVTG,192.20,T,,M,2.867,N,5.309,K,D*2A
$GNGGA,060633.00,3030.84365,N,11420.29810,E,2,12,0.67,21.2,M,-10.8,M,,0000*5E
$GNGSA,A,3,14,22,26,31,32,10,25,41,29,40,,,1.33,0.67,1.15*17
$GNGSA,A,3,68,79,78,77,67,,,,,,,,1.33,0.67,1.15*17
$GPGSV,4,1,14,03,08,322,18,10,31,178,21,12,06,037,,14,66,002,33*70
$GPGSV,4,2,14,16,08,207,,18,01,258,,22,23,309,35,25,38,045,32*76
$GPGSV,4,3,14,26,35,206,31,29,18,101,14,31,56,305,41,32,69,062,43*77
$GPGSV,4,4,14,40,18,253,32,41,41,230,39*7F
$GLGSV,2,1,07,66,07,149,08,67,60,147,32,68,60,331,30,69,10,330,19*6A
$GLGSV,2,2,07,77,31,028,26,78,66,317,28,79,31,243,33*57
$GNGLL,3030.84365,N,11420.29810,E,060633.00,A,D*7A
$GNRMC,060634.00,A,3030.84288,N,11420.29790,E,2.702,192.66,220119,,,D*7B
$GNVTG,192.66,T,,M,2.702,N,5.004,K,D*2A
$GNGGA,060634.00,3030.84288,N,11420.29790,E,2,12,0.65,21.2,M,-10.8,M,,0000*5E
$GNGSA,A,3,14,22,26,31,32,10,25,41,29,40,,,1.23,0.65,1.05*15
$GNGSA,A,3,68,79,78,66,77,67,,,,,,,1.23,0.65,1.05*15
$GPGSV,4,1,14,03,08,322,23,10,31,178,30,12,06,037,,14,66,002,32*79
$GPGSV,4,2,14,16,08,207,,18,01,258,,22,23,309,35,25,38,045,28*7D
$GPGSV,4,3,14,26,35,206,37,29,18,101,14,31,56,305,39,32,69,062,41*7C
$GPGSV,4,4,14,40,18,253,34,41,41,230,40*77
$GLGSV,2,1,07,66,07,149,09,67,59,148,31,68,60,331,31,69,10,330,20*66
$GLGSV,2,2,07,77,31,028,26,78,66,317,27,79,31,243,34*5F
$GNGLL,3030.84288,N,11420.29790,E,060634.00,A,D*78
$GNRMC,060635.00,A,3030.84209,N,11420.29775,E,2.766,190.70,220119,,,D*7F
$GNVTG,190.70,T,,M,2.766,N,5.123,K,D*29
$GNGGA,060635.00,3030.84209,N,11420.29775,E,2,12,0.65,21.2,M,-10.8,M,,0000*5D
$GNGSA,A,3,14,22,26,31,32,10,25,41,29,40,,,1.23,0.65,1.05*15
$GNGSA,A,3,68,79,78,66,77,67,,,,,,,1.23,0.65,1.05*15
$GPGSV,4,1,14,03,08,322,20,10,31,178,24,12,06,037,,14,66,002,32*7F
$GPGSV,4,2,14,16,08,207,,18,01,258,,22,23,309,37,25,38,045,32*74
$GPGSV,4,3,14,26,35,206,36,29,18,101,15,31,56,305,37,32,69,062,41*72
$GPGSV,4,4,14,40,18,253,33,41,41,230,38*7F
$GLGSV,2,1,07,66,07,149,08,67,59,148,35,68,60,331,33,69,10,330,27*66
$GLGSV,2,2,07,77,31,028,27,78,66,317,31,79,31,243,36*5B
$GNGLL,3030.84209,N,11420.29775,E,060635.00,A,D*7B
$GNRMC,060636.00,A,3030.84133,N,11420.29763,E,2.645,189.67,220119,,,D*7F
$GNVTG,189.67,T,,M,2.645,N,4.898,K,D*2F
$GNGGA,060636.00,3030.84133,N,11420.29763,E,2,12,0.67,21.1,M,-10.8,M,,0000*52
$GNGSA,A,3,14,22,26,31,32,10,25,41,29,40,,,1.33,0.67,1.15*17
$GNGSA,A,3,68,79,78,77,67,,,,,,,,1.33,0.67,1.15*17
$GPGSV,4,1,14,03,08,322,20,10,31,178,30,12,06,037,,14,66,002,32*7A
$GPGSV,4,2,14,16,08,207,,18,01,258,,22,23,309,29,25,38,045,31*78
$GPGSV,4,3,14,26,35,206,36,29,18,101,16,31,56,305,37,32,69,062,41*71
$GPGSV,4,4,14,40,18,253,35,41,41,230,40*76
$GLGSV,2,1,07,66,07,149,07,67,59,148,31,68,60,331,33,69,10,330,26*6C
$GLGSV,2,2,07,77,31,028,26,78,66,317,31,79,31,243,34*58
$GNGLL,3030.84133,N,11420.29763,E,060636.00,A,D*75
$GNRMC,060637.00,A,3030.84064,N,11420.29752,E,2.437,188.17,220119,,,D*7E
$GNVTG,188.17,T,,M,2.437,N,4.514,K,D*27
$GNGGA,060637.00,3030.84064,N,11420.29752,E,2,12,0.65,21.1,M,-10.8,M,,0000*50
$GNGSA,A,3,14,22,26,31,32,10,25,41,29,40,,,1.23,0.65,1.05*15
$GNGSA,A,3,68,79,78,66,77,67,,,,,,,1.23,0.65,1.05*15
$GPGSV,4,1,14,03,08,322,24,10,31,178,29,12,06,037,,14,66,002,31*75
$GPGSV,4,2,14,16,08,207,,18,01,258,,22,23,309,33,25,38,045,30*72
$GPGSV,4,3,14,26,35,206,40,29,18,101,17,31,56,305,37,32,69,062,41*71
$GPGSV,4,4,14,40,18,253,35,41,41,230,38*79
$GLGSV,2,1,07,66,07,149,11,67,59,148,32,68,60,331,32,69,10,330,25*6A
$GLGSV,2,2,07,77,31,028,26,78,66,317,25,79,31,243,34*5D
$GNGLL,3030.84064,N,11420.29752,E,060637.00,A,D*75
$GNRMC,060638.00,A,3030.83986,N,11420.29736,E,2.813,189.23,220119,,,D*7D
$GNVTG,189.23,T,,M,2.813,N,5.209,K,D*21
$GNGGA,060638.00,3030.83986,N,11420.29736,E,2,12,0.65,21.1,M,-10.8,M,,0000*5F
$GNGSA,A,3,14,22,26,31,32,10,25,41,29,40,,,1.23,0.65,1.05*15
$GNGSA,A,3,68,79,78,66,77,67,,,,,,,1.23,0.65,1.05*15
$GPGSV,4,1,14,03,08,322,24,10,31,178,25,12,06,037,,14,66,002,32*7A
$GPGSV,4,2,14,16,08,207,,18,01,258,,22,23,309,33,25,38,045,31*73
$GPGSV,4,3,14,26,35,206,37,29,18,101,17,31,56,305,39,32,69,062,40*7E
$GPGSV,4,4,14,40,18,253,34,41,41,230,39*79
$GLGSV,2,1,07,66,07,149,10,67,59,148,35,68,60,331,33,69,10,330,26*6E
$GLGSV,2,2,07,77,31,028,26,78,66,317,30,79,31,243,37*5A
$GNGLL,3030.83986,N,11420.29736,E,060638.00,A,D*7A
$GNRMC,060639.00,A,3030.83905,N,11420.29721,E,2.895,189.18,220119,,,D*77
$GNVTG,189.18,T,,M,2.895,N,5.361,K,D*28
$GNGGA,060639.00,3030.83905,N,11420.29721,E,2,12,0.65,21.2,M,-10.8,M,,0000*50
$GNGSA,A,3,14,22,26,31,32,10,25,41,29,40,,,1.23,0.65,1.05*15
$GNGSA,A,3,68,79,78,66,77,67,,,,,,,1.23,0.65,1.05*15
$GPGSV,4,1,14,03,08,322,23,10,31,178,30,12,06,037,,14,66,002,32*79
$GPGSV,4,2,14,16,08,207,,18,01,258,,22,23,309,32,25,38,045,34*77
$GPGSV,4,3,14,26,35,206,37,29,18,101,21,31,56,305,40,32,69,062,40*75
$GPGSV,4,4,14,40,18,253,31,41,41,230,39*7C
$GLGSV,2,1,07,66,07,149,10,67,59,148,34,68,60,331,33,69,10,330,27*6E
$GLGSV,2,2,07,77,31,028,27,78,66,317,30,79,31,243,37*5B
$GNGLL,3030.83905,N,11420.29721,E,060639.00,A,D*76
$GNRMC,060640.00,A,3030.83822,N,11420.29710,E,2.955,187.49,220119,,,D*78
$GNVTG,187.49,T,,M,2.955,N,5.473,K,D*2B
$GNGGA,060640.00,3030.83822,N,11420.29710,E,2,12,0.61,21.1,M,-10.8,M,,0000*5F
$GNGSA,A,3,14,22,26,31,32,03,10,25,41,29,40,,1.08,0.61,0.89*1E
$GNGSA,A,3,68,79,78,66,77,67,,,,,,,1.08,0.61,0.89*1D
$GPGSV,4,1,14,03,08,322,22,10,31,178,21,12,06,037,,14,66,002,32*78
$GPGSV,4,2,14,16,08,207,,18,01,258,,22,23,309,27,25,38,045,29*7F
$GPGSV,4,3,14,26,35,206,34,29,18,101,22,31,56,305,38,32,69,062,41*7B
$GPGSV,4,4,14,40,18,253,31,41,41,230,39*7C
$GLGSV,2,1,07,66,07,149,10,67,59,148,34,68,60,331,32,69,10,330,27*6F
$GLGSV,2,2,07,77,31,028,26,78,66,317,30,79,31,243,36*5B
$GNGLL,3030.83822,N,11420.29710,E,060640.00,A,D*7E
$GNRMC,060641.00,A,3030.83739,N,11420.29693,E,2.909,189.40,220119,,,D*78
$GNVTG,189.40,T,,M,2.909,N,5.387,K,D*29
$GNGGA,060641.00,3030.83739,N,11420.29693,E,2,12,0.61,21.1,M,-10.8,M,,0000*51
$GNGSA,A,3,14,22,26,31,32,03,10,25,41,29,40,,1.08,0.61,0.89*1E
$GNGSA,A,3,68,79,78,66,77,67,,,,,,,1.08,0.61,0.89*1D
$GPGSV,4,1,14,03,08,322,21,10,31,178,23,12,06,037,,14,66,002,32*79
$GPGSV,4,2,14,16,08,207,,18,01,258,,22,23,309,31,25,38,045,30*70
$GPGSV,4,3,14,26,35,206,36,29,18,101,25,31,56,305,42,32,69,062,42*70
$GPGSV,4,4,14,40,18,253,35,41,41,230,40*76
$GLGSV,2,1,07,66,07,149,10,67,59,148,33,68,60,331,32,69,10,330,28*67
$GLGSV,2,2,07,77,31,028,25,78,66,317,30,79,31,243,36*58
$GNGLL,3030.83739,N,11420.29693,E,060641.00,A,D*70
$GNRMC,060642.00,A,3030.83658,N,11420.29680,E,2.891,189.64,220119,,,D*79
$GNVTG,189.64,T,,M,2.891,N,5.354,K,D*21
$GNGGA,060642.00,3030.83658,N,11420.29680,E,2,12,0.67,20.9,M,-10.8,M,,0000*59
$GNGSA,A,3,14,22,26,31,32,03,10,25,41,29,40,,1.33,0.67,1.15*14
$GNGSA,A,3,68,79,78,66,77,67,,,,,,,1.33,0.67,1.15*17
$GPGSV,4,1,14,03,08,322,22,10,31,178,26,12,06,037,,14,66,002,32*7F
$GPGSV,4,2,14,16,08,207,,18,01,258,,22,23,309,30,25,38,045,28*78
$GPGSV,4,3,14,26,35,206,36,29,18,101,35,31,56,305,41,32,69,062,39*7E
$GPGSV,4,4,14,40,18,253,37,41,41,230,40*74
$GLGSV,2,1,07,66,07,149,11,67,59,148,33,68,60,331,32,69,10,330,29*67
$GLGSV,2,2,07,77,31,028,26,78,66,317,29,79,31,243,36*53
$GNGLL,3030.83658,N,11420.29680,E,060642.00,A,D*77
$GNRMC,060643.00,A,3030.83567,N,11420.29670,E,2.972,187.91,220119,,,D*70
$GNVTG,187.91,T,,M,2.972,N,5.504,K,D*2A
$GNGGA,060643.00,3030.83567,N,11420.29670,E,2,12,0.61,20.9,M,-10.8,M,,0000*5E
$GNGSA,A,3,14,22,26,31,32,03,10,25,41,29,40,,1.08,0.61,0.89*1E
$GNGSA,A,3,68,79,78,66,77,67,,,,,,,1.08,0.61,0.89*1D
$GPGSV,4,1,14,03,08,322,23,10,31,178,27,12,06,037,,14,66,002,33*7E
$GPGSV,4,2,14,16,08,207,,18,01,258,,22,23,309,22,25,38,045,28*7B
$GPGSV,4,3,14,26,35,206,38,29,18,101,30,31,56,305,38,32,69,062,42*77
$GPGSV,4,4,14,40,18,253,37,41,41,230,41*75
$GLGSV,2,1,07,66,07,149,08,67,59,148,30,68,60,331,32,69,10,330,29*6C
$GLGSV,2,2,07,77,31,028,26,78,66,317,32,79,31,243,36*59
$GNGLL,3030.83567,N,11420.29670,E,060643.00,A,D*76
$GNRMC,060644.00,A,3030.83473,N,11420.29658,E,2.756,188.21,220119,,,D*75
$GNVTG,188.21,T,,M,2.756,N,5.104,K,D*22
$GNGGA,060644.00,3030.83473,N,11420.29658,E,2,12,0.61,21.2,M,-10.8,M,,0000*5D
$GNGSA,A,3,14,22,26,31,32,03,10,25,41,29,40,,1.08,0.61,0.89*1E
$GNGSA,A,3,68,79,78,66,77,67,,,,,,,1.08,0.61,0.89*1D
$GPGSV,4,1,14,03,08,322,30,10,31,178,28,12,06,037,,14,66,002,37*77
$GPGSV,4,2,14,16,08,207,,18,01,258,,22,23,309,31,25,38,045,33*73
$GPGSV,4,3,14,26,35,206,40,29,18,101,24,31,56,305,40,32,69,062,43*73
$GPGSV,4,4,14,40,18,253,34,41,41,230,44*73
$GLGSV,2,1,07,66,07,149,10,67,59,148,35,68,60,331,34,69,10,330,29*66
$GLGSV,2,2,07,77,30,028,27,78,66,317,30,79,31,243,39*54
$GNGLL,3030.83473,N,11420.29658,E,060644.00,A,D*7F
$GNRMC,060645.00,A,3030.83392,N,11420.29644,E,2.789,189.82,220119,,,D*7B
$GNVTG,189.82,T,,M,2.789,N,5.166,K,D*2C
$GNGGA,060645.00,3030.83392,N,11420.29644,E,2,12,0.63,20.9,M,-10.8,M,,0000*51
$GNGSA,A,3,14,22,26,31,32,03,10,25,41,29,40,,1.16,0.63,0.98*13
$GNGSA,A,3,68,79,78,66,77,67,,,,,,,1.16,0.63,0.98*10
$GPGSV,4,1,14,03,08,322,24,10,31,178,30,12,06,037,,14,66,002,33*7F
$GPGSV,4,2,14,16,08,207,,18,01,258,,22,23,309,32,25,38,045,27*75
$GPGSV,4,3,14,26,35,206,38,29,18,101,38,31,56,305,34,32,69,062,42*73
$GPGSV,4,4,14,40,18,253,37,41,41,230,41*75
$GLGSV,2,1,07,66,07,149,11,67,59,148,33,68,60,331,34,69,10,330,29*61
$GLGSV,2,2,07,77,30,028,27,78,66,319,30,79,31,243,38*5B
$GNGLL,3030.83392,N,11420.29644,E,060645.00,A,D*7B
$GNRMC,060646.00,A,3030.83327,N,11420.29645,E,2.135,185.41,220119,,,D*75
$GNVTG,185.41,T,,M,2.135,N,3.954,K,D*21
$GNGGA,060646.00,3030.83327,N,11420.29645,E,2,12,0.61,20.2,M,-10.8,M,,0000*54
$GNGSA,A,3,14,22,26,31,32,03,10,25,41,29,40,,1.08,0.61,0.89*1E
$GNGSA,A,3,68,79,78,66,77,67,,,,,,,1.08,0.61,0.89*1D
$GPGSV,4,1,14,03,08,322,24,10,31,178,30,12,06,037,,14,66,002,32*7E
$GPGSV,4,2,14,16,08,207,,18,01,258,,22,23,309,30,25,38,045,25*75
$GPGSV,4,3,14,26,35,206,37,29,18,101,30,31,56,305,36,32,69,062,40*74
$GPGSV,4,4,14,40,18,253,31,41,41,230,39*7C
$GLGSV,2,1,07,66,07,149,09,67,59,148,33,68,60,331,33,69,10,330,30*67
$GLGSV,2,2,07,77,30,028,27,78,66,319,30,79,32,244,36*51
$GNGLL,3030.83327,N,11420.29645,E,060646.00,A,D*77
$GNRMC,060647.00,A,3030.83251,N,11420.29632,E,2.604,186.68,220119,,,D*79
$GNVTG,186.68,T,,M,2.604,N,4.822,K,D*2B
$GNGGA,060647.00,3030.83251,N,11420.29632,E,2,12,0.61,20.2,M,-10.8,M,,0000*55
$GNGSA,A,3,14,22,26,31,32,03,10,25,41,29,40,,1.08,0.61,0.89*1E
$GNGSA,A,3,68,79,78,66,77,67,,,,,,,1.08,0.61,0.89*1D
$GPGSV,4,1,14,03,08,322,23,10,31,178,34,12,06,037,,14,66,002,29*77
$GPGSV,4,2,14,16,08,207,,18,01,258,,22,23,309,30,25,38,045,27*77
$GPGSV,4,3,14,26,35,206,37,29,18,101,29,31,56,305,33,32,69,062,40*79
$GPGSV,4,4,14,40,18,253,30,41,41,230,37*73
$GLGSV,2,1,07,66,07,149,12,67,59,148,28,68,60,331,33,69,10,330,31*66
$GLGSV,2,2,07,77,30,028,26,78,66,319,30,79,32,244,38*5E
$GNGLL,3030.83251,N,11420.29632,E,060647.00,A,D*76
$GNRMC,060648.00,A,3030.83172,N,11420.29615,E,2.738,191.22,220119,,,D*77
$GNVTG,191.22,T,,M,2.738,N,5.071,K,D*22
$GNGGA,060648.00,3030.83172,N,11420.29615,E,2,12,0.63,19.8,M,-10.8,M,,0000*5F
$GNGSA,A,3,14,22,26,31,32,03,10,25,41,29,40,,1.17,0.63,0.98*12
$GNGSA,A,3,68,79,78,66,77,67,,,,,,,1.17,0.63,0.98*11
$GPGSV,4,1,14,03,08,322,30,10,31,178,32,12,06,037,,14,66,002,30*7B
$GPGSV,4,2,14,16,08,207,,18,01,258,,22,23,309,34,25,38,045,28*7C
$GPGSV,4,3,14,26,35,206,38,29,18,101,36,31,56,305,38,32,69,062,42*71
$GPGSV,4,4,14,40,18,253,31,41,41,230,38*7D
$GLGSV,2,1,07,66,07,149,09,67,59,148,33,68,60,331,33,69,10,330,31*66
$GLGSV,2,2,07,77,30,028,26,78,66,319,30,79,32,244,39*5F
$GNGLL,3030.83172,N,11420.29615,E,060648.00,A,D*7E
$GNRMC,060649.00,A,3030.83091,N,11420.29594,E,2.811,193.37,220119,,,D*72
$GNVTG,193.37,T,,M,2.811,N,5.206,K,D*22
$GNGGA,060649.00,3030.83091,N,11420.29594,E,2,12,0.61,19.9,M,-10.8,M,,0000*5B
$GNGSA,A,3,14,22,26,31,32,03,10,25,41,29,40,,1.08,0.61,0.89*1E
$GNGSA,A,3,68,79,78,66,77,67,,,,,,,1.08,0.61,0.89*1D
$GPGSV,4,1,14,03,08,322,29,10,31,178,27,12,06,037,,14,66,002,32*75
$GPGSV,4,2,14,16,08,207,,18,01,258,,22,23,309,34,25,38,045,28*7C
$GPGSV,4,3,14,26,35,206,35,29,18,101,34,31,56,305,38,32,69,062,42*7E
$GPGSV,4,4,14,40,18,253,31,41,41,230,41*73
$GLGSV,2,1,07,66,07,149,10,67,59,148,33,68,60,331,33,69,10,330,31*6E
$GLGSV,2,2,07,77,30,028,26,78,66,319,26,79,32,244,35*54
$GNGLL,3030.83091,N,11420.29594,E,060649.00,A,D*79
$GNRMC,060650.00,A,3030.83014,N,11420.29566,E,2.698,194.03,220119,,,D*75
$GNVTG,194.03,T,,M,2.698,N,4.997,K,D*2F
$GNGGA,060650.00,3030.83014,N,11420.29566,E,2,12,0.61,20.0,M,-10.8,M,,0000*50
$GNGSA,A,3,14,22,26,31,32,03,10,25,41,29,40,,1.08,0.61,0.89*1E
$GNGSA,A,3,68,79,78,66,77,67,,,,,,,1.08,0.61,0.89*1D
$GPGSV,4,1,14,03,08,322,29,10,31,178,28,12,06,037,,14,66,002,33*7B
$GPGSV,4,2,14,16,08,207,,18,01,258,,22,23,309,32,25,38,045,27*75
$GPGSV,4,3,14,26,35,206,37,29,18,101,24,31,56,305,36,32,69,062,42*73
$GPGSV,4,4,14,40,18,253,34,41,41,230,40*77
$GLGSV,2,1,07,66,07,149,10,67,59,148,36,68,60,331,33,69,10,330,31*6B
$GLGSV,2,2,07,77,30,028,26,78,66,319,31,79,32,244,39*5E
$GNGLL,3030.83014,N,11420.29566,E,060650.00,A,D*71
$GNRMC,060651.00,A,3030.82935,N,11420.29543,E,2.884,192.95,220119,,,D*72
$GNVTG,192.95,T,,M,2.884,N,5.341,K,D*25
$GNGGA,060651.00,3030.82935,N,11420.29543,E,2,12,0.63,19.8,M,-10.8,M,,0000*5D
$GNGSA,A,3,14,22,26,31,32,03,10,25,41,29,40,,1.17,0.63,0.98*12
$GNGSA,A,3,68,79,78,66,77,67,,,,,,,1.17,0.63,0.98*11
$GPGSV,4,1,14,03,08,322,29,10,31,178,29,12,06,037,,14,66,002,33*7A
$GPGSV,4,2,14,16,08,207,,18,01,258,,22,23,309,32,25,38,045,27*75
$GPGSV,4,3,14,26,35,206,37,29,18,101,24,31,56,305,37,32,69,062,40*70
$GPGSV,4,4,14,40,18,253,31,41,41,230,39*7C
$GLGSV,2,1,07,66,07,149,08,67,59,148,34,68,60,331,33,69,10,330,30*61
$GLGSV,2,2,07,77,30,028,26,78,66,319,32,79,32,244,38*5C
$GNGLL,3030.82935,N,11420.29543,E,060651.00,A,D*7C
$GNRMC,060652.00,A,3030.82853,N,11420.29522,E,2.956,193.64,220119,,,D*76
$GNVTG,193.64,T,,M,2.956,N,5.475,K,D*24
$GNGGA,060652.00,3030.82853,N,11420.29522,E,2,12,0.63,19.4,M,-10.8,M,,0000*54
$GNGSA,A,3,14,22,26,31,32,03,10,25,41,29,40,,1.17,0.63,0.98*12
$GNGSA,A,3,68,79,78,77,67,,,,,,,,1.17,0.63,0.98*11
$GPGSV,4,1,14,03,08,322,30,10,31,178,33,12,06,037,,14,66,002,32*78
$GPGSV,4,2,14,16,08,207,,18,01,258,,22,23,309,31,25,38,045,29*78
$GPGSV,4,3,14,26,35,206,35,29,18,101,25,31,56,305,37,32,69,062,40*73
$GPGSV,4,4,14,40,18,253,32,41,41,230,41*70
$GLGSV,2,1,07,66,07,149,07,67,59,148,34,68,60,331,33,69,10,330,29*66
$GLGSV,2,2,07,77,30,028,26,78,66,319,31,79,32,244,38*5F
$GNGLL,3030.82853,N,11420.29522,E,060652.00,A,D*79
$GNRMC,060653.00,A,3030.82772,N,11420.29502,E,2.858,193.16,220119,,,D*73
$GNVTG,193.16,T,,M,2.858,N,5.292,K,D*21
$GNGGA,060653.00,3030.82772,N,11420.29502,E,2,12,0.61,19.1,M,-10.8,M,,0000*5C
$GNGSA,A,3,14,22,26,31,32,03,10,25,41,29,40,,1.08,0.61,0.89*1E
$GNGSA,A,3,68,79,78,66,77,67,,,,,,,1.08,0.61,0.89*1D
$GPGSV,4,1,14,03,08,322,34,10,31,178,38,12,06,037,,14,66,002,35*70
$GPGSV,4,2,14,16,08,207,,18,01,258,,22,23,309,34,25,38,045,29*7D
$GPGSV,4,3,14,26,35,206,39,29,18,101,24,31,56,305,39,32,69,062,39*7E
$GPGSV,4,4,14,40,18,253,32,41,41,230,42*73
$GLGSV,2,1,07,66,07,149,08,67,59,148,37,68,60,331,29,69,10,330,28*60
$GLGSV,2,2,07,77,30,028,26,78,66,319,23,79,32,244,38*5C
$GNGLL,3030.82772,N,11420.29502,E,060653.00,A,D*76
$GNRMC,060654.00,A,3030.82689,N,11420.29486,E,2.756,192.32,220119,,,D*7A
$GNVTG,192.32,T,,M,2.756,N,5.105,K,D*2A
$GNGGA,060654.00,3030.82689,N,11420.29486,E,2,12,0.63,18.8,M,-10.8,M,,0000*59
$GNGSA,A,3,14,22,26,31,32,03,10,25,41,29,40,,1.17,0.63,0.98*12
$GNGSA,A,3,68,79,78,66,77,67,,,,,,,1.17,0.63,0.98*11
$GPGSV,4,1,14,03,08,322,29,10,31,178,39,12,06,037,,14,66,002,36*7E
$GPGSV,4,2,14,16,08,207,,18,01,258,,22,23,309,37,25,38,045,28*7F
$GPGSV,4,3,14,26,35,206,41,29,18,101,22,31,56,305,43,32,69,062,42*76
$GPGSV,4,4,14,40,18,253,36,41,41,230,43*76
$GLGSV,2,1,07,66,07,149,10,67,59,148,37,68,60,331,28,69,10,330,29*69
$GLGSV,2,2,07,77,30,028,26,78,66,319,23,79,32,244,38*5C
$GNGLL,3030.82689,N,11420.29486,E,060654.00,A,D*79
$GNRMC,060655.00,A,3030.82610,N,11420.29470,E,2.808,192.04,220119,,,D*73
$GNVTG,192.04,T,,M,2.808,N,5.201,K,D*2C
$GNGGA,060655.00,3030.82610,N,11420.29470,E,2,12,0.61,18.5,M,-10.8,M,,0000*5E
$GNGSA,A,3,14,22,26,31,32,03,10,25,41,29,40,,1.08,0.61,0.89*1E
$GNGSA,A,3,68,79,78,66,77,67,,,,,,,1.08,0.61,0.89*1D
$GPGSV,4,1,14,03,08,322,29,10,31,178,36,12,06,037,,14,66,002,33*74
$GPGSV,4,2,14,16,08,207,,18,01,258,,22,23,309,33,25,38,045,27*74
$GPGSV,4,3,14,26,35,206,37,29,18,101,19,31,56,305,38,32,69,062,41*70
$GPGSV,4,4,14,40,18,253,33,41,41,230,41*71
$GLGSV,2,1,07,66,07,149,10,67,59,148,34,68,60,331,30,69,10,330,28*62
$GLGSV,2,2,07,77,30,028,26,78,66,319,24,79,32,244,37*54
$GNGLL,3030.82610,N,11420.29470,E,060655.00,A,D*71
$GNRMC,060656.00,A,3030.82530,N,11420.29456,E,2.749,192.23,220119,,,D*7A
$GNVTG,192.23,T,,M,2.749,N,5.091,K,D*28
$GNGGA,060656.00,3030.82530,N,11420.29456,E,2,12,0.61,18.4,M,-10.8,M,,0000*59
$GNGSA,A,3,14,22,26,31,32,03,10,25,41,29,40,,1.08,0.61,0.89*1E
$GNGSA,A,3,68,79,78,66,77,67,,,,,,,1.08,0.61,0.89*1D
$GPGSV,4,1,14,03,08,322,29,10,31,178,34,12,06,037,,14,66,002,36*73
$GPGSV,4,2,14,16,08,207,,18,01,258,,22,23,309,35,25,38,045,26*73
$GPGSV,4,3,14,26,35,206,32,29,18,101,19,31,56,305,38,32,69,062,41*75
$GPGSV,4,4,14,40,18,253,33,41,41,230,41*71
$GLGSV,2,1,07,66,07,149,10,67,59,148,37,68,60,331,30,69,10,330,30*68
$GLGSV,2,2,07,77,30,028,25,78,66,319,25,79,32,244,37*56
$GNGLL,3030.82530,N,11420.29456,E,060656.00,A,D*77
$GNRMC,060657.00,A,3030.82453,N,11420.29443,E,2.698,191.00,220119,,,D*74
$GNVTG,191.00,T,,M,2.698,N,4.997,K,D*29
$GNGGA,060657.00,3030.82453,N,11420.29443,E,2,12,0.63,18.3,M,-10.8,M,,0000*5D
$GNGSA,A,3,14,22,26,31,32,03,10,25,41,29,40,,1.17,0.63,0.98*12
$GNGSA,A,3,68,79,78,66,77,67,,,,,,,1.17,0.63,0.98*11
$GPGSV,4,1,14,03,08,322,32,10,31,178,33,12,06,037,,14,66,002,32*7A
$GPGSV,4,2,14,16,08,207,,18,01,258,,22,23,309,34,25,38,045,27*73
$GPGSV,4,3,14,26,35,206,36,29,18,101,18,31,56,305,39,32,69,062,41*71
$GPGSV,4,4,14,40,18,253,33,41,41,230,39*7E
$GLGSV,2,1,07,66,07,149,09,67,59,148,34,68,60,331,34,69,10,330,30*67
$GLGSV,2,2,07,77,30,028,24,78,66,319,31,79,32,244,37*52
$GNGLL,3030.82453,N,11420.29443,E,060657.00,A,D*76
$GNRMC,060658.00,A,3030.82377,N,11420.29430,E,2.611,190.47,220119,,,D*7D
$GNVTG,190.47,T,,M,2.611,N,4.836,K,D*20
$GNGGA,060658.00,3030.82377,N,11420.29430,E,2,12,0.61,18.1,M,-10.8,M,,0000*57
$GNGSA,A,3,14,22,26,31,32,03,10,25,41,29,40,,1.08,0.61,0.89*1E
$GNGSA,A,3,68,79,78,66,77,67,,,,,,,1.08,0.61,0.89*1D
$GPGSV,4,1,14,03,08,322,28,10,31,178,33,12,06,037,,14,66,002,31*72
$GPGSV,4,2,14,16,08,207,,18,01,258,,22,23,309,30,25,38,045,32*73
$GPGSV,4,3,14,26,35,206,38,29,18,101,16,31,56,305,38,32,69,062,41*70
$GPGSV,4,4,14,40,18,253,33,41,41,230,41*71
$GLGSV,2,1,07,66,07,149,09,67,59,148,33,68,60,331,33,69,10,330,31*66
$GLGSV,2,2,07,77,30,028,23,78,66,319,31,79,32,244,37*55
$GNGLL,3030.82377,N,11420.29430,E,060658.00,A,D*7C
$GNRMC,060659.00,A,3030.82297,N,11420.29416,E,2.794,190.96,220119,,,D*77
$GNVTG,190.96,T,,M,2.794,N,5.174,K,D*2E
$GNGGA,060659.00,3030.82297,N,11420.29416,E,2,12,0.61,18.0,M,-10.8,M,,0000*5C
$GNGSA,A,3,14,22,26,31,32,03,10,25,41,29,40,,1.08,0.61,0.89*1E
$GNGSA,A,3,68,79,78,66,77,67,,,,,,,1.08,0.61,0.89*1D
$GPGSV,4,1,14,03,08,322,28,10,31,178,28,12,06,037,,14,66,002,30*79
$GPGSV,4,2,14,16,08,207,,18,01,258,,22,23,309,29,25,38,045,27*7F
$GPGSV,4,3,14,26,35,206,38,29,18,101,13,31,56,305,40,32,69,062,44*7F
$GPGSV,4,4,14,40,18,253,33,41,41,230,41*71
$GLGSV,2,1,07,66,07,149,10,67,59,148,33,68,60,331,34,69,10,330,30*68
$GLGSV,2,2,07,77,30,028,23,78,66,319,34,79,32,244,37*50
$GNGLL,3030.82297,N,11420.29416,E,060659.00,A,D*76
$GNRMC,060700.00,A,3030.82234,N,11420.29414,E,2.106,189.66,220119,,,D*7B
$GNVTG,189.66,T,,M,2.106,N,3.901,K,D*28
$GNGGA,060700.00,3030.82234,N,11420.29414,E,2,12,0.63,17.3,M,-10.8,M,,0000*54
$GNGSA,A,3,14,22,26,31,32,03,10,25,41,29,40,,1.17,0.63,0.98*12
$GNGSA,A,3,68,79,78,66,77,67,,,,,,,1.17,0.63,0.98*11
$GPGSV,4,1,14,03,08,322,29,10,31,178,26,12,06,037,,14,66,002,34*72
$GPGSV,4,2,14,16,08,207,,18,01,258,,22,23,309,29,25,38,045,28*70
$GPGSV,4,3,14,26,35,206,37,29,18,101,15,31,56,305,40,32,69,062,41*73
$GPGSV,4,4,14,40,18,253,35,41,41,230,40*76
$GLGSV,2,1,07,66,07,149,14,67,59,148,33,68,60,331,34,69,10,330,30*6C
$GLGSV,2,2,07,77,30,028,23,78,66,319,32,79,32,244,38*59
$GNGLL,3030.82234,N,11420.29414,E,060700.00,A,D*70
$GNRMC,060701.00,A,3030.82206,N,11420.29387,E,0.997,206.68,220119,,,D*7E
$GNVTG,206.68,T,,M,0.997,N,1.847,K,D*21
$GNGGA,060701.00,3030.82206,N,11420.29387,E,2,12,0.61,17.1,M,-10.8,M,,0000*59
$GNGSA,A,3,14,22,26,31,32,03,10,25,41,29,40,,1.08,0.61,0.89*1E
$GNGSA,A,3,68,79,78,66,77,67,,,,,,,1.08,0.61,0.89*1D
$GPGSV,4,1,14,03,08,322,35,10,31,178,37,12,06,037,,14,66,002,34*7F
$GPGSV,4,2,14,16,08,207,,18,01,258,,22,23,309,38,25,38,045,18*73
$GPGSV,4,3,14,26,35,206,39,29,18,101,14,31,56,305,39,32,69,062,35*71
$GPGSV,4,4,14,40,18,253,27,41,41,230,37*75
$GLGSV,2,1,07,66,07,149,10,67,59,148,35,68,60,331,23,69,10,330,29*60
$GLGSV,2,2,07,77,30,028,22,78,66,319,17,79,32,244,34*53
$GNGLL,3030.82206,N,11420.29387,E,060701.00,A,D*7D
$GNRMC,060702.00,A,3030.82209,N,11420.29338,E,1.794,256.53,220119,,,D*77
$GNVTG,256.53,T,,M,1.794,N,3.322,K,D*2A
$GNGGA,060702.00,3030.82209,N,11420.29338,E,2,12,0.64,16.8,M,-10.8,M,,0000*5C
$GNGSA,A,3,14,22,26,31,32,03,10,25,41,29,,,1.12,0.64,0.92*1E
$GNGSA,A,3,68,79,78,66,77,67,,,,,,,1.12,0.64,0.92*19
$GPGSV,4,1,14,03,08,322,32,10,31,177,39,12,06,037,,14,66,002,30*7D
$GPGSV,4,2,14,16,08,207,,18,01,258,,22,23,309,36,25,38,045,18*7D
$GPGSV,4,3,14,26,35,206,38,29,18,101,13,31,56,305,42,32,69,062,38*76
$GPGSV,4,4,14,40,18,253,27,41,41,230,35*77
$GLGSV,2,1,07,66,07,149,08,67,59,148,34,68,60,331,25,69,10,330,33*65
$GLGSV,2,2,07,77,30,028,21,78,66,319,16,79,32,244,37*52
$GNGLL,3030.82209,N,11420.29338,E,060702.00,A,D*75
$GNRMC,060703.00,A,3030.82217,N,11420.29267,E,2.277,272.25,220119,,,D*7E
$GNVTG,272.25,T,,M,2.277,N,4.217,K,D*26
$GNGGA,060703.00,3030.82217,N,11420.29267,E,2,12,0.63,16.8,M,-10.8,M,,0000*5E
$GNGSA,A,3,14,22,26,31,32,03,10,25,41,29,40,,1.17,0.63,0.98*12
$GNGSA,A,3,68,79,78,66,77,67,,,,,,,1.17,0.63,0.98*11
$GPGSV,4,1,14,03,08,322,26,10,31,177,37,12,06,037,,14,66,002,36*70
$GPGSV,4,2,14,16,08,207,,18,01,258,,22,23,309,36,25,38,045,23*75
$GPGSV,4,3,14,26,35,206,38,29,18,101,12,31,56,305,42,32,69,062,40*78
$GPGSV,4,4,14,40,18,253,27,41,41,230,38*7A
$GLGSV,2,1,07,66,07,149,07,67,59,148,36,68,60,331,28,69,10,330,31*67
$GLGSV,2,2,07,77,30,028,24,78,66,319,21,79,32,244,37*53
$GNGLL,3030.82217,N,11420.29267,E,060703.00,A,D*70
$GNRMC,060704.00,A,3030.82235,N,11420.29189,E,2.460,281.47,220119,,,D*72
$GNVTG,281.47,T,,M,2.460,N,4.557,K,D*2D
$GNGGA,060704.00,3030.82235,N,11420.29189,E,2,12,0.69,16.8,M,-10.8,M,,0000*50
$GNGSA,A,3,14,22,26,31,32,03,10,25,41,29,40,,1.32,0.69,1.12*1C
$GNGSA,A,3,68,79,78,66,77,67,,,,,,,1.32,0.69,1.12*1F
$GPGSV,4,1,14,03,08,322,31,10,31,177,35,12,06,036,,14,66,002,33*70
$GPGSV,4,2,14,16,08,207,,18,01,258,,22,23,309,35,25,38,045,25*70
$GPGSV,4,3,14,26,35,206,38,29,18,101,11,31,56,305,41,32,69,062,39*76
$GPGSV,4,4,14,40,18,253,27,41,41,230,38*7A
$GLGSV,2,1,07,66,07,149,08,67,59,148,36,68,60,331,27,69,10,330,30*66
$GLGSV,2,2,07,77,30,028,26,78,66,319,29,79,32,244,35*5B
$GNGLL,3030.82235,N,11420.29189,E,060704.00,A,D*74
$GNRMC,060705.00,A,3030.82256,N,11420.29109,E,2.537,284.07,220119,,,D*7C
$GNVTG,284.07,T,,M,2.537,N,4.699,K,D*2E
$GNGGA,060705.00,3030.82256,N,11420.29109,E,2,12,0.68,16.8,M,-10.8,M,,0000*5D
$GNGSA,A,3,14,22,26,31,32,03,10,25,41,,,,1.18,0.68,0.96*17
$GNGSA,A,3,68,79,78,66,77,67,,,,,,,1.18,0.68,0.96*1B
$GPGSV,4,1,14,03,08,322,26,10,31,177,38,12,06,036,,14,66,002,32*7A
$GPGSV,4,2,14,16,08,207,,18,01,258,,22,23,309,36,25,38,045,22*74
$GPGSV,4,3,14,26,35,206,38,29,18,101,10,31,56,305,41,32,69,062,39*77
$GPGSV,4,4,14,40,18,253,,41,41,230,38*7F
$GLGSV,2,1,07,66,07,149,08,67,59,148,37,68,60,331,31,69,10,330,34*64
$GLGSV,2,2,07,77,30,028,29,78,66,319,23,79,32,244,35*5E
$GNGLL,3030.82256,N,11420.29109,E,060705.00,A,D*78
$GNRMC,060706.00,A,3030.82274,N,11420.29024,E,2.806,283.32,220119,,,D*7F
$GNVTG,283.32,T,,M,2.806,N,5.196,K,D*29
$GNGGA,060706.00,3030.82274,N,11420.29024,E,2,12,0.63,16.8,M,-10.8,M,,0000*5B
$GNGSA,A,3,14,22,26,31,32,03,10,25,41,29,40,,1.17,0.63,0.98*12
$GNGSA,A,3,68,79,78,66,77,67,,,,,,,1.17,0.63,0.98*11
$GPGSV,4,1,14,03,08,322,26,10,31,177,38,12,06,036,,14,66,003,32*7B
$GPGSV,4,2,14,16,08,207,18,18,01,258,,22,23,309,35,25,38,045,20*7C
$GPGSV,4,3,14,26,35,206,38,29,18,101,11,31,56,305,41,32,69,062,39*76
$GPGSV,4,4,14,40,18,253,28,41,41,230,37*7A
$GLGSV,2,1,07,66,07,149,11,67,59,148,37,68,60,331,31,69,10,330,30*68
$GLGSV,2,2,07,77,30,028,28,78,66,319,23,79,32,244,35*5F
$GNGLL,3030.82274,N,11420.29024,E,060706.00,A,D*75
$GNRMC,060707.00,A,3030.82290,N,11420.28933,E,2.913,283.13,220119,,,D*7C
$GNVTG,283.13,T,,M,2.913,N,5.396,K,D*2D
$GNGGA,060707.00,3030.82290,N,11420.28933,E,2,12,0.65,16.8,M,-10.8,M,,0000*58
$GNGSA,A,3,14,22,26,31,32,03,10,25,41,29,40,,1.23,0.65,1.04*17
$GNGSA,A,3,68,79,78,66,77,67,,,,,,,1.23,0.65,1.04*14
$GPGSV,4,1,14,03,08,322,25,10,31,177,38,12,06,036,,14,66,003,29*72
$GPGSV,4,2,14,16,08,207,18,18,01,258,,22,23,309,35,25,38,045,28*74
$GPGSV,4,3,14,26,35,206,38,29,18,101,11,31,56,305,39,32,69,062,40*77
$GPGSV,4,4,14,40,18,253,29,41,41,230,39*75
$GLGSV,2,1,07,66,07,149,09,67,59,148,32,68,60,331,31,69,10,330,30*64
$GLGSV,2,2,07,77,30,028,27,78,66,319,25,79,32,244,37*54
$GNGLL,3030.82290,N,11420.28933,E,060707.00,A,D*70
$GNRMC,060708.00,A,3030.82308,N,11420.28836,E,3.068,282.20,220119,,,D*72
$GNVTG,282.20,T,,M,3.068,N,5.682,K,D*28
$GNGGA,060708.00,3030.82308,N,11420.28836,E,2,12,0.69,16.8,M,-10.8,M,,0000*5F
$GNGSA,A,3,14,22,26,31,32,03,10,25,41,40,,,1.31,0.69,1.11*17
$GNGSA,A,3,68,79,78,66,77,67,,,,,,,1.31,0.69,1.11*1F
$GPGSV,4,1,14,03,08,322,25,10,31,177,36,12,06,036,,14,66,003,29*7C
$GPGSV,4,2,14,16,08,207,17,18,01,258,,22,23,309,35,25,38,045,21*72
$GPGSV,4,3,14,26,35,206,36,29,18,101,10,31,56,305,40,32,69,062,38*79
$GPGSV,4,4,14,40,18,253,29,41,41,230,35*79
$GLGSV,2,1,07,66,07,149,10,67,59,148,32,68,60,331,32,69,10,330,33*6C
$GLGSV,2,2,07,77,30,028,27,78,66,319,26,79,32,244,39*59
$GNGLL,3030.82308,N,11420.28836,E,060708.00,A,D*7B
$GNRMC,060709.00,A,3030.82324,N,11420.28740,E,2.931,281.70,220119,,,D*71
$GNVTG,281.70,T,,M,2.931,N,5.427,K,D*27
$GNGGA,060709.00,3030.82324,N,11420.28740,E,2,12,0.73,16.9,M,-10.8,M,,0000*54
$GNGSA,A,3,14,22,26,31,32,03,10,25,41,40,,,1.50,0.73,1.31*19
$GNGSA,A,3,68,79,78,66,77,67,,,,,,,1.50,0.73,1.31*11
$GPGSV,4,1,14,03,08,322,23,10,31,177,40,12,06,036,,14,66,003,32*71
$GPGSV,4,2,14,16,08,207,,18,01,258,,22,23,309,33,25,38,045,22*71
$GPGSV,4,3,14,26,35,206,36,29,18,101,09,31,56,305,42,32,69,062,38*73
$GPGSV,4,4,14,40,18,253,29,41,41,230,35*79
$GLGSV,2,1,07,66,07,149,11,67,59,148,32,68,60,331,31,69,10,330,33*6E
$GLGSV,2,2,07,77,30,028,27,78,66,319,26,79,32,244,39*59
$GNGLL,3030.82324,N,11420.28740,E,060709.00,A,D*7A
$GNRMC,060710.00,A,3030.82342,N,11420.28650,E,2.859,282.56,220119,,,D*71
$GNVTG,282.56,T,,M,2.859,N,5.294,K,D*21
$GNGGA,060710.00,3030.82342,N,11420.28650,E,2,12,0.69,16.7,M,-10.8,M,,0000*59
$GNGSA,A,3,14,22,26,31,32,03,10,25,41,40,,,1.31,0.69,1.11*17
$GNGSA,A,3,68,79,78,66,77,67,,,,,,,1.31,0.69,1.11*1F
$GPGSV,4,1,14,03,08,322,25,10,31,177,38,12,06,036,,14,66,003,35*7F
$GPGSV,4,2,14,16,08,207,23,18,01,258,,22,23,309,35,25,38,045,23*77
$GPGSV,4,3,14,26,35,206,38,29,18,101,07,31,56,305,41,32,69,062,39*71
$GPGSV,4,4,14,40,18,253,27,41,41,230,37*75
$GLGSV,2,1,07,66,07,149,11,67,59,148,33,68,60,331,30,69,10,330,29*65
$GLGSV,2,2,07,77,30,028,27,78,66,319,26,79,32,244,35*55
$GNGLL,3030.82342,N,11420.28650,E,060710.00,A,D*72
$GNRMC,060711.00,A,3030.82363,N,11420.28566,E,2.767,285.37,220119,,,D*77
$GNVTG,285.37,T,,M,2.767,N,5.124,K,D*2B
$GNGGA,060711.00,3030.82363,N,11420.28566,E,2,12,0.73,16.5,M,-10.8,M,,0000*54
$GNGSA,A,3,14,22,26,31,32,03,10,25,41,,,,1.39,0.73,1.18*19
$GNGSA,A,3,68,79,78,66,77,67,,,,,,,1.39,0.73,1.18*15
$GPGSV,4,1,14,03,08,322,23,10,31,177,40,12,06,036,,14,66,003,35*76
$GPGSV,4,2,14,16,08,207,22,18,01,258,,22,23,309,32,25,38,045,21*73
$GPGSV,4,3,14,26,35,206,39,29,18,101,06,31,56,305,42,32,69,062,39*72
