#############第四圈##############################################################################################
$GNRMC,061102.00,A,3030.87722,N,11420.30950,E,0.306,,220119,,,A*67
$GNVTG,,T,,M,0.306,N,0.567,K,A*3C
$GNGGA,061102.00,3030.87722,N,11420.30950,E,1,12,0.73,18.3,M,-10.8,M,,*5E
$GNGSA,A,3,14,22,26,31,32,03,10,25,29,,,,1.45,0.73,1.26*11
$GNGSA,A,3,68,79,78,77,67,,,,,,,,1.45,0.73,1.26*13
$GPGSV,4,1,16,01,00,284,,03,09,322,11,10,29,177,24,12,04,036,*72
$GPGSV,4,2,16,14,67,007,27,16,09,207,18,18,00,256,,20,05,165,*71
$GPGSV,4,3,16,22,24,307,25,25,36,044,26,26,37,207,25,29,18,099,14*7F
$GPGSV,4,4,16,31,57,309,25,32,69,068,31,40,18,253,,41,41,230,*79
$GLGSV,2,1,07,66,06,150,,67,57,150,24,68,62,330,30,69,12,330,23*66
$GLGSV,2,2,07,77,29,029,14,78,65,323,26,79,33,246,36*56
$GNGLL,3030.87722,N,11420.30950,E,061102.00,A,A*72
$GNRMC,061103.00,A,3030.87689,N,11420.30926,E,0.427,,220119,,,A*63
$GNVTG,,T,,M,0.427,N,0.791,K,A*33
$GNGGA,061103.00,3030.87689,N,11420.30926,E,1,12,0.73,17.8,M,-10.8,M,,*5A
$GNGSA,A,3,14,22,26,31,32,10,25,29,,,,,1.45,0.73,1.26*12
$GNGSA,A,3,68,79,78,77,67,,,,,,,,1.45,0.73,1.26*13
$GPGSV,4,1,16,01,00,284,,03,09,322,07,10,29,177,25,12,04,036,*74
$GPGSV,4,2,16,14,67,007,26,16,09,207,19,18,00,256,,20,05,165,*71
$GPGSV,4,3,16,22,24,307,23,25,36,044,27,26,37,207,25,29,18,099,16*7A
$GPGSV,4,4,16,31,57,309,24,32,69,068,30,40,18,253,,41,41,230,*79
$GLGSV,2,1,07,66,06,150,,67,57,150,30,68,62,330,29,69,12,330,22*6A
$GLGSV,2,2,07,77,29,029,15,78,65,323,25,79,33,246,36*54
$GNGLL,3030.87689,N,11420.30926,E,061103.00,A,A*72
$GNRMC,061104.00,A,3030.87616,N,11420.30912,E,1.845,241.26,220119,,,A*71
$GNVTG,241.26,T,,M,1.845,N,3.417,K,A*29
$GNGGA,061104.00,3030.87616,N,11420.30912,E,1,12,0.73,17.8,M,-10.8,M,,*5C
$GNGSA,A,3,14,22,26,31,32,10,25,29,,,,,1.45,0.73,1.26*12
$GNGSA,A,3,68,79,78,77,67,,,,,,,,1.45,0.73,1.26*13
$GPGSV,4,1,16,01,00,284,,03,09,322,08,10,29,177,26,12,04,036,*78
$GPGSV,4,2,16,14,67,007,25,16,09,207,21,18,00,256,,20,05,165,*79
$GPGSV,4,3,16,22,24,307,26,25,36,044,28,26,37,207,26,29,18,099,13*76
$GPGSV,4,4,16,31,57,309,30,32,69,068,31,40,18,253,,41,41,230,*7D
$GLGSV,2,1,07,66,06,150,,67,57,150,29,68,62,330,30,69,12,330,23*6B
$GLGSV,2,2,07,77,29,029,17,78,65,323,27,79,33,246,33*51
$GNGLL,3030.87616,N,11420.30912,E,061104.00,A,A*74
$GNRMC,061105.00,A,3030.87538,N,11420.30892,E,2.408,206.25,220119,,,A*70
$GNVTG,206.25,T,,M,2.408,N,4.459,K,A*22
$GNGGA,061105.00,3030.87538,N,11420.30892,E,1,12,0.73,17.9,M,-10.8,M,,*5A
$GNGSA,A,3,14,22,26,31,32,10,25,29,,,,,1.45,0.73,1.26*12
$GNGSA,A,3,68,79,78,77,67,,,,,,,,1.45,0.73,1.26*13
$GPGSV,4,1,16,01,00,284,,03,09,322,07,10,29,177,23,12,04,036,*72
$GPGSV,4,2,16,14,67,007,26,16,09,207,21,18,00,256,,20,05,165,*7A
$GPGSV,4,3,16,22,24,307,28,25,36,044,27,26,37,207,24,29,18,099,12*74
$GPGSV,4,4,16,31,57,309,30,32,69,068,31,40,18,253,,41,41,230,*7D
$GLGSV,2,1,07,66,06,150,,67,57,150,30,68,62,330,30,69,12,330,24*64
$GLGSV,2,2,07,77,29,029,19,78,65,323,26,79,33,246,30*5D
$GNGLL,3030.87538,N,11420.30892,E,061105.00,A,A*73
$GNRMC,061106.00,A,3030.87465,N,11420.30874,E,2.249,200.17,220119,,,A*76
$GNVTG,200.17,T,,M,2.249,N,4.166,K,A*2F
$GNGGA,061106.00,3030.87465,N,11420.30874,E,1,12,0.73,17.3,M,-10.8,M,,*52
$GNGSA,A,3,14,22,26,31,32,10,25,29,,,,,1.45,0.73,1.26*12
$GNGSA,A,3,68,79,78,77,67,,,,,,,,1.45,0.73,1.26*13
$GPGSV,4,1,16,01,00,284,,03,09,322,08,10,29,177,21,12,04,036,*7F
$GPGSV,4,2,16,14,67,007,24,16,09,207,20,18,00,256,,20,05,165,*79
$GPGSV,4,3,16,22,24,307,27,25,36,044,25,26,37,207,23,29,18,099,14*78
$GPGSV,4,4,16,31,57,309,24,32,69,068,25,40,18,253,,41,41,230,*7D
$GLGSV,2,1,07,66,06,150,,67,57,150,21,68,62,330,19,69,12,330,21*6A
$GLGSV,2,2,07,77,29,029,17,78,65,323,26,79,33,246,33*50
$GNGLL,3030.87465,N,11420.30874,E,061106.00,A,A*71
$GNRMC,061107.00,A,3030.87384,N,11420.30849,E,2.477,192.24,220119,,,A*72
$GNVTG,192.24,T,,M,2.477,N,4.587,K,A*27
$GNGGA,061107.00,3030.87384,N,11420.30849,E,1,12,0.79,17.5,M,-10.8,M,,*59
$GNGSA,A,3,14,22,26,31,32,10,25,29,,,,,1.56,0.79,1.35*18
$GNGSA,A,3,68,79,78,67,,,,,,,,,1.56,0.79,1.35*19
$GPGSV,4,1,16,01,00,284,,03,09,322,07,10,29,177,18,12,04,036,*7A
$GPGSV,4,2,16,14,67,007,21,16,09,207,20,18,00,256,,20,05,165,*7C
$GPGSV,4,3,16,22,24,307,27,25,36,044,23,26,37,207,21,29,18,099,10*78
$GPGSV,4,4,16,31,57,309,24,32,69,068,26,40,18,253,,41,41,230,*7E
$GLGSV,2,1,07,66,06,150,,67,57,150,23,68,62,330,21,69,12,330,22*60
$GLGSV,2,2,07,77,29,029,13,78,65,323,26,79,33,246,31*56
$GNGLL,3030.87384,N,11420.30849,E,061107.00,A,A*76
$GNRMC,061108.00,A,3030.87292,N,11420.30848,E,2.877,184.08,220119,,,A*7F
$GNVTG,184.08,T,,M,2.877,N,5.329,K,A*21
$GNGGA,061108.00,3030.87292,N,11420.30848,E,1,12,0.79,17.5,M,-10.8,M,,*51
$GNGSA,A,3,14,22,26,31,32,10,25,29,,,,,1.56,0.79,1.35*18
$GNGSA,A,3,68,79,78,77,67,,,,,,,,1.56,0.79,1.35*19
$GPGSV,4,1,16,01,00,284,,03,09,322,08,10,29,177,17,12,04,036,*7A
$GPGSV,4,2,16,14,67,007,18,16,09,207,21,18,00,256,,20,05,165,*77
$GPGSV,4,3,16,22,24,307,26,25,36,044,21,26,37,207,19,29,18,099,13*73
$GPGSV,4,4,16,31,57,309,30,32,69,068,25,40,18,253,,41,41,230,*78
$GLGSV,2,1,07,66,06,150,,67,57,150,23,68,62,330,23,69,12,330,20*60
$GLGSV,2,2,07,77,29,029,13,78,65,323,25,79,33,246,27*52
$GNGLL,3030.87292,N,11420.30848,E,061108.00,A,A*7E
$GNRMC,061109.00,A,3030.87219,N,11420.30836,E,2.444,181.07,220119,,,A*72
$GNVTG,181.07,T,,M,2.444,N,4.527,K,A*2E
$GNGGA,061109.00,3030.87219,N,11420.30836,E,1,12,0.81,17.5,M,-10.8,M,,*5D
$GNGSA,A,3,14,22,26,31,32,10,25,29,,,,,1.59,0.81,1.37*12
$GNGSA,A,3,68,79,78,67,,,,,,,,,1.59,0.81,1.37*13
$GPGSV,4,1,16,01,00,284,,03,09,322,10,10,29,177,26,12,04,036,*71
$GPGSV,4,2,16,14,67,007,18,16,09,207,20,18,00,256,,20,05,165,*76
$GPGSV,4,3,16,22,24,307,25,25,36,044,22,26,37,207,28,29,18,099,19*7B
$GPGSV,4,4,16,31,57,309,31,32,69,068,24,40,18,253,,41,41,230,*78
$GLGSV,2,1,07,66,06,150,,67,57,150,22,68,62,330,22,69,12,330,19*6A
$GLGSV,2,2,07,77,29,029,,78,65,323,23,79,33,246,30*50
$GNGLL,3030.87219,N,11420.30836,E,061109.00,A,A*75
$GNRMC,061110.00,A,3030.87102,N,11420.30781,E,2.283,183.54,220119,,,A*79
$GNVTG,183.54,T,,M,2.283,N,4.229,K,A*2E
$GNGGA,061110.00,3030.87102,N,11420.30781,E,1,12,0.72,17.5,M,-10.8,M,,*53
$GNGSA,A,3,14,22,26,31,32,03,10,25,41,29,40,,1.43,0.72,1.23*12
$GNGSA,A,3,68,79,78,67,,,,,,,,,1.43,0.72,1.23*11
$GPGSV,4,1,16,01,00,284,,03,09,322,12,10,29,177,39,12,04,036,*7D
$GPGSV,4,2,16,14,67,007,33,16,09,207,32,18,00,256,,20,05,165,*7C
$GPGSV,4,3,16,22,24,307,37,25,36,044,22,26,37,207,40,29,18,099,20*7C
$GPGSV,4,4,16,31,57,309,38,32,69,068,43,40,18,253,36,41,41,230,42*73
$GLGSV,2,1,07,66,06,150,,67,57,150,35,68,62,330,29,69,12,330,20*6D
$GLGSV,2,2,07,77,29,029,,78,65,323,24,79,33,246,38*5F
$GNGLL,3030.87102,N,11420.30781,E,061110.00,A,A*77
$GNRMC,061111.00,A,3030.86985,N,11420.30747,E,2.387,190.39,220119,,,A*78
$GNVTG,190.39,T,,M,2.387,N,4.421,K,A*2C
$GNGGA,061111.00,3030.86985,N,11420.30747,E,1,12,0.72,17.3,M,-10.8,M,,*58
$GNGSA,A,3,14,22,26,31,32,03,10,25,41,29,40,,1.43,0.72,1.23*12
$GNGSA,A,3,68,79,78,67,,,,,,,,,1.43,0.72,1.23*11
$GPGSV,4,1,16,01,00,284,,03,09,322,15,10,29,177,42,12,04,036,20*74
$GPGSV,4,2,16,14,67,007,34,16,09,207,36,18,00,256,,20,05,165,*7F
$GPGSV,4,3,16,22,24,307,36,25,36,044,36,26,37,207,41,29,18,099,29*70
$GPGSV,4,4,16,31,57,309,36,32,69,068,45,40,18,253,29,41,41,230,43*74
$GLGSV,2,1,07,66,06,150,,67,57,150,32,68,62,330,28,69,12,330,25*6E
$GLGSV,2,2,07,77,29,029,23,78,65,323,30,79,33,246,41*55
$GNGLL,3030.86985,N,11420.30747,E,061111.00,A,A*7A
$GNRMC,061112.00,A,3030.86866,N,11420.30692,E,2.772,194.20,220119,,,A*7C
$GNVTG,194.20,T,,M,2.772,N,5.134,K,A*2E
$GNGGA,061112.00,3030.86866,N,11420.30692,E,1,12,0.72,18.0,M,-10.8,M,,*52
$GNGSA,A,3,14,22,26,31,32,10,25,41,29,40,,,1.43,0.72,1.23*11
$GNGSA,A,3,68,79,78,77,67,,,,,,,,1.43,0.72,1.23*11
$GPGSV,4,1,16,01,00,284,,03,09,322,,10,29,177,43,12,04,036,17*75
$GPGSV,4,2,16,14,67,007,33,16,09,207,33,18,00,256,,20,05,165,*7D
$GPGSV,4,3,16,22,24,307,36,25,36,044,36,26,37,207,42,29,18,099,27*7D
$GPGSV,4,4,16,31,57,309,37,32,69,068,45,40,18,253,33,41,41,230,41*7C
$GLGSV,2,1,07,66,06,150,,67,57,150,28,68,62,330,28,69,12,330,23*63
$GLGSV,2,2,07,77,29,029,23,78,65,323,30,79,33,246,39*5A
$GNGLL,3030.86866,N,11420.30692,E,061112.00,A,A*7C
$GNRMC,061113.00,A,3030.86771,N,11420.30650,E,3.018,195.74,220119,,,A*70
$GNVTG,195.74,T,,M,3.018,N,5.589,K,A*26
$GNGGA,061113.00,3030.86771,N,11420.30650,E,1,12,0.72,17.0,M,-10.8,M,,*5B
$GNGSA,A,3,14,22,26,31,32,10,25,41,29,40,,,1.43,0.72,1.23*11
$GNGSA,A,3,68,79,78,77,67,,,,,,,,1.43,0.72,1.23*11
$GPGSV,4,1,16,01,00,284,,03,09,322,,10,29,177,44,12,04,036,*74
$GPGSV,4,2,16,14,67,007,40,16,09,207,36,18,00,256,,20,05,165,*7C
$GPGSV,4,3,16,22,24,307,38,25,36,044,38,26,37,207,42,29,18,099,32*79
$GPGSV,4,4,16,31,57,309,34,32,69,068,48,40,18,253,33,41,41,230,46*75
$GLGSV,2,1,07,66,06,150,16,67,57,150,28,68,62,330,30,69,12,330,20*6E
$GLGSV,2,2,07,77,29,029,27,78,65,323,32,79,33,246,39*5C
$GNGLL,3030.86771,N,11420.30650,E,061113.00,A,A*7A
$GNRMC,061114.00,A,3030.86655,N,11420.30609,E,3.067,194.12,220119,,,A*75
$GNVTG,194.12,T,,M,3.067,N,5.679,K,A*23
$GNGGA,061114.00,3030.86655,N,11420.30609,E,1,12,0.66,17.2,M,-10.8,M,,*50
$GNGSA,A,3,14,22,26,31,32,10,25,41,29,40,,,1.33,0.66,1.15*16
$GNGSA,A,3,68,79,78,77,67,,,,,,,,1.33,0.66,1.15*16
$GPGSV,4,1,16,01,00,284,,03,09,322,,10,29,177,42,12,04,036,*72
$GPGSV,4,2,16,14,67,007,34,16,09,207,37,18,00,256,,20,05,165,*7E
$GPGSV,4,3,16,22,24,307,36,25,36,044,37,26,37,207,41,29,18,099,27*7F
$GPGSV,4,4,16,31,57,309,39,32,69,068,44,40,18,253,34,41,41,230,44*71
$GLGSV,2,1,07,66,05,150,,67,57,150,32,68,62,330,30,69,12,330,19*6B
$GLGSV,2,2,07,77,29,029,26,78,65,323,32,79,33,246,39*5D
$GNGLL,3030.86655,N,11420.30609,E,061114.00,A,A*76
$GNRMC,061115.00,A,3030.86559,N,11420.30568,E,2.916,193.50,220119,,,A*70
$GNVTG,193.50,T,,M,2.916,N,5.400,K,A*20
$GNGGA,061115.00,3030.86559,N,11420.30568,E,1,12,0.66,17.4,M,-10.8,M,,*5C
$GNGSA,A,3,14,22,26,31,32,10,25,41,29,40,,,1.33,0.66,1.15*16
$GNGSA,A,3,68,79,78,77,67,,,,,,,,1.33,0.66,1.15*16
$GPGSV,4,1,16,01,00,284,,03,09,322,,10,29,177,39,12,04,036,*7E
$GPGSV,4,2,16,14,67,007,34,16,09,207,37,18,00,256,,20,05,165,*7E
$GPGSV,4,3,16,22,24,307,36,25,36,044,35,26,37,207,40,29,18,099,28*73
$GPGSV,4,4,16,31,57,309,38,32,69,068,44,40,18,253,34,41,41,230,43*77
$GLGSV,2,1,07,66,05,150,,67,57,151,28,68,62,330,30,69,12,330,19*61
$GLGSV,2,2,07,77,29,029,26,78,65,323,32,79,33,246,40*53
$GNGLL,3030.86559,N,11420.30568,E,061115.00,A,A*7C
$GNRMC,061116.00,A,3030.86482,N,11420.30521,E,2.879,195.00,220119,,,A*72
$GNVTG,195.00,T,,M,2.879,N,5.331,K,A*2E
$GNGGA,061116.00,3030.86482,N,11420.30521,E,1,12,0.66,17.2,M,-10.8,M,,*53
$GNGSA,A,3,14,22,26,31,32,10,25,41,29,40,,,1.33,0.66,1.15*16
$GNGSA,A,3,68,79,78,77,67,,,,,,,,1.33,0.66,1.15*16
$GPGSV,4,1,16,01,00,284,,03,09,322,,10,29,177,41,12,04,036,*71
$GPGSV,4,2,16,14,67,007,34,16,09,207,34,18,00,256,,20,05,165,*7D
$GPGSV,4,3,16,22,24,307,36,25,36,044,35,26,37,207,40,29,18,099,27*7C
$GPGSV,4,4,16,31,57,309,33,32,69,068,45,40,18,253,33,41,41,230,43*7A
$GLGSV,2,1,07,66,05,150,,67,57,151,29,68,63,330,29,69,12,330,18*68
$GLGSV,2,2,07,77,29,029,25,78,65,323,31,79,33,246,38*5C
$GNGLL,3030.86482,N,11420.30521,E,061116.00,A,A*75
$GNRMC,061117.00,A,3030.86399,N,11420.30485,E,2.759,194.28,220119,,,A*77
$GNVTG,194.28,T,,M,2.759,N,5.110,K,A*29
$GNGGA,061117.00,3030.86399,N,11420.30485,E,1,12,0.66,17.3,M,-10.8,M,,*51
$GNGSA,A,3,14,22,26,31,32,10,25,41,29,40,,,1.33,0.66,1.15*16
$GNGSA,A,3,68,79,78,77,67,,,,,,,,1.33,0.66,1.15*16
$GPGSV,4,1,16,01,00,284,,03,09,322,,10,29,177,40,12,04,036,*70
$GPGSV,4,2,16,14,67,007,33,16,09,207,32,18,00,256,,20,05,165,*7C
$GPGSV,4,3,16,22,24,307,29,25,36,044,32,26,37,207,40,29,18,099,32*71
$GPGSV,4,4,16,31,57,309,38,32,69,068,40,40,18,253,33,41,41,230,40*77
$GLGSV,2,1,07,66,05,150,,67,57,151,29,68,63,330,29,69,12,330,18*68
$GLGSV,2,2,07,77,29,029,23,78,65,323,30,79,33,246,38*5B
$GNGLL,3030.86399,N,11420.30485,E,061117.00,A,A*76
$GNRMC,061118.00,A,3030.86308,N,11420.30460,E,2.842,192.27,220119,,,A*77
$GNVTG,192.27,T,,M,2.842,N,5.263,K,A*22
$GNGGA,061118.00,3030.86308,N,11420.30460,E,1,12,0.66,17.3,M,-10.8,M,,*5D
$GNGSA,A,3,14,22,26,31,32,10,25,41,29,40,,,1.33,0.66,1.15*16
$GNGSA,A,3,68,79,78,77,67,,,,,,,,1.33,0.66,1.15*16
$GPGSV,4,1,16,01,00,284,,03,09,322,,10,29,177,40,12,04,036,*70
$GPGSV,4,2,16,14,67,007,33,16,09,207,33,18,00,256,,20,05,165,*7D
$GPGSV,4,3,16,22,24,307,30,25,36,044,33,26,37,207,43,29,18,099,28*70
$GPGSV,4,4,16,31,57,309,37,32,69,068,40,40,18,253,34,41,41,230,42*7D
$GLGSV,2,1,07,66,05,150,,67,57,151,29,68,63,330,29,69,12,330,16*66
$GLGSV,2,2,07,77,29,029,23,78,65,323,31,79,33,246,37*55
$GNGLL,3030.86308,N,11420.30460,E,061118.00,A,A*7A
$GNRMC,061119.00,A,3030.86215,N,11420.30425,E,2.940,190.82,220119,,,A*74
$GNVTG,190.82,T,,M,2.940,N,5.445,K,A*2E
$GNGGA,061119.00,3030.86215,N,11420.30425,E,1,12,0.66,17.6,M,-10.8,M,,*55
$GNGSA,A,3,14,22,26,31,32,10,25,41,29,40,,,1.33,0.66,1.15*16
$GNGSA,A,3,68,79,78,77,67,,,,,,,,1.33,0.66,1.15*16
$GPGSV,4,1,16,01,00,284,,03,09,322,,10,29,177,42,12,04,036,*72
$GPGSV,4,2,16,14,67,007,33,16,09,207,36,18,00,256,,20,05,165,*78
$GPGSV,4,3,16,22,24,307,40,25,36,044,36,26,37,207,45,29,18,099,37*7A
$GPGSV,4,4,16,31,57,309,38,32,69,068,45,40,18,253,35,41,41,230,45*71
$GLGSV,2,1,07,66,05,150,05,67,57,151,29,68,63,330,29,69,12,330,15*60
$GLGSV,2,2,07,77,29,029,22,78,65,323,32,79,33,246,39*59
$GNGLL,3030.86215,N,11420.30425,E,061119.00,A,A*77
$GNRMC,061120.00,A,3030.86122,N,11420.30393,E,2.878,191.63,220119,,,A*77
$GNVTG,191.63,T,,M,2.878,N,5.330,K,A*2F
$GNGGA,061120.00,3030.86122,N,11420.30393,E,1,12,0.66,17.9,M,-10.8,M,,*5D
$GNGSA,A,3,14,22,26,31,32,10,25,41,29,40,,,1.33,0.66,1.15*16
$GNGSA,A,3,68,79,78,77,67,,,,,,,,1.33,0.66,1.15*16
$GPGSV,4,1,16,01,00,284,,03,09,322,,10,29,177,43,12,04,036,*73
$GPGSV,4,2,16,14,67,007,32,16,09,207,35,18,00,256,,20,05,165,*7A
$GPGSV,4,3,16,22,24,307,37,25,36,044,36,26,37,207,45,29,18,099,40*7A
$GPGSV,4,4,16,31,57,309,40,32,69,068,45,40,18,253,35,41,41,230,44*7F
$GLGSV,2,1,07,66,05,150,08,67,57,151,30,68,63,330,30,69,12,330,14*6C
$GLGSV,2,2,07,77,29,029,23,78,65,323,32,79,33,246,39*58
$GNGLL,3030.86122,N,11420.30393,E,061120.00,A,A*70
$GNRMC,061121.00,A,3030.86030,N,11420.30364,E,2.943,192.34,220119,,,D*71
$GNVTG,192.34,T,,M,2.943,N,5.451,K,D*22
$GNGGA,061121.00,3030.86030,N,11420.30364,E,2,12,0.66,18.0,M,-10.8,M,,0000*53
$GNGSA,A,3,14,22,26,31,32,10,25,41,29,40,,,1.33,0.66,1.15*16
$GNGSA,A,3,68,79,78,77,67,,,,,,,,1.33,0.66,1.15*16
$GPGSV,4,1,16,01,00,284,,03,09,322,,10,29,177,44,12,04,036,*74
$GPGSV,4,2,16,14,67,007,39,16,09,207,35,18,00,256,,20,05,165,*71
$GPGSV,4,3,16,22,24,307,35,25,36,044,33,26,37,207,43,29,18,099,33*7F
$GPGSV,4,4,16,31,57,309,39,32,69,068,46,40,18,253,35,41,41,230,44*72
$GLGSV,2,1,07,66,05,150,09,67,57,151,32,68,63,330,30,69,12,330,12*69
$GLGSV,2,2,07,77,29,029,24,78,65,323,32,79,33,246,39*5F
$GNGLL,3030.86030,N,11420.30364,E,061121.00,A,D*7E
$GNRMC,061122.00,A,3030.85943,N,11420.30344,E,2.917,191.12,220119,,,D*78
$GNVTG,191.12,T,,M,2.917,N,5.402,K,D*22
$GNGGA,061122.00,3030.85943,N,11420.30344,E,2,12,0.66,18.2,M,-10.8,M,,0000*5E
$GNGSA,A,3,14,22,26,31,32,10,25,41,29,40,,,1.33,0.66,1.15*16
$GNGSA,A,3,68,79,78,77,67,,,,,,,,1.33,0.66,1.15*16
$GPGSV,4,1,16,01,00,284,,03,09,322,22,10,29,177,41,12,04,036,*71
$GPGSV,4,2,16,14,67,007,32,16,09,207,32,18,00,256,,20,05,165,*7D
$GPGSV,4,3,16,22,24,307,35,25,36,044,33,26,37,207,42,29,18,099,29*75
$GPGSV,4,4,16,31,57,309,37,32,69,068,45,40,18,253,33,41,41,230,42*7F
$GLGSV,2,1,07,66,05,150,11,67,57,151,28,68,63,330,27,69,12,330,14*6B
$GLGSV,2,2,07,77,29,029,25,78,65,323,29,79,33,246,34*59
$GNGLL,3030.85943,N,11420.30344,E,061122.00,A,D*71
$GNRMC,061123.00,A,3030.85859,N,11420.30326,E,2.848,188.78,220119,,,D*78
$GNVTG,188.78,T,,M,2.848,N,5.275,K,D*2B
$GNGGA,061123.00,3030.85859,N,11420.30326,E,2,12,0.66,18.2,M,-10.8,M,,0000*51
$GNGSA,A,3,14,22,26,31,32,10,25,41,29,40,,,1.33,0.66,1.15*16
$GNGSA,A,3,68,79,78,77,67,,,,,,,,1.33,0.66,1.15*16
$GPGSV,4,1,16,01,00,284,,03,09,322,22,10,29,177,44,12,04,036,*74
$GPGSV,4,2,16,14,67,007,36,16,09,207,33,18,00,256,,20,05,165,*78
$GPGSV,4,3,16,22,24,307,39,25,36,044,36,26,37,207,47,29,18,099,38*79
$GPGSV,4,4,16,31,57,309,41,32,69,068,47,40,18,253,38,41,41,230,42*77
$GLGSV,2,1,07,66,05,150,15,67,57,151,28,68,63,330,27,69,12,330,12*69
$GLGSV,2,2,07,77,29,029,23,78,65,323,31,79,33,246,36*54
$GNGLL,3030.85859,N,11420.30326,E,061123.00,A,D*7E
$GNRMC,061124.00,A,3030.85772,N,11420.30300,E,2.866,190.35,220119,,,D*71
$GNVTG,190.35,T,,M,2.866,N,5.308,K,D*2C
$GNGGA,061124.00,3030.85772,N,11420.30300,E,2,12,0.66,18.6,M,-10.8,M,,0000*50
$GNGSA,A,3,14,22,26,31,32,10,25,41,29,40,,,1.33,0.66,1.15*16
$GNGSA,A,3,68,79,78,66,77,67,,,,,,,1.33,0.66,1.15*16
$GPGSV,4,1,16,01,00,284,,03,09,322,,10,29,177,44,12,04,036,*74
$GPGSV,4,2,16,14,67,007,36,16,09,207,37,18,00,256,,20,05,165,*7C
$GPGSV,4,3,16,22,24,307,36,25,36,044,36,26,37,207,45,29,18,099,40*7B
$GPGSV,4,4,16,31,57,309,43,32,69,068,47,40,18,253,36,41,41,230,44*7D
$GLGSV,2,1,07,66,05,150,15,67,57,151,27,68,63,330,27,69,12,330,12*66
$GLGSV,2,2,07,77,29,029,21,78,65,323,31,79,33,246,37*57
$GNGLL,3030.85772,N,11420.30300,E,061124.00,A,D*7B
$GNRMC,061125.00,A,3030.85691,N,11420.30283,E,2.840,188.82,220119,,,D*77
$GNVTG,188.82,T,,M,2.840,N,5.260,K,D*22
$GNGGA,061125.00,3030.85691,N,11420.30283,E,2,12,0.66,18.5,M,-10.8,M,,0000*54
$GNGSA,A,3,14,22,26,31,32,10,25,41,29,40,,,1.33,0.66,1.15*16
$GNGSA,A,3,68,79,78,77,67,,,,,,,,1.33,0.66,1.15*16
$GPGSV,4,1,16,01,00,284,,03,09,322,25,10,29,177,44,12,04,036,22*73
$GPGSV,4,2,16,14,67,007,36,16,09,207,32,18,00,256,,20,05,165,*79
$GPGSV,4,3,16,22,24,307,35,25,36,044,39,26,37,207,44,29,18,099,30*71
$GPGSV,4,4,16,31,57,309,37,32,69,068,46,40,18,253,32,41,41,230,43*7C
$GLGSV,2,1,07,66,05,150,12,67,57,151,26,68,63,330,27,69,12,330,*63
$GLGSV,2,2,07,77,28,029,22,78,65,323,30,79,33,246,37*54
$GNGLL,3030.85691,N,11420.30283,E,061125.00,A,D*7C
$GNRMC,061126.00,A,3030.85608,N,11420.30265,E,2.848,189.33,220119,,,D*7F
$GNVTG,189.33,T,,M,2.848,N,5.274,K,D*24
$GNGGA,061126.00,3030.85608,N,11420.30265,E,2,12,0.66,18.6,M,-10.8,M,,0000*5C
$GNGSA,A,3,14,22,26,31,32,10,25,41,29,40,,,1.33,0.66,1.15*16
$GNGSA,A,3,68,79,78,66,77,67,,,,,,,1.33,0.66,1.15*16
$GPGSV,4,1,16,01,00,284,,03,09,322,,10,29,177,42,12,04,036,*72
$GPGSV,4,2,16,14,67,007,36,16,09,207,35,18,00,256,,20,05,165,*7E
$GPGSV,4,3,16,22,24,307,36,25,36,044,36,26,37,207,42,29,18,099,30*7B
$GPGSV,4,4,16,31,57,309,42,32,69,068,46,40,18,253,32,41,41,230,45*78
$GLGSV,2,1,07,66,05,150,14,67,57,151,26,68,63,330,27,69,12,330,*65
$GLGSV,2,2,07,77,28,029,21,78,65,325,31,79,33,246,37*50
$GNGLL,3030.85608,N,11420.30265,E,061126.00,A,D*77
$GNRMC,061127.00,A,3030.85524,N,11420.30253,E,3.036,185.93,220119,,,D*70
$GNVTG,185.93,T,,M,3.036,N,5.624,K,D*23
$GNGGA,061127.00,3030.85524,N,11420.30253,E,2,12,0.72,18.6,M,-10.8,M,,0000*50
$GNGSA,A,3,14,22,26,31,32,10,25,41,29,40,,,1.43,0.72,1.23*11
$GNGSA,A,3,68,79,78,67,,,,,,,,,1.43,0.72,1.23*11
$GPGSV,4,1,16,01,00,284,,03,09,322,,10,29,177,43,12,04,036,*73
$GPGSV,4,2,16,14,67,007,33,16,09,207,30,18,00,256,,20,05,165,*7E
$GPGSV,4,3,16,22,24,307,37,25,36,044,36,26,37,207,42,29,18,099,40*7D
$GPGSV,4,4,16,31,57,309,40,32,69,068,45,40,18,253,36,41,41,230,43*7B
$GLGSV,2,1,07,66,05,150,13,67,57,151,27,68,63,330,28,69,12,330,*6C
$GLGSV,2,2,07,77,28,029,,78,65,325,31,79,33,246,36*52
$GNGLL,3030.85524,N,11420.30253,E,061127.00,A,D*7E
$GNRMC,061128.00,A,3030.85441,N,11420.30233,E,2.961,188.06,220119,,,D*70
$GNVTG,188.06,T,,M,2.961,N,5.484,K,D*20
$GNGGA,061128.00,3030.85441,N,11420.30233,E,2,12,0.72,18.5,M,-10.8,M,,0000*58
$GNGSA,A,3,14,22,26,31,32,10,25,41,29,40,,,1.43,0.72,1.23*11
$GNGSA,A,3,68,79,78,66,67,,,,,,,,1.43,0.72,1.23*11
$GPGSV,4,1,16,01,00,284,,03,09,322,,10,29,177,43,12,04,036,*73
$GPGSV,4,2,16,14,67,007,37,16,09,207,31,18,00,256,,20,05,165,*7B
$GPGSV,4,3,16,22,24,307,36,25,36,044,35,26,37,207,43,29,18,099,37*7E
$GPGSV,4,4,16,31,57,309,39,32,69,068,44,40,18,253,35,41,41,230,44*70
$GLGSV,2,1,07,66,05,150,13,67,57,151,28,68,63,330,28,69,12,330,*63
$GLGSV,2,2,07,77,28,029,21,78,65,325,31,79,33,246,37*50
$GNGLL,3030.85441,N,11420.30233,E,061128.00,A,D*75
$GNRMC,061129.00,A,3030.85360,N,11420.30208,E,2.938,189.85,220119,,,D*7B
$GNVTG,189.85,T,,M,2.938,N,5.442,K,D*2C
$GNGGA,061129.00,3030.85360,N,11420.30208,E,2,12,0.72,18.6,M,-10.8,M,,0000*56
$GNGSA,A,3,14,22,26,31,32,10,25,41,29,40,,,1.43,0.72,1.23*11
$GNGSA,A,3,68,79,78,66,67,,,,,,,,1.43,0.72,1.23*11
$GPGSV,4,1,16,01,00,284,,03,09,322,25,10,29,177,43,12,04,036,*74
$GPGSV,4,2,16,14,67,007,36,16,09,207,31,18,00,256,,20,05,165,*7A
$GPGSV,4,3,16,22,24,307,37,25,36,044,35,26,37,207,42,29,18,099,25*7D
$GPGSV,4,4,16,31,57,309,40,32,69,068,45,40,18,253,35,41,41,230,44*7F
$GLGSV,2,1,07,66,05,150,14,67,57,151,29,68,63,330,29,69,12,330,*64
$GLGSV,2,2,07,77,28,029,,78,65,325,30,79,33,246,37*52
$GNGLL,3030.85360,N,11420.30208,E,061129.00,A,D*78
$GNRMC,061130.00,A,3030.85280,N,11420.30188,E,2.973,190.25,220119,,,D*7A
$GNVTG,190.25,T,,M,2.973,N,5.507,K,D*21
$GNGGA,061130.00,3030.85280,N,11420.30188,E,2,12,0.71,18.3,M,-10.8,M,,0000*5C
$GNGSA,A,3,14,22,26,31,32,10,25,41,29,40,,,1.31,0.71,1.10*17
$GNGSA,A,3,68,79,78,66,67,,,,,,,,1.31,0.71,1.10*17
$GPGSV,4,1,16,01,00,284,,03,09,322,,10,29,177,43,12,04,036,*73
$GPGSV,4,2,16,14,67,007,35,16,09,207,30,18,00,256,,20,05,165,*78
$GPGSV,4,3,16,22,24,307,39,25,36,044,35,26,37,207,44,29,18,099,23*73
$GPGSV,4,4,16,31,57,309,39,32,69,068,46,40,18,253,36,41,41,230,44*71
$GLGSV,2,1,07,66,05,150,15,67,57,151,28,68,63,330,29,69,12,330,*64
$GLGSV,2,2,07,77,28,029,23,78,65,325,31,79,33,246,37*52
$GNGLL,3030.85280,N,11420.30188,E,061130.00,A,D*74
$GNRMC,061131.00,A,3030.85200,N,11420.30168,E,2.857,190.45,220119,,,D*7C
$GNVTG,190.45,T,,M,2.857,N,5.290,K,D*29
$GNGGA,061131.00,3030.85200,N,11420.30168,E,2,12,0.71,18.2,M,-10.8,M,,0000*5A
$GNGSA,A,3,14,22,26,31,32,10,25,41,29,40,,,1.31,0.71,1.10*17
$GNGSA,A,3,68,79,78,66,67,,,,,,,,1.31,0.71,1.10*17
$GPGSV,4,1,16,01,00,284,,03,09,322,25,10,29,177,43,12,04,036,*74
$GPGSV,4,2,16,14,67,007,39,16,09,207,31,18,00,256,,20,05,165,*75
$GPGSV,4,3,16,22,24,307,37,25,36,044,36,26,37,207,44,29,18,099,26*7B
$GPGSV,4,4,16,31,57,309,40,32,69,068,45,40,18,253,36,41,41,230,44*7C
$GLGSV,2,1,07,66,05,150,15,67,57,151,27,68,63,330,29,69,12,330,*6B
$GLGSV,2,2,07,77,28,029,23,78,65,325,30,79,33,246,37*53
$GNGLL,3030.85200,N,11420.30168,E,061131.00,A,D*73
$GNRMC,061132.00,A,3030.85121,N,11420.30148,E,2.890,189.94,220119,,,D*72
$GNVTG,189.94,T,,M,2.890,N,5.353,K,D*28
$GNGGA,061132.00,3030.85121,N,11420.30148,E,2,12,0.72,18.0,M,-10.8,M,,0000*5A
$GNGSA,A,3,14,22,26,31,32,10,25,41,29,40,,,1.43,0.72,1.23*11
$GNGSA,A,3,68,79,78,66,67,,,,,,,,1.43,0.72,1.23*11
$GPGSV,4,1,16,01,00,284,,03,09,322,24,10,29,177,41,12,04,036,*77
$GPGSV,4,2,16,14,67,007,35,16,09,207,30,18,00,256,,20,05,165,*78
$GPGSV,4,3,16,22,24,307,37,25,36,044,36,26,37,207,45,29,18,099,26*7A
$GPGSV,4,4,16,31,57,309,38,32,69,068,44,40,18,253,35,41,41,230,41*74
$GLGSV,2,1,07,66,05,150,15,67,57,151,27,68,63,330,29,69,12,330,*6B
$GLGSV,2,2,07,77,28,029,21,78,65,325,30,79,33,246,37*51
$GNGLL,3030.85121,N,11420.30148,E,061132.00,A,D*72
$GNRMC,061133.00,A,3030.85035,N,11420.30131,E,3.035,188.49,220119,,,D*7E
$GNVTG,188.49,T,,M,3.035,N,5.621,K,D*2F
$GNGGA,061133.00,3030.85035,N,11420.30131,E,2,12,0.72,18.0,M,-10.8,M,,0000*51
$GNGSA,A,3,14,22,26,31,32,03,10,25,41,29,40,,1.43,0.72,1.23*12
$GNGSA,A,3,68,79,78,67,,,,,,,,,1.43,0.72,1.23*11
$GPGSV,4,1,16,01,00,284,,03,09,322,23,10,29,177,43,12,04,036,*72
$GPGSV,4,2,16,14,67,007,30,16,09,207,30,18,00,256,,20,05,165,*7D
$GPGSV,4,3,16,22,24,307,37,25,36,044,32,26,37,207,44,29,18,099,24*7D
$GPGSV,4,4,16,31,57,309,41,32,69,068,44,40,18,253,36,41,41,230,44*7C
$GLGSV,2,1,07,66,05,150,,67,57,151,27,68,63,330,29,69,12,330,*6F
$GLGSV,2,2,07,77,28,029,21,78,65,325,31,79,33,246,37*50
$GNGLL,3030.85035,N,11420.30131,E,061133.00,A,D*79
$GNRMC,061134.00,A,3030.84950,N,11420.30110,E,2.954,189.64,220119,,,D*70
$GNVTG,189.64,T,,M,2.954,N,5.472,K,D*2A
$GNGGA,061134.00,3030.84950,N,11420.30110,E,2,12,0.66,18.1,M,-10.8,M,,0000*5A
$GNGSA,A,3,14,22,26,31,32,03,10,25,41,29,40,,1.33,0.66,1.15*15
$GNGSA,A,3,68,79,78,77,67,,,,,,,,1.33,0.66,1.15*16
$GPGSV,4,1,16,01,00,284,,03,09,322,23,10,29,177,42,12,04,036,*73
$GPGSV,4,2,16,14,67,007,34,16,09,207,31,18,00,256,,20,05,165,*78
$GPGSV,4,3,16,22,24,307,37,25,36,044,38,26,37,207,45,29,18,099,22*70
$GPGSV,4,4,16,31,57,309,43,32,69,068,44,40,18,253,33,41,41,230,43*7C
$GLGSV,2,1,07,66,05,150,,67,57,151,26,68,63,330,29,69,12,330,*6E
$GLGSV,2,2,07,77,28,029,20,78,65,325,31,79,33,246,37*51
$GNGLL,3030.84950,N,11420.30110,E,061134.00,A,D*76
$GNRMC,061135.00,A,3030.84871,N,11420.30092,E,2.782,189.82,220119,,,D*75
$GNVTG,189.82,T,,M,2.782,N,5.152,K,D*20
$GNGGA,061135.00,3030.84871,N,11420.30092,E,2,12,0.72,18.1,M,-10.8,M,,0000*57
$GNGSA,A,3,14,22,26,31,32,03,10,25,41,29,40,,1.43,0.72,1.23*12
$GNGSA,A,3,68,79,78,77,67,,,,,,,,1.43,0.72,1.23*11
$GPGSV,4,1,16,01,00,284,,03,09,322,23,10,29,177,42,12,04,036,*73
$GPGSV,4,2,16,14,67,007,33,16,09,207,30,18,00,256,,20,05,165,*7E
$GPGSV,4,3,16,22,24,307,38,25,36,044,37,26,37,207,43,29,18,099,20*74
$GPGSV,4,4,16,31,57,309,39,32,69,068,42,40,18,253,32,41,41,230,41*74
$GLGSV,2,1,07,66,05,150,,67,57,151,27,68,63,330,29,69,12,330,*6F
$GLGSV,2,2,07,77,28,029,20,78,65,325,31,79,33,246,39*5F
$GNGLL,3030.84871,N,11420.30092,E,061135.00,A,D*7E
$GNRMC,061136.00,A,3030.84789,N,11420.30072,E,2.845,189.53,220119,,,D*78
$GNVTG,189.53,T,,M,2.845,N,5.268,K,D*22
$GNGGA,061136.00,3030.84789,N,11420.30072,E,2,12,0.72,18.3,M,-10.8,M,,0000*50
$GNGSA,A,3,14,22,26,31,32,03,10,25,41,29,40,,1.43,0.72,1.23*12
$GNGSA,A,3,68,79,78,67,,,,,,,,,1.43,0.72,1.23*11
$GPGSV,4,1,16,01,00,284,,03,09,322,23,10,29,177,43,12,04,036,*72
$GPGSV,4,2,16,14,67,007,37,16,09,207,29,18,00,256,,20,05,165,*72
$GPGSV,4,3,16,22,24,307,34,25,36,044,34,26,37,207,45,29,18,099,19*77
$GPGSV,4,4,16,31,57,309,39,32,69,068,46,40,18,253,34,41,41,230,43*74
$GLGSV,2,1,07,66,05,150,,67,57,151,29,68,63,330,28,69,12,330,*60
$GLGSV,2,2,07,77,28,029,,78,65,325,31,79,33,246,38*5C
$GNGLL,3030.84789,N,11420.30072,E,061136.00,A,D*7B
$GNRMC,061137.00,A,3030.84709,N,11420.30056,E,2.819,188.52,220119,,,D*7E
$GNVTG,188.52,T,,M,2.819,N,5.220,K,D*27
$GNGGA,061137.00,3030.84709,N,11420.30056,E,2,12,0.72,18.4,M,-10.8,M,,0000*58
$GNGSA,A,3,14,22,26,31,32,03,10,25,41,29,40,,1.43,0.72,1.23*12
$GNGSA,A,3,68,79,78,67,,,,,,,,,1.43,0.72,1.23*11
$GPGSV,4,1,16,01,00,283,,03,09,322,23,10,29,177,43,12,04,036,*75
$GPGSV,4,2,16,14,67,007,37,16,09,207,28,18,00,256,,20,05,165,*73
$GPGSV,4,3,16,22,24,307,33,25,36,044,38,26,37,207,45,29,18,099,19*7C
$GPGSV,4,4,16,31,57,309,39,32,69,068,45,40,18,253,35,41,41,230,43*76
$GLGSV,2,1,07,66,05,150,,67,57,151,29,68,63,330,28,69,12,330,*60
$GLGSV,2,2,07,77,28,029,,78,65,325,31,79,33,246,38*5C
$GNGLL,3030.84709,N,11420.30056,E,061137.00,A,D*74
$GNRMC,061138.00,A,3030.84629,N,11420.30037,E,2.850,189.86,220119,,,D*70
$GNVTG,189.86,T,,M,2.850,N,5.279,K,D*2E
$GNGGA,061138.00,3030.84629,N,11420.30037,E,2,12,0.72,18.5,M,-10.8,M,,0000*52
$GNGSA,A,3,14,22,26,31,32,03,10,25,41,29,40,,1.43,0.72,1.23*12
$GNGSA,A,3,68,79,78,67,,,,,,,,,1.43,0.72,1.23*11
$GPGSV,4,1,16,01,00,283,,03,09,322,24,10,29,177,43,12,04,036,*72
$GPGSV,4,2,16,14,67,007,32,16,09,207,26,18,00,256,,20,05,165,*78
$GPGSV,4,3,16,22,24,307,37,25,36,044,35,26,37,207,46,29,18,099,18*77
$GPGSV,4,4,16,31,57,309,42,32,69,068,47,40,18,253,35,41,41,230,44*7F
$GLGSV,2,1,07,66,05,150,,67,57,151,29,68,63,330,29,69,12,330,*61
$GLGSV,2,2,07,77,28,029,23,78,65,325,30,79,33,246,38*5C
$GNGLL,3030.84629,N,11420.30037,E,061138.00,A,D*7F
$GNRMC,061139.00,A,3030.84552,N,11420.30017,E,2.770,190.46,220119,,,D*75
$GNVTG,190.46,T,,M,2.770,N,5.129,K,D*21
$GNGGA,061139.00,3030.84552,N,11420.30017,E,2,12,0.72,18.3,M,-10.8,M,,0000*58
$GNGSA,A,3,14,22,26,31,32,03,10,25,41,29,40,,1.43,0.72,1.23*12
$GNGSA,A,3,68,79,78,67,,,,,,,,,1.43,0.72,1.23*11
$GPGSV,4,1,16,01,00,283,,03,09,321,23,10,29,177,43,12,04,036,*76
$GPGSV,4,2,16,14,67,007,35,16,09,207,26,18,00,256,,20,05,165,*7F
$GPGSV,4,3,16,22,24,307,36,25,36,044,35,26,37,207,46,29,18,099,18*76
$GPGSV,4,4,16,31,57,309,43,32,69,068,48,40,18,253,34,41,41,230,43*77
$GLGSV,2,1,07,66,05,150,,67,57,151,29,68,63,330,32,69,12,330,*6B
$GLGSV,2,2,07,77,28,029,23,78,65,325,31,79,33,246,39*5C
$GNGLL,3030.84552,N,11420.30017,E,061139.00,A,D*73
$GNRMC,061140.00,A,3030.84473,N,11420.30001,E,2.877,187.76,220119,,,D*73
$GNVTG,187.76,T,,M,2.877,N,5.328,K,D*2F
$GNGGA,061140.00,3030.84473,N,11420.30001,E,2,12,0.72,18.3,M,-10.8,M,,0000*53
$GNGSA,A,3,14,22,26,31,32,03,10,25,41,29,40,,1.43,0.72,1.23*12
$GNGSA,A,3,68,79,78,67,,,,,,,,,1.43,0.72,1.23*11
$GPGSV,4,1,16,01,00,283,,03,09,321,23,10,29,177,43,12,04,036,*76
$GPGSV,4,2,16,14,67,007,31,16,09,207,26,18,00,256,,20,05,165,*7B
$GPGSV,4,3,16,22,24,307,39,25,36,044,35,26,37,207,46,29,18,099,19*78
$GPGSV,4,4,16,31,57,309,41,32,69,068,48,40,18,253,35,41,41,230,44*73
$GLGSV,2,1,07,66,05,150,,67,57,151,28,68,63,330,30,69,12,330,26*6C
$GLGSV,2,2,07,77,28,029,21,78,65,325,30,79,33,246,38*5E
$GNGLL,3030.84473,N,11420.30001,E,061140.00,A,D*78
$GNRMC,061141.00,A,3030.84392,N,11420.29981,E,2.890,188.67,220119,,,D*75
$GNVTG,188.67,T,,M,2.890,N,5.353,K,D*25
$GNGGA,061141.00,3030.84392,N,11420.29981,E,2,12,0.72,18.3,M,-10.8,M,,0000*53
$GNGSA,A,3,14,22,26,31,32,03,10,25,41,29,40,,1.43,0.72,1.23*12
$GNGSA,A,3,68,79,78,77,67,,,,,,,,1.43,0.72,1.23*11
$GPGSV,4,1,16,01,00,283,,03,09,321,23,10,29,177,43,12,04,036,*76
$GPGSV,4,2,16,14,67,007,35,16,09,207,26,18,00,256,,20,05,165,*7F
$GPGSV,4,3,16,22,24,307,39,25,36,044,35,26,37,207,45,29,18,099,19*7B
$GPGSV,4,4,16,31,57,309,43,32,69,068,47,40,18,253,36,41,41,230,45*7C
$GLGSV,2,1,07,66,05,150,19,67,57,151,28,68,63,330,30,69,12,330,24*66
$GLGSV,2,2,07,77,28,029,21,78,65,325,30,79,33,246,37*51
$GNGLL,3030.84392,N,11420.29981,E,061141.00,A,D*78
$GNRMC,061142.00,A,3030.84314,N,11420.29959,E,2.757,190.41,220119,,,D*74
$GNVTG,190.41,T,,M,2.757,N,5.106,K,D*2E
$GNGGA,061142.00,3030.84314,N,11420.29959,E,2,12,0.72,18.3,M,-10.8,M,,0000*5B
$GNGSA,A,3,14,22,26,31,32,03,10,25,41,29,40,,1.43,0.72,1.23*12
$GNGSA,A,3,68,79,78,67,,,,,,,,,1.43,0.72,1.23*11
$GPGSV,4,1,16,01,00,283,,03,09,321,22,10,29,177,42,12,04,036,*76
$GPGSV,4,2,16,14,67,007,30,16,09,207,25,18,00,256,,20,05,165,*79
$GPGSV,4,3,16,22,24,307,36,25,36,044,34,26,37,207,45,29,18,099,18*74
$GPGSV,4,4,16,31,57,309,41,32,69,068,46,40,18,253,35,41,41,230,44*7D
$GLGSV,2,1,07,66,05,150,,67,57,151,28,68,63,330,30,69,12,330,22*68
$GLGSV,2,2,07,77,28,029,,78,65,325,30,79,33,246,37*52
$GNGLL,3030.84314,N,11420.29959,E,061142.00,A,D*70
$GNRMC,061143.00,A,3030.84239,N,11420.29942,E,2.764,190.44,220119,,,D*74
$GNVTG,190.44,T,,M,2.764,N,5.119,K,D*25
$GNGGA,061143.00,3030.84239,N,11420.29942,E,2,12,0.72,18.1,M,-10.8,M,,0000*5C
$GNGSA,A,3,14,22,26,31,32,03,10,25,41,29,40,,1.43,0.72,1.23*12
$GNGSA,A,3,68,79,78,67,,,,,,,,,1.43,0.72,1.23*11
$GPGSV,4,1,16,01,00,283,,03,09,321,23,10,29,177,44,12,04,036,*71
$GPGSV,4,2,16,14,67,007,29,16,09,207,25,18,00,256,,20,05,165,*71
$GPGSV,4,3,16,22,24,307,30,25,36,044,34,26,37,207,46,29,18,099,18*71
$GPGSV,4,4,16,31,57,309,43,32,69,068,45,40,18,253,35,41,41,230,43*7B
$GLGSV,2,1,07,66,05,150,,67,57,151,28,68,63,330,29,69,12,330,20*62
$GLGSV,2,2,07,77,28,029,,78,65,325,30,79,33,246,37*52
$GNGLL,3030.84239,N,11420.29942,E,061143.00,A,D*75
$GNRMC,061144.00,A,3030.84168,N,11420.29918,E,2.712,194.50,220119,,,D*7B
$GNVTG,194.50,T,,M,2.712,N,5.023,K,D*2D
$GNGGA,061144.00,3030.84168,N,11420.29918,E,2,12,0.72,17.7,M,-10.8,M,,0000*5A
$GNGSA,A,3,14,22,26,31,32,03,10,25,41,29,40,,1.43,0.72,1.23*12
$GNGSA,A,3,68,79,78,67,,,,,,,,,1.43,0.72,1.23*11
$GPGSV,4,1,16,01,00,283,,03,09,321,21,10,28,177,40,12,04,036,*76
$GPGSV,4,2,16,14,67,007,29,16,09,207,,18,00,256,,20,05,165,*76
$GPGSV,4,3,16,22,24,307,37,25,36,044,36,26,37,207,42,29,18,099,16*7E
$GPGSV,4,4,16,31,57,309,40,32,69,068,44,40,18,253,33,41,41,230,43*7F
$GLGSV,2,1,07,66,05,150,,67,57,151,26,68,63,330,30,69,12,330,18*6F
$GLGSV,2,2,07,77,28,029,20,78,65,325,33,79,33,246,39*5D
$GNGLL,3030.84168,N,11420.29918,E,061144.00,A,D*7A
$GNRMC,061145.00,A,3030.84088,N,11420.29894,E,2.816,193.34,220119,,,D*7E
$GNVTG,193.34,T,,M,2.816,N,5.215,K,D*24
$GNGGA,061145.00,3030.84088,N,11420.29894,E,2,12,0.67,17.7,M,-10.8,M,,0000*55
$GNGSA,A,3,14,22,26,31,32,03,10,25,41,29,40,,1.22,0.67,1.03*13
$GNGSA,A,3,68,79,78,67,,,,,,,,,1.22,0.67,1.03*10
$GPGSV,4,1,16,01,00,283,,03,09,321,23,10,28,177,41,12,04,036,*75
$GPGSV,4,2,16,14,67,007,30,16,09,207,23,18,00,256,,20,05,165,*7F
$GPGSV,4,3,16,22,24,307,35,25,36,044,36,26,37,207,42,29,18,099,14*7E
$GPGSV,4,4,16,31,57,309,38,32,69,068,45,40,18,253,33,41,41,230,42*70
$GLGSV,2,1,07,66,05,150,18,67,57,151,27,68,63,330,30,69,12,330,20*6C
$GLGSV,2,2,07,77,28,029,20,78,65,325,32,79,33,246,37*52
$GNGLL,3030.84088,N,11420.29894,E,061145.00,A,D*71
$GNRMC,061146.00,A,3030.84003,N,11420.29871,E,2.952,192.65,220119,,,D*71
$GNVTG,192.65,T,,M,2.952,N,5.468,K,D*2C
$GNGGA,061146.00,3030.84003,N,11420.29871,E,2,12,0.63,17.9,M,-10.8,M,,0000*54
$GNGSA,A,3,14,22,26,31,32,03,10,25,41,29,40,,1.18,0.63,0.99*1C
$GNGSA,A,3,68,79,78,77,67,,,,,,,,1.18,0.63,0.99*1F
$GPGSV,4,1,16,01,00,283,,03,09,321,25,10,28,177,41,12,04,036,*73
$GPGSV,4,2,16,14,67,007,30,16,09,207,,18,00,256,,20,05,165,*7E
$GPGSV,4,3,16,22,24,307,31,25,36,044,35,26,37,207,42,29,18,099,16*7B
$GPGSV,4,4,16,31,57,309,42,32,69,068,39,40,18,253,36,41,41,230,44*75
$GLGSV,2,1,07,66,05,150,,67,57,151,27,68,63,330,30,69,12,330,21*64
$GLGSV,2,2,07,77,28,029,21,78,65,325,32,79,33,246,39*5D
$GNGLL,3030.84003,N,11420.29871,E,061146.00,A,D*7A
$GNRMC,061147.00,A,3030.83920,N,11420.29854,E,3.000,190.95,220119,,,D*7A
$GNVTG,190.95,T,,M,3.000,N,5.557,K,D*23
$GNGGA,061147.00,3030.83920,N,11420.29854,E,2,12,0.63,17.8,M,-10.8,M,,0000*5C
$GNGSA,A,3,14,22,26,31,32,03,10,25,41,29,40,,1.18,0.63,0.99*1C
$GNGSA,A,3,68,79,78,77,67,,,,,,,,1.18,0.63,0.99*1F
$GPGSV,4,1,16,01,00,283,,03,09,321,24,10,28,177,41,12,04,036,*72
$GPGSV,4,2,16,14,67,007,34,16,09,207,,18,00,256,,20,05,165,*7A
$GPGSV,4,3,16,22,24,307,33,25,36,044,32,26,37,207,41,29,18,099,15*7E
$GPGSV,4,4,16,31,57,309,38,32,69,068,40,40,18,253,38,41,41,230,44*78
$GLGSV,2,1,07,66,05,150,,67,57,151,27,68,63,330,30,69,12,330,20*65
$GLGSV,2,2,07,77,28,029,21,78,65,325,31,79,33,246,38*5F
$GNGLL,3030.83920,N,11420.29854,E,061147.00,A,D*73
$GNRMC,061148.00,A,3030.83832,N,11420.29834,E,3.161,189.86,220119,,,D*7D
$GNVTG,189.86,T,,M,3.161,N,5.854,K,D*21
$GNGGA,061148.00,3030.83832,N,11420.29834,E,2,12,0.66,17.7,M,-10.8,M,,0000*5D
$GNGSA,A,3,14,22,26,31,32,10,25,41,29,40,,,1.33,0.66,1.15*16
$GNGSA,A,3,68,79,78,77,67,,,,,,,,1.33,0.66,1.15*16
$GPGSV,4,1,16,01,00,283,,03,09,321,28,10,28,177,39,12,04,036,*71
$GPGSV,4,2,16,14,68,008,29,16,09,207,,18,00,256,,20,05,165,*76
$GPGSV,4,3,16,22,24,307,33,25,36,044,33,26,37,207,42,29,18,099,19*70
$GPGSV,4,4,16,31,57,309,41,32,69,068,42,40,18,253,36,41,41,230,44*7A
$GLGSV,2,1,07,66,05,150,,67,57,151,27,68,63,330,29,69,12,330,20*6D
$GLGSV,2,2,07,77,28,029,21,78,65,325,31,79,33,246,38*5F
$GNGLL,3030.83832,N,11420.29834,E,061148.00,A,D*78
$GNRMC,061149.00,A,3030.83744,N,11420.29812,E,3.112,190.65,220119,,,D*77
$GNVTG,190.65,T,,M,3.112,N,5.764,K,D*2C
$GNGGA,061149.00,3030.83744,N,11420.29812,E,2,12,0.66,17.8,M,-10.8,M,,0000*59
$GNGSA,A,3,14,22,26,31,32,03,10,25,41,29,40,,1.33,0.66,1.15*15
$GNGSA,A,3,68,79,78,77,67,,,,,,,,1.33,0.66,1.15*16
$GPGSV,4,1,16,01,00,283,,03,09,321,28,10,28,177,39,12,04,036,*71
$GPGSV,4,2,16,14,68,008,29,16,09,207,,18,00,256,,20,05,165,*76
$GPGSV,4,3,16,22,24,307,34,25,36,044,33,26,37,207,42,29,18,099,21*7C
$GPGSV,4,4,16,31,57,309,41,32,69,068,39,40,18,253,33,41,41,230,43*74
$GLGSV,2,1,07,66,05,150,,67,57,151,27,68,63,330,30,69,12,330,19*6F
$GLGSV,2,2,07,77,28,029,20,78,65,325,32,79,33,246,37*52
$GNGLL,3030.83744,N,11420.29812,E,061149.00,A,D*73
$GNRMC,061150.00,A,3030.83658,N,11420.29788,E,3.066,191.57,220119,,,D*7D
$GNVTG,191.57,T,,M,3.066,N,5.678,K,D*22
$GNGGA,061150.00,3030.83658,N,11420.29788,E,2,12,0.63,17.8,M,-10.8,M,,0000*54
$GNGSA,A,3,14,22,26,31,32,03,10,25,41,29,40,,1.18,0.63,0.99*1C
$GNGSA,A,3,68,79,78,77,67,,,,,,,,1.18,0.63,0.99*1F
$GPGSV,4,1,16,01,00,283,,03,09,321,27,10,28,177,39,12,04,036,*7E
$GPGSV,4,2,16,14,68,008,33,16,10,207,,18,00,256,,20,05,165,*75
$GPGSV,4,3,16,22,24,307,35,25,36,044,31,26,37,207,42,29,18,099,22*7C
$GPGSV,4,4,16,31,57,309,40,32,69,068,40,40,18,253,35,41,41,230,44*7A
$GLGSV,2,1,07,66,05,150,,67,57,151,27,68,63,330,30,69,12,330,19*6F
$GLGSV,2,2,07,77,28,029,20,78,65,325,32,79,33,246,37*52
$GNGLL,3030.83658,N,11420.29788,E,061150.00,A,D*7B
$GNRMC,061151.00,A,3030.83574,N,11420.29763,E,3.098,192.85,220119,,,D*79
$GNVTG,192.85,T,,M,3.098,N,5.737,K,D*25
$GNGGA,061151.00,3030.83574,N,11420.29763,E,2,12,0.63,17.6,M,-10.8,M,,0000*53
$GNGSA,A,3,14,22,26,31,32,03,10,25,41,29,40,,1.18,0.63,0.99*1C
$GNGSA,A,3,68,79,78,77,67,,,,,,,,1.18,0.63,0.99*1F
$GPGSV,4,1,16,01,00,283,,03,09,321,26,10,28,177,39,12,04,036,*7F
$GPGSV,4,2,16,14,68,008,30,16,10,207,,18,00,256,,20,05,165,*76
$GPGSV,4,3,16,22,24,307,32,25,36,044,35,26,37,207,42,29,18,099,23*7E
$GPGSV,4,4,16,31,57,309,40,32,69,068,39,40,18,253,34,41,41,230,43*72
$GLGSV,2,1,07,66,05,150,,67,57,151,27,68,63,330,30,69,12,330,19*6F
$GLGSV,2,2,07,77,28,029,21,78,65,325,32,79,33,246,37*53
$GNGLL,3030.83574,N,11420.29763,E,061151.00,A,D*72
$GNRMC,061152.00,A,3030.83482,N,11420.29742,E,3.209,191.12,220119,,,D*76
$GNVTG,191.12,T,,M,3.209,N,5.942,K,D*2E
$GNGGA,061152.00,3030.83482,N,11420.29742,E,2,12,0.63,17.6,M,-10.8,M,,0000*5B
$GNGSA,A,3,14,22,26,31,32,03,10,25,41,29,40,,1.18,0.63,0.99*1C
$GNGSA,A,3,68,79,78,77,67,,,,,,,,1.18,0.63,0.99*1F
$GPGSV,4,1,16,01,00,283,,03,09,321,26,10,28,177,37,12,04,036,*71
$GPGSV,4,2,16,14,68,008,29,16,10,207,,18,00,256,,20,05,165,*7E
$GPGSV,4,3,16,22,24,307,32,25,36,044,33,26,37,207,42,29,18,099,25*7E
$GPGSV,4,4,16,31,57,309,40,32,69,068,41,40,18,253,34,41,41,230,44*7A
$GLGSV,2,1,07,66,05,150,,67,57,151,27,68,63,330,30,69,12,330,18*6E
$GLGSV,2,2,07,77,28,029,20,78,65,325,31,79,33,246,35*53
$GNGLL,3030.83482,N,11420.29742,E,061152.00,A,D*7A
$GNRMC,061153.00,A,3030.83395,N,11420.29714,E,3.193,193.28,220119,,,D*7E
$GNVTG,193.28,T,,M,3.193,N,5.914,K,D*26
$GNGGA,061153.00,3030.83395,N,11420.29714,E,2,12,0.63,17.5,M,-10.8,M,,0000*5B
$GNGSA,A,3,14,22,26,31,32,03,10,25,41,29,40,,1.18,0.63,0.99*1C
$GNGSA,A,3,68,79,78,77,67,,,,,,,,1.18,0.63,0.99*1F
$GPGSV,4,1,16,01,00,283,,03,09,321,26,10,28,177,41,12,04,036,*70
$GPGSV,4,2,16,14,68,008,33,16,10,207,,18,00,256,,20,05,165,*75
$GPGSV,4,3,16,22,24,307,36,25,36,044,33,26,37,207,40,29,18,099,32*7E
$GPGSV,4,4,16,31,57,309,40,32,69,068,43,40,18,253,37,41,41,230,44*7B
$GLGSV,2,1,07,66,05,150,,67,57,151,27,68,63,330,30,69,12,330,18*6E
$GLGSV,2,2,07,77,28,029,21,78,65,325,31,79,33,246,36*51
$GNGLL,3030.83395,N,11420.29714,E,061153.00,A,D*79
$GNRMC,061154.00,A,3030.83306,N,11420.29692,E,3.126,192.94,220119,,,D*74
$GNVTG,192.94,T,,M,3.126,N,5.790,K,D*2C
$GNGGA,061154.00,3030.83306,N,11420.29692,E,2,12,0.63,17.5,M,-10.8,M,,0000*59
$GNGSA,A,3,14,22,26,31,32,03,10,25,41,29,40,,1.18,0.63,0.99*1C
$GNGSA,A,3,68,79,78,77,67,,,,,,,,1.18,0.63,0.99*1F
$GPGSV,4,1,16,01,00,283,,03,09,321,25,10,28,177,40,12,04,036,*72
$GPGSV,4,2,16,14,68,008,33,16,10,207,,18,00,256,,20,05,165,*75
$GPGSV,4,3,16,22,24,307,36,25,36,044,34,26,37,207,44,29,18,099,30*7F
$GPGSV,4,4,16,31,57,309,42,32,69,068,40,40,18,253,34,41,41,230,45*78
$GLGSV,2,1,07,66,05,150,,67,57,151,27,68,63,330,30,69,12,330,19*6F
$GLGSV,2,2,07,77,28,029,21,78,65,325,32,79,33,246,37*53
$GNGLL,3030.83306,N,11420.29692,E,061154.00,A,D*7B
$GNRMC,061155.00,A,3030.83220,N,11420.29668,E,3.100,193.29,220119,,,D*76
$GNVTG,193.29,T,,M,3.100,N,5.742,K,D*20
$GNGGA,061155.00,3030.83220,N,11420.29668,E,2,12,0.63,17.4,M,-10.8,M,,0000*59
$GNGSA,A,3,14,22,26,31,32,03,10,25,41,29,40,,1.18,0.63,1.00*1D
$GNGSA,A,3,68,79,78,77,67,,,,,,,,1.18,0.63,1.00*1E
$GPGSV,4,1,16,01,00,283,,03,09,321,25,10,28,177,40,12,04,036,*72
$GPGSV,4,2,16,14,68,008,33,16,10,207,24,18,00,256,,20,05,165,*73
$GPGSV,4,3,16,22,24,307,39,25,36,044,30,26,37,207,42,29,18,099,34*76
$GPGSV,4,4,16,31,57,309,34,32,69,068,42,40,18,253,36,41,41,230,45*79
$GLGSV,2,1,07,66,05,150,,67,57,151,27,68,63,330,30,69,12,330,21*64
$GLGSV,2,2,07,77,28,029,21,78,65,325,32,79,33,246,39*5D
$GNGLL,3030.83220,N,11420.29668,E,061155.00,A,D*7A
$GNRMC,061156.00,A,3030.83139,N,11420.29644,E,3.056,193.72,220119,,,D*7C
$GNVTG,193.72,T,,M,3.056,N,5.659,K,D*27
$GNGGA,061156.00,3030.83139,N,11420.29644,E,2,12,0.63,17.1,M,-10.8,M,,0000*5A
$GNGSA,A,3,14,22,26,31,32,03,10,25,41,29,40,,1.18,0.63,1.00*1D
$GNGSA,A,3,68,79,78,77,67,,,,,,,,1.18,0.63,1.00*1E
$GPGSV,4,1,16,01,00,283,,03,09,321,28,10,28,177,45,12,04,036,*7A
$GPGSV,4,2,16,14,68,008,39,16,10,207,,18,00,256,,20,05,165,*7F
$GPGSV,4,3,16,22,25,307,35,25,36,044,35,26,37,207,46,29,18,099,42*7B
$GPGSV,4,4,16,31,57,309,35,32,69,068,47,40,18,253,36,41,41,230,45*7D
$GLGSV,2,1,07,66,05,150,,67,57,151,30,68,63,330,28,69,12,330,23*69
$GLGSV,2,2,07,77,28,029,24,78,65,325,31,79,33,246,39*5B
$GNGLL,3030.83139,N,11420.29644,E,061156.00,A,D*7C
$GNRMC,061157.00,A,3030.83057,N,11420.29617,E,3.026,194.62,220119,,,D*73
$GNVTG,194.62,T,,M,3.026,N,5.605,K,D*2F
$GNGGA,061157.00,3030.83057,N,11420.29617,E,2,12,0.63,16.8,M,-10.8,M,,0000*5C
$GNGSA,A,3,14,22,26,31,32,03,10,25,41,29,40,,1.18,0.63,1.00*1D
$GNGSA,A,3,68,79,78,77,67,,,,,,,,1.18,0.63,1.00*1E
$GPGSV,4,1,16,01,00,283,,03,09,321,28,10,28,177,44,12,04,036,*7B
$GPGSV,4,2,16,14,68,008,39,16,10,207,,18,00,256,,20,05,165,*7F
$GPGSV,4,3,16,22,25,307,37,25,36,044,36,26,37,207,45,29,18,099,42*79
$GPGSV,4,4,16,31,57,309,42,32,69,068,48,40,18,253,38,41,41,230,47*7E
$GLGSV,2,1,07,66,05,150,,67,57,151,30,68,63,330,28,69,12,330,23*69
$GLGSV,2,2,07,77,28,029,23,78,65,325,31,79,33,246,39*5C
$GNGLL,3030.83057,N,11420.29617,E,061157.00,A,D*72
$GNRMC,061158.00,A,3030.82979,N,11420.29597,E,2.746,193.02,220119,,,D*72
$GNVTG,193.02,T,,M,2.746,N,5.085,K,D*20
$GNGGA,061158.00,3030.82979,N,11420.29597,E,2,12,0.63,16.7,M,-10.8,M,,0000*53
$GNGSA,A,3,14,22,26,31,32,03,10,25,41,29,40,,1.18,0.63,1.00*1D
$GNGSA,A,3,68,79,78,77,67,,,,,,,,1.18,0.63,1.00*1E
$GPGSV,4,1,16,01,00,283,,03,09,321,29,10,28,177,45,12,04,036,*7B
$GPGSV,4,2,16,14,68,008,39,16,10,207,,18,00,256,,20,05,165,*7F
$GPGSV,4,3,16,22,25,307,39,25,35,044,34,26,37,207,45,29,18,099,32*71
$GPGSV,4,4,16,31,57,309,43,32,69,068,43,40,18,253,40,41,41,230,46*7A
$GLGSV,2,1,07,66,05,150,,67,57,151,28,68,63,330,29,69,12,330,22*60
$GLGSV,2,2,07,77,28,029,20,78,65,325,31,79,33,246,39*5F
$GNGLL,3030.82979,N,11420.29597,E,061158.00,A,D*72
$GNRMC,061159.00,A,3030.82904,N,11420.29575,E,2.750,193.87,220119,,,D*7F
$GNVTG,193.87,T,,M,2.750,N,5.092,K,D*2C
$GNGGA,061159.00,3030.82904,N,11420.29575,E,2,12,0.63,16.6,M,-10.8,M,,0000*55
$GNGSA,A,3,14,22,26,31,32,03,10,25,41,29,40,,1.18,0.63,1.00*1D
$GNGSA,A,3,68,79,78,77,67,,,,,,,,1.18,0.63,1.00*1E
$GPGSV,4,1,16,01,00,283,,03,09,321,27,10,28,177,42,12,04,036,*72
$GPGSV,4,2,16,14,68,008,31,16,10,207,,18,00,256,,20,05,165,*77
$GPGSV,4,3,16,22,25,307,35,25,35,044,33,26,38,207,45,29,18,099,36*71
$GPGSV,4,4,16,31,57,309,41,32,69,068,41,40,18,253,37,41,41,230,43*7F
$GLGSV,2,1,07,66,05,150,,67,57,151,27,68,63,330,29,69,12,330,21*6C
$GLGSV,2,2,07,77,28,029,19,78,65,325,30,79,33,246,37*5A
$GNGLL,3030.82904,N,11420.29575,E,061159.00,A,D*75
$GNRMC,061200.00,A,3030.82829,N,11420.29553,E,2.743,193.38,220119,,,D*7C
$GNVTG,193.38,T,,M,2.743,N,5.080,K,D*29
$GNGGA,061200.00,3030.82829,N,11420.29553,E,2,12,0.67,16.5,M,-10.8,M,,0000*57
$GNGSA,A,3,14,22,26,31,32,03,10,25,41,29,40,,1.22,0.67,1.03*13
$GNGSA,A,3,68,79,78,67,,,,,,,,,1.22,0.67,1.03*10
$GPGSV,4,1,16,01,00,283,,03,09,321,28,10,28,177,40,12,04,036,*7F
$GPGSV,4,2,16,14,68,008,31,16,10,207,,18,00,256,,20,05,165,*77
$GPGSV,4,3,16,22,25,307,29,25,35,044,33,26,38,207,45,29,18,099,37*7D
$GPGSV,4,4,16,31,57,309,42,32,69,068,36,40,18,253,36,41,41,230,43*7D
$GLGSV,2,1,07,66,05,150,,67,57,151,27,68,63,330,29,69,12,330,20*6D
$GLGSV,2,2,07,77,28,029,,78,65,325,30,79,33,246,34*51
$GNGLL,3030.82829,N,11420.29553,E,061200.00,A,D*70
$GNRMC,061201.00,A,3030.82749,N,11420.29530,E,2.937,193.61,220119,,,D*70
$GNVTG,193.61,T,,M,2.937,N,5.439,K,D*2E
$GNGGA,061201.00,3030.82749,N,11420.29530,E,2,12,0.67,16.7,M,-10.8,M,,0000*58
$GNGSA,A,3,14,22,26,31,32,03,10,25,41,29,40,,1.22,0.67,1.03*13
$GNGSA,A,3,68,79,78,67,,,,,,,,,1.22,0.67,1.03*10
$GPGSV,4,1,16,01,00,283,,03,09,321,28,10,28,177,40,12,04,036,*7F
$GPGSV,4,2,16,14,68,008,27,16,10,207,,18,00,256,,20,05,165,*70
$GPGSV,4,3,16,22,25,307,32,25,35,044,32,26,38,207,44,29,18,099,32*72
$GPGSV,4,4,16,31,57,309,41,32,69,068,43,40,18,253,36,41,41,230,43*7C
$GLGSV,2,1,07,66,05,150,,67,57,151,29,68,63,330,29,69,12,330,20*63
$GLGSV,2,2,07,77,28,029,22,78,65,325,32,79,33,246,39*5E
$GNGLL,3030.82749,N,11420.29530,E,061201.00,A,D*7D
$GNRMC,061202.00,A,3030.82670,N,11420.29512,E,2.780,192.99,220119,,,D*7C
$GNVTG,192.99,T,,M,2.780,N,5.148,K,D*29
$GNGGA,061202.00,3030.82670,N,11420.29512,E,2,12,0.67,16.8,M,-10.8,M,,0000*5F
$GNGSA,A,3,14,22,26,31,32,03,10,25,41,29,40,,1.22,0.67,1.03*13
$GNGSA,A,3,68,79,78,67,,,,,,,,,1.22,0.67,1.03*10
$GPGSV,4,1,16,01,00,283,,03,09,321,27,10,28,177,40,12,04,036,*70
$GPGSV,4,2,16,14,68,008,25,16,10,207,,18,00,256,,20,05,165,*72
$GPGSV,4,3,16,22,25,307,32,25,35,044,27,26,38,207,45,29,19,098,33*76
$GPGSV,4,4,16,31,57,309,40,32,69,068,39,40,18,253,36,41,41,230,44*77
$GLGSV,2,1,07,66,05,150,,67,57,151,28,68,63,330,29,69,12,330,21*63
$GLGSV,2,2,07,77,28,029,20,78,65,325,32,79,33,246,39*5C
$GNGLL,3030.82670,N,11420.29512,E,061202.00,A,D*75
$GNRMC,061203.00,A,3030.82589,N,11420.29495,E,2.804,190.20,220119,,,D*75
$GNVTG,190.20,T,,M,2.804,N,5.194,K,D*2B
$GNGGA,061203.00,3030.82589,N,11420.29495,E,2,12,0.72,17.0,M,-10.8,M,,0000*58
$GNGSA,A,3,14,22,26,31,32,03,10,25,41,29,40,,1.43,0.72,1.23*12
$GNGSA,A,3,68,79,78,67,,,,,,,,,1.43,0.72,1.23*11
$GPGSV,4,1,16,01,00,283,,03,09,321,27,10,28,177,41,12,04,036,*71
$GPGSV,4,2,16,14,68,008,26,16,10,207,,18,00,256,,20,05,165,*71
$GPGSV,4,3,16,22,25,307,36,25,35,044,29,26,38,207,45,29,19,098,33*7C
$GPGSV,4,4,16,31,57,310,42,32,69,068,43,40,18,253,35,41,41,230,44*73
$GLGSV,2,1,07,66,05,150,,67,57,151,29,68,63,330,31,69,12,330,22*68
$GLGSV,2,2,07,77,28,029,17,78,65,325,34,79,33,246,41*51
$GNGLL,3030.82589,N,11420.29495,E,061203.00,A,D*7F
$GNRMC,061204.00,A,3030.82512,N,11420.29479,E,2.714,189.91,220119,,,D*7E
$GNVTG,189.91,T,,M,2.714,N,5.026,K,D*2F
$GNGGA,061204.00,3030.82512,N,11420.29479,E,2,12,0.72,17.0,M,-10.8,M,,0000*5F
$GNGSA,A,3,14,22,26,31,32,03,10,25,41,29,40,,1.43,0.72,1.23*12
$GNGSA,A,3,68,79,78,77,67,,,,,,,,1.43,0.72,1.23*11
$GPGSV,4,1,16,01,00,283,,03,09,321,28,10,28,177,39,12,04,036,*71
$GPGSV,4,2,16,14,68,008,32,16,10,207,22,18,00,256,,20,05,165,*74
$GPGSV,4,3,16,22,25,307,33,25,35,044,30,26,38,207,43,29,19,098,27*72
$GPGSV,4,4,16,31,57,310,39,32,69,070,43,40,18,253,35,41,41,230,43*71
$GLGSV,2,1,07,66,05,150,,67,57,151,29,68,63,330,31,69,12,330,24*6E
$GLGSV,2,2,07,77,28,029,17,78,65,325,33,79,33,246,40*57
$GNGLL,3030.82512,N,11420.29479,E,061204.00,A,D*78
$GNRMC,061205.00,A,3030.82428,N,11420.29469,E,2.630,189.55,220119,,,D*79
$GNVTG,189.55,T,,M,2.630,N,4.871,K,D*2B
$GNGGA,061205.00,3030.82428,N,11420.29469,E,2,12,0.72,17.1,M,-10.8,M,,0000*56
$GNGSA,A,3,14,22,26,31,32,03,10,25,41,29,40,,1.43,0.72,1.23*12
$GNGSA,A,3,68,79,78,77,67,,,,,,,,1.43,0.72,1.23*11
$GPGSV,4,1,16,01,00,283,,03,09,321,29,10,28,177,40,12,04,036,*7E
$GPGSV,4,2,16,14,68,008,32,16,10,207,,18,00,256,,20,05,165,*74
$GPGSV,4,3,16,22,25,307,36,25,35,044,31,26,38,207,43,29,19,098,25*74
$GPGSV,4,4,16,31,57,310,40,32,69,070,42,40,18,253,35,41,41,230,42*7F
$GLGSV,2,1,07,66,05,150,,67,57,151,29,68,63,330,30,69,12,330,25*6E
$GLGSV,2,2,07,77,28,029,17,78,65,325,32,79,33,246,38*59
$GNGLL,3030.82428,N,11420.29469,E,061205.00,A,D*70
$GNRMC,061206.00,A,3030.82348,N,11420.29456,E,2.626,188.98,220119,,,D*70
$GNVTG,188.98,T,,M,2.626,N,4.863,K,D*2F
$GNGGA,061206.00,3030.82348,N,11420.29456,E,2,12,0.72,17.3,M,-10.8,M,,0000*5A
$GNGSA,A,3,14,22,26,31,32,03,10,25,41,29,40,,1.43,0.72,1.23*12
$GNGSA,A,3,68,79,78,77,67,,,,,,,,1.43,0.72,1.23*11
$GPGSV,4,1,16,01,00,283,,03,09,321,33,10,28,177,39,12,04,036,*7B
$GPGSV,4,2,16,14,68,008,26,16,10,207,,18,00,256,,20,05,165,*71
$GPGSV,4,3,16,22,25,307,33,25,35,044,34,26,38,207,44,29,19,098,24*72
$GPGSV,4,4,16,31,57,310,39,32,69,070,43,40,18,253,32,41,41,230,42*77
$GLGSV,2,1,07,66,05,150,,67,57,151,29,68,63,330,30,69,12,330,25*6E
$GLGSV,2,2,07,77,28,029,19,78,65,325,32,79,33,246,38*57
$GNGLL,3030.82348,N,11420.29456,E,061206.00,A,D*7E
$GNRMC,061207.00,A,3030.82273,N,11420.29448,E,2.413,187.92,220119,,,D*76
$GNVTG,187.92,T,,M,2.413,N,4.469,K,D*28
$GNGGA,061207.00,3030.82273,N,11420.29448,E,2,12,0.67,17.3,M,-10.8,M,,0000*59
$GNGSA,A,3,14,22,26,31,32,03,10,25,41,29,40,,1.22,0.67,1.03*13
$GNGSA,A,3,68,79,78,77,67,,,,,,,,1.22,0.67,1.03*10
$GPGSV,4,1,16,01,00,283,,03,09,321,32,10,28,177,40,12,04,036,*74
$GPGSV,4,2,16,14,68,008,27,16,10,207,27,18,00,256,,20,05,165,*75
$GPGSV,4,3,16,22,25,307,34,25,35,044,30,26,38,207,44,29,19,098,23*76
$GPGSV,4,4,16,31,57,310,39,32,69,070,43,40,18,253,36,41,41,230,42*73
$GLGSV,2,1,07,66,05,150,,67,57,151,27,68,63,330,30,69,12,330,24*61
$GLGSV,2,2,07,77,28,029,20,78,65,325,32,79,33,246,38*5D
$GNGLL,3030.82273,N,11420.29448,E,061207.00,A,D*79
$GNRMC,061208.00,A,3030.82217,N,11420.29421,E,1.964,197.17,220119,,,D*76
$GNVTG,197.17,T,,M,1.964,N,3.637,K,D*24
$GNGGA,061208.00,3030.82217,N,11420.29421,E,2,12,0.67,17.1,M,-10.8,M,,0000*59
$GNGSA,A,3,14,22,26,31,32,03,10,25,41,29,40,,1.22,0.67,1.03*13
$GNGSA,A,3,68,79,78,77,67,,,,,,,,1.22,0.67,1.03*10
$GPGSV,4,1,16,01,00,283,,03,09,321,32,10,28,177,36,12,04,036,*75
$GPGSV,4,2,16,14,68,008,36,16,10,207,25,18,00,256,,20,05,165,*77
$GPGSV,4,3,16,22,25,307,35,25,35,044,33,26,38,207,42,29,19,098,21*70
$GPGSV,4,4,16,31,57,310,38,32,69,070,43,40,18,253,37,41,41,230,43*72
$GLGSV,2,1,07,66,05,150,,67,57,151,31,68,63,330,30,69,12,330,29*6B
$GLGSV,2,2,07,77,28,029,20,78,65,325,32,79,33,246,38*5D
$GNGLL,3030.82217,N,11420.29421,E,061208.00,A,D*7B
$GNRMC,061209.00,A,3030.82208,N,11420.29368,E,1.953,235.43,220119,,,D*7D
$GNVTG,235.43,T,,M,1.953,N,3.618,K,D*27
$GNGGA,061209.00,3030.82208,N,11420.29368,E,2,12,0.67,16.7,M,-10.8,M,,0000*5B
$GNGSA,A,3,14,22,26,31,32,03,10,25,41,29,40,,1.22,0.67,1.03*13
$GNGSA,A,3,68,79,78,77,67,,,,,,,,1.22,0.67,1.03*10
$GPGSV,4,1,16,01,00,283,,03,09,321,33,10,28,177,37,12,04,036,*75
$GPGSV,4,2,16,14,68,008,37,16,10,207,22,18,00,256,,20,05,165,*71
$GPGSV,4,3,16,22,25,307,42,25,35,044,23,26,38,207,36,29,19,098,19*79
$GPGSV,4,4,16,31,57,310,42,32,69,070,36,40,18,253,38,41,41,230,38*7E
$GLGSV,2,1,07,66,05,150,,67,57,151,32,68,63,330,23,69,12,330,34*66
$GLGSV,2,2,07,77,28,029,19,78,65,325,26,79,33,246,32*58
$GNGLL,3030.82208,N,11420.29368,E,061209.00,A,D*7E
$GNRMC,061210.00,A,3030.82230,N,11420.29291,E,2.640,268.26,220119,,,D*7C
$GNVTG,268.26,T,,M,2.640,N,4.889,K,D*23
$GNGGA,061210.00,3030.82230,N,11420.29291,E,2,12,0.67,16.3,M,-10.8,M,,0000*5B
$GNGSA,A,3,14,22,26,31,32,03,10,25,41,29,40,,1.22,0.67,1.03*13
$GNGSA,A,3,68,79,78,77,67,,,,,,,,1.22,0.67,1.03*10
$GPGSV,4,1,16,01,00,283,,03,09,321,36,10,28,177,39,12,04,036,*7E
$GPGSV,4,2,16,14,68,008,33,16,10,207,,18,00,256,,20,05,165,*75
$GPGSV,4,3,16,22,25,307,41,25,35,044,30,26,38,207,36,29,19,098,17*76
$GPGSV,4,4,16,31,57,310,41,32,69,070,36,40,18,253,36,41,41,230,40*7C
$GLGSV,2,1,07,66,05,150,,67,57,151,32,68,63,330,21,69,12,330,33*63
$GLGSV,2,2,07,77,28,029,19,78,65,325,23,79,33,246,33*5C
$GNGLL,3030.82230,N,11420.29291,E,061210.00,A,D*7A
$GNRMC,061211.00,A,3030.82250,N,11420.29204,E,2.682,278.01,220119,,,D*7D
$GNVTG,278.01,T,,M,2.682,N,4.967,K,D*28
$GNGGA,061211.00,3030.82250,N,11420.29204,E,2,12,0.67,16.0,M,-10.8,M,,0000*53
$GNGSA,A,3,14,22,26,31,32,03,10,25,41,29,40,,1.22,0.67,1.03*13
$GNGSA,A,3,68,79,78,77,67,,,,,,,,1.22,0.67,1.03*10
$GPGSV,4,1,16,01,00,283,,03,09,321,37,10,28,177,36,12,04,036,*70
$GPGSV,4,2,16,14,68,008,36,16,10,207,,18,00,256,,20,05,165,24*76
$GPGSV,4,3,16,22,25,307,38,25,35,044,30,26,38,207,36,29,19,098,15*7A
$GPGSV,4,4,16,31,57,310,41,32,69,070,40,40,18,253,35,41,41,230,41*7F
$GLGSV,2,1,07,66,05,150,,67,57,151,33,68,63,330,19,69,12,330,35*6F
$GLGSV,2,2,07,77,28,029,19,78,65,325,21,79,33,246,34*59
$GNGLL,3030.82250,N,11420.29204,E,061211.00,A,D*71
$GNRMC,061212.00,A,3030.82258,N,11420.29112,E,2.652,280.97,220119,,,D*77
$GNVTG,280.97,T,,M,2.652,N,4.912,K,D*2F
$GNGGA,061212.00,3030.82258,N,11420.29112,E,2,12,0.67,16.5,M,-10.8,M,,0000*59
$GNGSA,A,3,14,22,26,31,32,03,10,25,41,29,40,,1.22,0.67,1.03*13
$GNGSA,A,3,68,79,78,77,67,,,,,,,,1.22,0.67,1.03*10
$GPGSV,4,1,16,01,00,283,,03,09,321,37,10,28,177,38,12,04,036,*7E
$GPGSV,4,2,16,14,68,008,33,16,10,207,,18,00,256,,20,05,165,24*73
$GPGSV,4,3,16,22,25,307,39,25,35,044,31,26,38,207,36,29,19,098,15*7A
$GPGSV,4,4,16,31,57,310,41,32,69,070,41,40,18,253,35,41,41,230,40*7F
$GLGSV,2,1,07,66,05,150,,67,57,151,33,68,63,330,18,69,12,330,32*69
$GLGSV,2,2,07,77,28,029,18,78,65,325,21,79,33,246,35*59
$GNGLL,3030.82258,N,11420.29112,E,061212.00,A,D*7E
$GNRMC,061213.00,A,3030.82272,N,11420.29015,E,2.883,282.85,220119,,,D*7B
$GNVTG,282.85,T,,M,2.883,N,5.339,K,D*2E
$GNGGA,061213.00,3030.82272,N,11420.29015,E,2,12,0.72,16.7,M,-10.8,M,,0000*50
$GNGSA,A,3,14,22,26,31,32,03,10,25,41,29,40,,1.43,0.72,1.23*12
$GNGSA,A,3,68,79,78,77,67,,,,,,,,1.43,0.72,1.23*11
$GPGSV,4,1,16,01,00,283,,03,09,321,36,10,28,177,33,12,04,036,*74
$GPGSV,4,2,16,14,68,008,36,16,10,207,,18,00,256,,20,05,165,24*76
$GPGSV,4,3,16,22,25,307,38,25,35,044,34,26,38,207,37,29,19,098,15*7F
$GPGSV,4,4,16,31,57,310,42,32,69,070,37,40,18,253,39,41,41,230,40*71
$GLGSV,2,1,07,66,05,150,,67,57,151,33,68,63,330,18,69,12,330,35*6E
$GLGSV,2,2,07,77,28,029,19,78,65,325,21,79,33,246,34*59
$GNGLL,3030.82272,N,11420.29015,E,061213.00,A,D*71
$GNRMC,061214.00,A,3030.82285,N,11420.28915,E,3.111,283.36,220119,,,D*76
$GNVTG,283.36,T,,M,3.111,N,5.761,K,D*2D
$GNGGA,061214.00,3030.82285,N,11420.28915,E,2,12,0.67,17.1,M,-10.8,M,,0000*54
$GNGSA,A,3,14,22,26,31,32,03,10,25,41,29,40,,1.22,0.67,1.03*13
$GNGSA,A,3,68,79,78,77,67,,,,,,,,1.22,0.67,1.03*10
$GPGSV,4,1,16,01,00,283,,03,09,321,34,10,28,177,33,12,04,036,*76
$GPGSV,4,2,16,14,68,008,28,16,10,207,,18,00,256,,20,05,165,22*7F
$GPGSV,4,3,16,22,25,307,38,25,35,044,35,26,38,207,39,29,19,098,13*76
$GPGSV,4,4,16,31,57,310,42,32,69,070,40,40,18,253,39,41,41,230,39*7F
$GLGSV,2,1,07,66,05,150,,67,57,151,34,68,63,330,19,69,12,330,31*6C
$GLGSV,2,2,07,77,28,029,21,78,65,325,21,79,33,246,33*55
$GNGLL,3030.82285,N,11420.28915,E,061214.00,A,D*76
$GNRMC,061215.00,A,3030.82306,N,11420.28814,E,3.107,284.00,220119,,,D*78
$GNVTG,284.00,T,,M,3.107,N,5.754,K,D*2E
$GNGGA,061215.00,3030.82306,N,11420.28814,E,2,12,0.67,17.1,M,-10.8,M,,0000*5F
$GNGSA,A,3,14,22,26,31,32,03,10,25,41,29,40,,1.22,0.67,1.03*13
$GNGSA,A,3,68,79,78,77,67,,,,,,,,1.22,0.67,1.03*10
$GPGSV,4,1,16,01,00,283,,03,09,321,29,10,28,177,28,12,04,036,*70
$GPGSV,4,2,16,14,68,008,28,16,10,207,22,18,00,256,,20,05,165,18*76
$GPGSV,4,3,16,22,25,307,38,25,35,044,32,26,38,207,40,29,19,098,16*7A
$GPGSV,4,4,16,31,57,310,43,32,69,070,41,40,18,253,38,41,41,230,37*70
$GLGSV,2,1,07,66,05,150,,67,57,151,36,68,63,330,20,69,12,330,26*62
$GLGSV,2,2,07,77,28,029,21,78,65,325,21,79,33,246,36*50
$GNGLL,3030.82306,N,11420.28814,E,061215.00,A,D*7D
$GNRMC,061216.00,A,3030.82328,N,11420.28717,E,2.991,284.31,220119,,,D*7F
$GNVTG,284.31,T,,M,2.991,N,5.539,K,D*23
$GNGGA,061216.00,3030.82328,N,11420.28717,E,2,12,0.67,17.1,M,-10.8,M,,0000*5C
$GNGSA,A,3,14,22,26,31,32,03,10,25,41,29,40,,1.22,0.67,1.03*13
$GNGSA,A,3,68,79,78,77,67,,,,,,,,1.22,0.67,1.03*10
$GPGSV,4,1,16,01,00,283,,03,09,321,29,10,28,177,28,12,04,036,*70
$GPGSV,4,2,16,14,68,008,35,16,10,207,21,18,00,256,,20,05,165,16*77
$GPGSV,4,3,16,22,25,307,39,25,35,044,33,26,38,207,40,29,19,098,16*7A
$GPGSV,4,4,16,31,57,310,42,32,69,070,37,40,18,253,37,41,41,230,37*7F
$GLGSV,2,1,07,66,05,150,,67,57,151,36,68,63,330,19,69,12,330,34*6B
$GLGSV,2,2,07,77,28,029,20,78,65,325,20,79,33,246,34*52
$GNGLL,3030.82328,N,11420.28717,E,061216.00,A,D*7E
$GNRMC,061217.00,A,3030.82340,N,11420.28635,E,2.606,283.41,220119,,,D*70
$GNVTG,283.41,T,,M,2.606,N,4.827,K,D*21
$GNGGA,061217.00,3030.82340,N,11420.28635,E,2,12,0.75,16.6,M,-10.8,M,,0000*57
$GNGSA,A,3,14,22,26,31,32,03,10,25,41,29,40,,1.40,0.75,1.18*1E
$GNGSA,A,3,68,79,78,77,67,,,,,,,,1.40,0.75,1.18*1D
$GPGSV,4,1,16,01,00,283,,03,09,321,34,10,28,177,24,12,04,036,*70
$GPGSV,4,2,16,14,68,008,36,16,10,207,20,18,00,256,,20,05,165,14*77
$GPGSV,4,3,16,22,25,307,40,25,35,044,32,26,38,207,40,29,19,098,10*73
$GPGSV,4,4,16,31,57,310,42,32,69,070,37,40,18,253,35,41,41,230,37*7D
$GLGSV,2,1,07,66,05,150,,67,57,151,36,68,63,330,19,69,12,330,28*66
$GLGSV,2,2,07,77,28,029,19,78,65,325,21,79,33,246,34*59
$GNGLL,3030.82340,N,11420.28635,E,061217.00,A,D*70
$GNRMC,061218.00,A,3030.82361,N,11420.28551,E,2.790,287.16,220119,,,D*75
$GNVTG,287.16,T,,M,2.790,N,5.167,K,D*25
$GNGGA,061218.00,3030.82361,N,11420.28551,E,2,12,0.66,16.5,M,-10.8,M,,0000*5B
$GNGSA,A,3,14,22,26,31,32,03,10,25,41,29,40,,1.33,0.66,1.15*15
$GNGSA,A,3,68,79,78,77,67,,,,,,,,1.33,0.66,1.15*16
$GPGSV,4,1,16,01,00,283,,03,09,321,31,10,28,177,26,12,04,036,*77
$GPGSV,4,2,16,14,68,008,29,16,10,207,22,18,00,256,,20,05,165,13*7C
$GPGSV,4,3,16,22,25,307,34,25,35,044,36,26,38,207,34,29,19,098,13*74
$GPGSV,4,4,16,31,57,310,42,32,69,070,43,40,18,253,31,41,41,230,37*7A
$GLGSV,2,1,07,66,05,150,,67,57,151,34,68,63,330,19,69,12,330,18*67
$GLGSV,2,2,07,77,28,029,20,78,65,325,22,79,33,246,35*51
$GNGLL,3030.82361,N,11420.28551,E,061218.00,A,D*7D
$GNRMC,061219.00,A,3030.82382,N,11420.28465,E,2.731,285.28,220119,,,D*7B
$GNVTG,285.28,T,,M,2.731,N,5.058,K,D*2C
$GNGGA,061219.00,3030.82382,N,11420.28465,E,2,12,0.66,15.9,M,-10.8,M,,0000*5E
$GNGSA,A,3,14,22,26,31,32,03,10,25,41,29,40,,1.33,0.66,1.15*15
$GNGSA,A,3,68,79,78,77,67,,,,,,,,1.33,0.66,1.15*16
$GPGSV,4,1,16,01,00,283,,03,09,321,24,10,28,177,27,12,04,036,*72
$GPGSV,4,2,16,14,68,008,32,16,10,207,22,18,00,256,,20,05,165,11*74
$GPGSV,4,3,16,22,25,307,36,25,35,044,33,26,38,207,33,29,19,098,12*75
$GPGSV,4,4,16,31,57,310,42,32,69,070,41,40,18,253,31,41,41,230,40*78
$GLGSV,2,1,07,66,05,150,,67,57,151,34,68,63,330,20,69,12,330,29*6F
$GLGSV,2,2,07,77,28,029,21,78,65,325,23,79,33,246,36*52
$GNGLL,3030.82382,N,11420.28465,E,061219.00,A,D*77
$GNRMC,061220.00,A,3030.82400,N,11420.28378,E,2.753,285.01,220119,,,D*78
$GNVTG,285.01,T,,M,2.753,N,5.098,K,D*2F
$GNGGA,061220.00,3030.82400,N,11420.28378,E,2,12,0.69,15.6,M,-10.8,M,,0000*52
$GNGSA,A,3,14,22,26,31,32,03,10,25,41,29,40,,1.30,0.69,1.10*1C
$GNGSA,A,3,68,79,78,77,67,,,,,,,,1.30,0.69,1.10*1F
$GPGSV,4,1,16,01,00,283,,03,09,321,24,10,28,177,32,12,04,036,*76
$GPGSV,4,2,16,14,68,008,30,16,10,207,24,18,00,256,,20,05,165,14*75
$GPGSV,4,3,16,22,25,307,35,25,35,044,34,26,38,207,35,29,19,098,14*71
$GPGSV,4,4,16,31,57,310,43,32,69,070,41,40,18,253,29,41,41,230,40*70
$GLGSV,2,1,07,66,05,150,,67,57,151,34,68,63,330,21,69,12,330,29*6E
$GLGSV,2,2,07,77,28,029,21,78,65,325,23,79,33,246,35*51
$GNGLL,3030.82400,N,11420.28378,E,061220.00,A,D*7B
$GNRMC,061221.00,A,3030.82418,N,11420.28291,E,2.708,283.88,220119,,,D*7F
$GNVTG,283.88,T,,M,2.708,N,5.015,K,D*23
$GNGGA,061221.00,3030.82418,N,11420.28291,E,2,12,0.63,15.4,M,-10.8,M,,0000*54
