$GNRMC,013148.00,A,3030.87247,N,11420.31978,E,0.035,,220119,,,A*62
$GNVTG,,T,,M,0.035,N,0.065,K,A*38
$GNGGA,013148.00,3030.87247,N,11420.31978,E,1,10,1.07,-6.3,M,-10.8,M,,*4A
$GNGSA,A,3,15,20,10,32,,,,,,,,,2.85,1.07,2.65*12
$GNGSA,A,3,66,88,76,75,81,65,,,,,,,2.85,1.07,2.65*1D
$GPGSV,2,1,07,10,19,309,42,15,49,037,42,20,44,321,35,21,,,39*4E
$GPGSV,2,2,07,24,,,35,32,06,253,42,41,41,230,35*7C
$GLGSV,3,1,10,65,38,045,27,66,36,322,28,67,01,285,,72,07,079,*65
$GLGSV,3,2,10,74,09,028,,75,42,076,37,76,39,139,23,81,36,285,32*67
$GLGSV,3,3,10,87,03,188,,88,31,224,24*69
$GNGLL,3030.87247,N,11420.31978,E,013148.00,A,A*74
$GNRMC,013149.00,A,3030.87239,N,11420.31979,E,0.100,,220119,,,A*6C
$GNVTG,,T,,M,0.100,N,0.186,K,A*33
$GNGGA,013149.00,3030.87239,N,11420.31979,E,1,10,0.99,-6.1,M,-10.8,M,,*47
$GNGSA,A,3,15,20,10,32,,,,,,,,,2.62,0.99,2.42*18
$GNGSA,A,3,66,88,76,75,81,65,,,,,,,2.62,0.99,2.42*17
$GPGSV,2,1,07,10,19,309,41,15,49,037,43,20,44,321,31,21,,,39*48
$GPGSV,2,2,07,24,,,38,32,06,253,45,41,41,230,39*7A
$GLGSV,3,1,10,65,38,045,32,66,36,322,30,67,01,285,,72,07,079,*68
$GLGSV,3,2,10,74,09,028,,75,42,076,40,76,39,139,34,81,36,284,36*64
$GLGSV,3,3,10,87,03,188,,88,31,224,25*68
$GNGLL,3030.87239,N,11420.31979,E,013149.00,A,A*7D
$GNRMC,013150.00,A,3030.87238,N,11420.31980,E,0.098,,220119,,,A*63
$GNVTG,,T,,M,0.098,N,0.182,K,A*37
$GNGGA,013150.00,3030.87238,N,11420.31980,E,1,10,0.99,-6.1,M,-10.8,M,,*48
$GNGSA,A,3,15,20,10,32,,,,,,,,,2.62,0.99,2.42*18
$GNGSA,A,3,66,88,76,75,81,65,,,,,,,2.62,0.99,2.42*17
$GPGSV,2,1,07,10,19,309,38,15,49,037,42,20,44,321,33,21,,,39*45
$GPGSV,2,2,07,24,,,35,32,06,253,44,41,41,230,38*77
$GLGSV,3,1,10,65,38,045,29,66,36,322,31,67,01,285,,72,07,079,*63
$GLGSV,3,2,10,74,09,028,,75,42,076,35,76,39,139,29,81,36,284,28*65
$GLGSV,3,3,10,87,03,188,,88,31,224,26*6B
$GNGLL,3030.87238,N,11420.31980,E,013150.00,A,A*72
$GNRMC,013151.00,A,3030.87235,N,11420.31986,E,0.108,,220119,,,A*61
$GNVTG,,T,,M,0.108,N,0.200,K,A*36
$GNGGA,013151.00,3030.87235,N,11420.31986,E,1,10,0.99,-6.3,M,-10.8,M,,*40
$GNGSA,A,3,15,20,10,32,,,,,,,,,2.62,0.99,2.42*18
$GNGSA,A,3,66,88,76,75,81,65,,,,,,,2.62,0.99,2.42*17
$GPGSV,2,1,07,10,19,309,38,15,49,037,40,20,44,321,28,21,,,39*4D
$GPGSV,2,2,07,24,,,34,32,06,253,44,41,41,230,36*78
$GLGSV,3,1,10,65,38,045,29,66,36,322,30,67,01,285,,72,07,079,*62
$GLGSV,3,2,10,74,09,028,,75,42,076,35,76,39,139,29,81,36,284,29*64
$GLGSV,3,3,10,87,03,188,,88,31,224,27*6A
$GNGLL,3030.87235,N,11420.31986,E,013151.00,A,A*78
$GNRMC,013152.00,A,3030.87232,N,11420.32007,E,0.048,,220119,,,A*63
$GNVTG,,T,,M,0.048,N,0.088,K,A*31
$GNGGA,013152.00,3030.87232,N,11420.32007,E,1,10,0.99,-6.9,M,-10.8,M,,*4D
$GNGSA,A,3,15,20,10,32,,,,,,,,,2.62,0.99,2.42*18
$GNGSA,A,3,66,88,76,75,81,65,,,,,,,2.62,0.99,2.42*17
$GPGSV,2,1,07,10,19,309,35,15,49,037,38,20,44,321,29,21,,,38*4F
$GPGSV,2,2,07,24,,,34,32,06,253,40,41,41,230,35*7F
$GLGSV,3,1,10,65,38,045,30,66,36,322,30,67,01,285,,72,07,079,*6A
$GLGSV,3,2,10,74,09,028,,75,42,076,38,76,39,139,30,81,36,284,31*68
$GLGSV,3,3,10,87,03,188,,88,31,224,31*6D
$GNGLL,3030.87232,N,11420.32007,E,013152.00,A,A*7F
$GNRMC,013153.00,A,3030.87239,N,11420.32023,E,0.126,,220119,,,A*66
$GNVTG,,T,,M,0.126,N,0.234,K,A*3D
$GNGGA,013153.00,3030.87239,N,11420.32023,E,1,10,0.99,-7.5,M,-10.8,M,,*4C
$GNGSA,A,3,15,20,10,32,,,,,,,,,2.62,0.99,2.42*18
$GNGSA,A,3,66,88,76,75,81,65,,,,,,,2.62,0.99,2.42*17
$GPGSV,2,1,07,10,19,309,38,15,49,037,40,20,44,321,29,21,,,39*4C
$GPGSV,2,2,07,24,,,33,32,06,253,42,41,41,230,38*77
$GLGSV,3,1,11,65,38,045,31,66,36,322,30,67,01,285,,72,07,079,*6A
$GLGSV,3,2,11,74,09,028,19,75,42,076,39,76,39,139,30,81,36,284,30*61
$GLGSV,3,3,11,82,10,330,,87,03,188,,88,31,224,30*56
$GNGLL,3030.87239,N,11420.32023,E,013153.00,A,A*73
$GNRMC,013154.00,A,3030.87245,N,11420.32042,E,0.107,,220119,,,A*6E
$GNVTG,,T,,M,0.107,N,0.199,K,A*3A
$GNGGA,013154.00,3030.87245,N,11420.32042,E,1,10,0.99,-8.1,M,-10.8,M,,*4C
$GNGSA,A,3,15,20,10,32,,,,,,,,,2.62,0.99,2.42*18
$GNGSA,A,3,66,88,76,75,81,65,,,,,,,2.62,0.99,2.42*17
$GPGSV,2,1,07,10,19,309,38,15,49,037,40,20,44,321,27,21,,,37*4C
$GPGSV,2,2,07,24,,,33,32,06,253,43,41,41,230,37*79
$GLGSV,3,1,11,65,38,045,33,66,36,322,31,67,01,285,,72,07,079,*69
$GLGSV,3,2,11,74,09,028,18,75,42,076,41,76,39,139,30,81,36,284,28*66
$GLGSV,3,3,11,82,10,330,27,87,03,188,,88,31,224,29*5B
$GNGLL,3030.87245,N,11420.32042,E,013154.00,A,A*78
$GNRMC,013155.00,A,3030.87245,N,11420.32036,E,0.050,,220119,,,A*6F
$GNVTG,,T,,M,0.050,N,0.092,K,A*33
$GNGGA,013155.00,3030.87245,N,11420.32036,E,1,10,1.21,-7.8,M,-10.8,M,,*4A
$GNGSA,A,3,15,20,10,32,,,,,,,,,3.46,1.21,3.24*1C
$GNGSA,A,3,66,88,76,75,81,65,,,,,,,3.46,1.21,3.24*13
$GPGSV,2,1,07,10,19,309,37,15,49,037,40,20,44,321,26,21,,,38*4D
$GPGSV,2,2,07,24,,,32,32,06,253,42,41,41,230,38*76
$GLGSV,3,1,11,65,38,045,33,66,36,322,30,67,01,285,,72,07,079,*68
$GLGSV,3,2,11,74,09,028,17,75,42,076,40,76,39,139,30,81,36,284,27*67
$GLGSV,3,3,11,82,10,330,27,87,03,188,,88,31,224,29*5B
$GNGLL,3030.87245,N,11420.32036,E,013155.00,A,A*7A
$GNRMC,013156.00,A,3030.87246,N,11420.32018,E,0.061,,220119,,,A*61
$GNVTG,,T,,M,0.061,N,0.113,K,A*39
$GNGGA,013156.00,3030.87246,N,11420.32018,E,1,10,1.07,-7.2,M,-10.8,M,,*48
$GNGSA,A,3,15,20,10,32,,,,,,,,,2.86,1.07,2.65*11
$GNGSA,A,3,66,88,76,75,81,65,,,,,,,2.86,1.07,2.65*1E
$GPGSV,2,1,07,10,19,309,39,15,49,037,38,20,44,321,25,21,,,37*40
$GPGSV,2,2,07,24,,,32,32,06,253,43,41,41,230,37*78
$GLGSV,3,1,11,65,38,045,30,66,36,322,29,67,01,285,,72,07,079,*63
$GLGSV,3,2,11,74,09,028,15,75,42,076,42,76,39,139,30,81,36,284,26*66
$GLGSV,3,3,11,82,10,330,27,87,03,188,,88,31,224,28*5A
$GNGLL,3030.87246,N,11420.32018,E,013156.00,A,A*76
$GNRMC,013157.00,A,3030.87264,N,11420.32009,E,1.064,10.51,220119,,,A*4F
$GNVTG,10.51,T,,M,1.064,N,1.971,K,A*1B
$GNGGA,013157.00,3030.87264,N,11420.32009,E,1,10,1.07,-6.5,M,-10.8,M,,*4F
$GNGSA,A,3,15,20,10,32,,,,,,,,,2.86,1.07,2.65*11
$GNGSA,A,3,66,88,76,75,81,65,,,,,,,2.86,1.07,2.65*1E
$GPGSV,2,1,06,10,19,309,37,15,48,037,36,20,44,321,32,21,,,36*47
$GPGSV,2,2,06,24,,,28,32,06,253,26*44
$GLGSV,3,1,11,65,38,045,30,66,36,322,34,67,01,285,,72,07,079,*6F
$GLGSV,3,2,11,74,09,028,13,75,42,076,36,76,39,139,20,81,36,284,30*65
$GLGSV,3,3,11,82,10,330,26,87,03,188,,88,31,224,26*55
$GNGLL,3030.87264,N,11420.32009,E,013157.00,A,A*77
$GNRMC,013158.00,A,3030.87301,N,11420.31997,E,1.216,354.56,220119,,,A*7C
$GNVTG,354.56,T,,M,1.216,N,2.253,K,A*20
$GNGGA,013158.00,3030.87301,N,11420.31997,E,1,10,1.15,-6.7,M,-10.8,M,,*4E
$GNGSA,A,3,15,20,10,32,,,,,,,,,2.69,1.15,2.44*10
$GNGSA,A,3,66,88,76,75,81,65,,,,,,,2.69,1.15,2.44*1F
$GPGSV,2,1,06,10,19,309,26,15,48,037,36,20,44,321,35,21,,,34*42
$GPGSV,2,2,06,24,,,32,32,06,253,24*4D
$GLGSV,3,1,11,65,38,045,30,66,36,322,29,67,01,285,,72,07,079,*63
$GLGSV,3,2,11,74,09,028,11,75,42,076,23,76,39,139,19,81,36,284,38*61
$GLGSV,3,3,11,82,10,330,23,87,03,188,,88,31,224,24*52
$GNGLL,3030.87301,N,11420.31997,E,013158.00,A,A*77
$GNRMC,013159.00,A,3030.87330,N,11420.31965,E,1.435,339.13,220119,,,A*7F
$GNVTG,339.13,T,,M,1.435,N,2.657,K,A*2D
$GNGGA,013159.00,3030.87330,N,11420.31965,E,1,10,0.99,-6.5,M,-10.8,M,,*47
$GNGSA,A,3,15,20,10,32,,,,,,,,,2.62,0.99,2.43*19
$GNGSA,A,3,66,88,76,75,81,65,,,,,,,2.62,0.99,2.43*16
$GPGSV,2,1,06,10,19,309,31,15,48,037,43,20,44,321,35,21,,,39*4B
$GPGSV,2,2,06,24,,,38,32,06,253,27*44
$GLGSV,3,1,11,65,38,045,29,66,36,322,33,67,01,285,,72,07,079,*60
$GLGSV,3,2,11,74,09,028,09,75,42,076,22,76,39,139,21,81,36,284,37*6D
$GLGSV,3,3,11,82,10,330,21,87,03,188,,88,31,224,22*56
$GNGLL,3030.87330,N,11420.31965,E,013159.00,A,A*79
$GNRMC,013200.00,A,3030.87334,N,11420.31896,E,1.250,,220119,,,A*69
$GNVTG,,T,,M,1.250,N,2.315,K,A*3E
$GNGGA,013200.00,3030.87334,N,11420.31896,E,1,10,0.99,-4.7,M,-10.8,M,,*41
$GNGSA,A,3,15,20,10,32,,,,,,,,,2.62,0.99,2.43*19
$GNGSA,A,3,66,88,76,75,81,65,,,,,,,2.62,0.99,2.43*16
$GPGSV,2,1,06,10,19,309,35,15,48,037,39,20,44,321,41,21,,,41*4E
$GPGSV,2,2,06,24,,,33,32,06,253,32*4B
$GLGSV,3,1,11,65,38,045,28,66,36,322,33,67,01,285,,72,07,079,*61
$GLGSV,3,2,11,74,09,028,14,75,42,076,26,76,39,139,31,81,36,284,40*64
$GLGSV,3,3,11,82,10,330,20,87,03,188,20,88,31,224,23*54
$GNGLL,3030.87334,N,11420.31896,E,013200.00,A,A*7F
$GNRMC,013201.00,A,3030.87317,N,11420.31865,E,0.632,,220119,,,A*64
$GNVTG,,T,,M,0.632,N,1.171,K,A*3C
$GNGGA,013201.00,3030.87317,N,11420.31865,E,1,10,1.15,-4.2,M,-10.8,M,,*4D
$GNGSA,A,3,15,20,10,32,,,,,,,,,2.70,1.15,2.44*18
$GNGSA,A,3,66,88,76,75,81,65,,,,,,,2.70,1.15,2.44*17
$GPGSV,2,1,06,10,19,309,36,15,48,037,30,20,44,321,38,21,,,39*45
$GPGSV,2,2,06,24,,,38,32,06,253,32*40
$GLGSV,3,1,11,65,38,045,26,66,36,322,33,67,01,285,,72,07,079,21*6C
$GLGSV,3,2,11,74,09,028,17,75,42,076,26,76,39,139,31,81,36,284,37*67
$GLGSV,3,3,11,82,10,330,20,87,03,188,18,88,31,224,24*58
$GNGLL,3030.87317,N,11420.31865,E,013201.00,A,A*73
$GNRMC,013202.00,A,3030.87267,N,11420.31808,E,1.770,250.02,220119,,,A*77
$GNVTG,250.02,T,,M,1.770,N,3.277,K,A*26
$GNGGA,013202.00,3030.87267,N,11420.31808,E,1,10,0.99,-2.9,M,-10.8,M,,*4B
$GNGSA,A,3,15,20,10,32,,,,,,,,,2.62,0.99,2.43*19
$GNGSA,A,3,66,88,76,75,81,65,,,,,,,2.62,0.99,2.43*16
$GPGSV,2,1,06,10,19,309,32,15,48,037,30,20,45,321,39,21,,,35*4D
$GPGSV,2,2,06,24,,,43,32,06,253,28*47
$GLGSV,3,1,11,65,38,045,25,66,36,322,37,67,01,285,,72,07,079,18*61
$GLGSV,3,2,11,74,09,028,17,75,42,076,35,76,39,139,41,81,36,284,34*61
$GLGSV,3,3,11,82,10,330,21,87,03,188,16,88,31,224,30*52
$GNGLL,3030.87267,N,11420.31808,E,013202.00,A,A*7D
$GNRMC,013203.00,A,3030.87208,N,11420.31736,E,1.727,248.47,220119,,,A*77
$GNVTG,248.47,T,,M,1.727,N,3.198,K,A*2E
$GNGGA,013203.00,3030.87208,N,11420.31736,E,1,10,1.00,-1.4,M,-10.8,M,,*4E
$GNGSA,A,3,15,20,10,32,,,,,,,,,3.73,1.00,3.59*13
$GNGSA,A,3,66,88,76,75,81,65,,,,,,,3.73,1.00,3.59*1C
$GPGSV,2,1,06,10,19,309,35,15,48,037,29,20,45,321,38,21,,,38*4E
$GPGSV,2,2,06,24,,,38,32,06,253,30*42
$GLGSV,3,1,11,65,38,045,24,66,36,322,39,67,01,285,,72,07,079,17*61
$GLGSV,3,2,11,74,09,028,18,75,42,076,37,76,39,139,39,81,36,284,36*61
$GLGSV,3,3,11,82,10,330,29,87,03,188,14,88,31,224,29*50
$GNGLL,3030.87208,N,11420.31736,E,013203.00,A,A*77
$GNRMC,013204.00,A,3030.87177,N,11420.31675,E,1.800,248.74,220119,,,A*77
$GNVTG,248.74,T,,M,1.800,N,3.334,K,A*20
$GNGGA,013204.00,3030.87177,N,11420.31675,E,1,10,0.99,-0.6,M,-10.8,M,,*46
$GNGSA,A,3,15,20,10,32,,,,,,,,,2.62,0.99,2.43*19
$GNGSA,A,3,66,88,76,75,81,65,,,,,,,2.62,0.99,2.43*16
$GPGSV,2,1,06,10,19,309,33,15,48,037,36,20,45,321,39,21,,,33*4C
$GPGSV,2,2,06,24,,,41,32,06,253,30*4C
$GLGSV,3,1,11,65,38,045,24,66,36,322,37,67,01,285,,72,07,079,15*6D
$GLGSV,3,2,11,74,09,028,20,75,42,076,35,76,39,139,34,81,36,284,34*67
$GLGSV,3,3,11,82,10,330,28,87,03,188,14,88,31,224,30*59
$GNGLL,3030.87177,N,11420.31675,E,013204.00,A,A*7D
$GNRMC,013205.00,A,3030.87143,N,11420.31609,E,2.107,250.29,220119,,,A*76
$GNVTG,250.29,T,,M,2.107,N,3.902,K,A*23
$GNGGA,013205.00,3030.87143,N,11420.31609,E,1,10,1.00,-0.1,M,-10.8,M,,*4D
$GNGSA,A,3,15,20,10,32,,,,,,,,,3.73,1.00,3.59*13
$GNGSA,A,3,66,88,76,75,81,65,,,,,,,3.73,1.00,3.59*1C
$GPGSV,2,1,06,10,19,309,31,15,48,037,33,20,45,321,37,21,,,39*4F
$GPGSV,2,2,06,24,,,37,32,06,253,30*4D
$GLGSV,3,1,11,65,38,045,24,66,36,322,39,67,01,285,,72,07,079,13*65
$GLGSV,3,2,11,74,09,028,23,75,42,076,38,76,39,139,36,81,36,284,35*6A
$GLGSV,3,3,11,82,10,330,28,87,03,188,16,88,31,224,30*5B
$GNGLL,3030.87143,N,11420.31609,E,013205.00,A,A*70
$GNRMC,013206.00,A,3030.87126,N,11420.31551,E,1.628,253.09,220119,,,A*70
$GNVTG,253.09,T,,M,1.628,N,3.016,K,A*27
$GNGGA,013206.00,3030.87126,N,11420.31551,E,1,10,0.99,0.0,M,-10.8,M,,*6E
$GNGSA,A,3,15,20,10,32,,,,,,,,,2.62,0.99,2.43*19
$GNGSA,A,3,66,88,76,75,81,65,,,,,,,2.62,0.99,2.43*16
$GPGSV,2,1,06,10,19,309,31,15,48,037,30,20,45,321,44,21,,,40*46
$GPGSV,2,2,06,24,,,33,32,06,253,37*4E
$GLGSV,3,1,11,65,38,045,25,66,36,322,35,67,01,285,,72,07,079,10*6B
$GLGSV,3,2,11,74,09,028,23,75,42,076,25,76,39,139,32,81,36,284,31*66
$GLGSV,3,3,11,82,10,330,27,87,03,188,17,88,31,224,31*54
$GNGLL,3030.87126,N,11420.31551,E,013206.00,A,A*7E
$GNRMC,013207.00,A,3030.87118,N,11420.31483,E,1.879,263.70,220119,,,A*75
$GNVTG,263.70,T,,M,1.879,N,3.480,K,A*2B
$GNGGA,013207.00,3030.87118,N,11420.31483,E,1,10,0.99,0.1,M,-10.8,M,,*6D
$GNGSA,A,3,15,20,10,32,,,,,,,,,2.62,0.99,2.43*19
$GNGSA,A,3,66,88,76,75,81,65,,,,,,,2.62,0.99,2.43*16
$GPGSV,2,1,06,10,19,309,25,15,48,037,29,20,45,321,40,21,,,41*4E
$GPGSV,2,2,06,24,,,35,32,06,253,31*4E
$GLGSV,3,1,11,65,38,045,26,66,36,322,33,67,01,285,,72,07,079,10*6E
$GLGSV,3,2,11,74,09,028,23,75,42,076,28,76,39,139,32,81,36,284,37*6D
$GLGSV,3,3,11,82,10,330,31,87,03,188,17,88,31,224,26*55
$GNGLL,3030.87118,N,11420.31483,E,013207.00,A,A*7C
$GNRMC,013208.00,A,3030.87120,N,11420.31425,E,1.729,272.04,220119,,,A*74
$GNVTG,272.04,T,,M,1.729,N,3.202,K,A*2E
$GNGGA,013208.00,3030.87120,N,11420.31425,E,1,10,0.99,0.2,M,-10.8,M,,*66
$GNGSA,A,3,15,20,10,32,,,,,,,,,2.62,0.99,2.43*19
$GNGSA,A,3,66,88,76,75,81,65,,,,,,,2.62,0.99,2.43*16
$GPGSV,2,1,07,10,19,309,34,15,48,037,31,20,45,321,30,21,,,40*40
$GPGSV,2,2,07,24,,,35,32,06,253,31,41,41,230,33*7E
$GLGSV,3,1,11,65,38,045,27,66,36,322,28,67,01,285,,72,07,079,10*65
$GLGSV,3,2,11,74,09,028,24,75,42,076,20,76,39,139,31,81,36,284,35*63
$GLGSV,3,3,11,82,10,330,25,87,03,188,16,88,31,224,31*57
$GNGLL,3030.87120,N,11420.31425,E,013208.00,A,A*74
$GNRMC,013209.00,A,3030.87091,N,11420.31363,E,1.510,279.36,220119,,,A*79
$GNVTG,279.36,T,,M,1.510,N,2.796,K,A*25
$GNGGA,013209.00,3030.87091,N,11420.31363,E,1,10,0.99,1.8,M,-10.8,M,,*62
$GNGSA,A,3,15,20,10,32,,,,,,,,,2.62,0.99,2.43*19
$GNGSA,A,3,66,88,76,75,81,65,,,,,,,2.62,0.99,2.43*16
$GPGSV,2,1,07,10,19,309,39,15,48,037,29,20,45,321,39,21,,,39*43
$GPGSV,2,2,07,24,,,37,32,06,253,34,41,41,230,33*79
$GLGSV,3,1,11,65,38,045,31,66,36,322,39,67,01,285,,72,07,079,09*6A
$GLGSV,3,2,11,74,09,028,25,75,42,076,29,76,39,139,38,81,36,284,43*63
$GLGSV,3,3,11,82,10,330,30,87,03,188,17,88,31,224,34*57
$GNGLL,3030.87091,N,11420.31363,E,013209.00,A,A*7B
$GNRMC,013210.00,A,3030.87074,N,11420.31274,E,1.703,290.40,220119,,,A*7B
$GNVTG,290.40,T,,M,1.703,N,3.155,K,A*2B
$GNGGA,013210.00,3030.87074,N,11420.31274,E,1,10,0.99,2.7,M,-10.8,M,,*6A
$GNGSA,A,3,15,20,10,32,,,,,,,,,2.62,0.99,2.43*19
$GNGSA,A,3,66,88,76,75,81,65,,,,,,,2.62,0.99,2.43*16
$GPGSV,2,1,07,10,19,309,35,15,48,037,38,20,45,321,42,21,,,39*43
$GPGSV,2,2,07,24,,,41,32,06,253,34,41,41,230,40*7C
$GLGSV,3,1,11,65,38,045,25,66,36,322,41,67,01,285,,72,07,079,08*61
$GLGSV,3,2,11,74,09,028,31,75,42,076,39,76,39,139,42,81,36,284,42*6B
$GLGSV,3,3,11,82,10,330,31,87,03,188,19,88,31,224,35*59
$GNGLL,3030.87074,N,11420.31274,E,013210.00,A,A*7F
$GNRMC,013211.00,A,3030.87075,N,11420.31223,E,1.308,285.16,220119,,,A*71
$GNVTG,285.16,T,,M,1.308,N,2.423,K,A*26
$GNGGA,013211.00,3030.87075,N,11420.31223,E,1,10,1.10,3.0,M,-10.8,M,,*6E
$GNGSA,A,3,15,20,10,32,,,,,,,,,2.80,1.10,2.57*10
$GNGSA,A,3,66,88,76,75,81,65,,,,,,,2.80,1.10,2.57*1F
$GPGSV,2,1,07,10,19,309,35,15,48,037,31,20,45,321,37,21,,,39*48
$GPGSV,2,2,07,24,,,35,32,06,253,24,41,41,230,36*7F
$GLGSV,3,1,11,65,38,045,22,66,36,322,40,67,01,285,,72,07,079,08*67
$GLGSV,3,2,11,74,09,028,29,75,42,076,27,76,39,139,36,81,36,284,37*6C
$GLGSV,3,3,11,82,10,330,25,87,03,188,19,88,31,224,35*5C
$GNGLL,3030.87075,N,11420.31223,E,013211.00,A,A*7D
$GNRMC,013212.00,A,3030.87069,N,11420.31167,E,1.377,287.93,220119,,,A*7B
$GNVTG,287.93,T,,M,1.377,N,2.551,K,A*25
$GNGGA,013212.00,3030.87069,N,11420.31167,E,1,10,1.10,3.1,M,-10.8,M,,*62
$GNGSA,A,3,15,20,10,32,,,,,,,,,2.80,1.10,2.57*10
$GNGSA,A,3,66,88,76,75,81,65,,,,,,,2.80,1.10,2.57*1F
$GPGSV,2,1,07,10,19,309,35,15,48,037,39,20,45,321,43,21,,,38*42
$GPGSV,2,2,07,24,,,35,32,06,253,24,41,41,230,38*71
$GLGSV,3,1,11,65,38,045,21,66,36,322,37,67,01,285,,72,07,079,08*64
$GLGSV,3,2,11,74,09,028,20,75,42,076,27,76,39,139,35,81,36,284,37*66
$GLGSV,3,3,11,82,10,330,23,87,03,188,17,88,31,224,35*54
$GNGLL,3030.87069,N,11420.31167,E,013212.00,A,A*70
$GNRMC,013213.00,A,3030.87063,N,11420.31095,E,1.838,282.99,220119,,,A*73
$GNVTG,282.99,T,,M,1.838,N,3.404,K,A*2A
$GNGGA,013213.00,3030.87063,N,11420.31095,E,1,10,0.99,3.8,M,-10.8,M,,*6C
$GNGSA,A,3,15,20,10,32,,,,,,,,,2.63,0.99,2.43*18
$GNGSA,A,3,66,88,76,75,81,65,,,,,,,2.63,0.99,2.43*17
$GPGSV,2,1,07,10,19,309,37,15,48,037,40,20,45,321,43,21,,,39*4F
$GPGSV,2,2,07,24,,,39,32,06,253,28,41,41,230,40*7E
$GLGSV,3,1,11,65,38,045,20,66,36,322,35,67,01,285,,72,07,079,08*67
$GLGSV,3,2,11,74,09,028,21,75,42,076,31,76,39,139,30,81,36,284,34*66
$GLGSV,3,3,11,82,10,330,29,87,03,188,16,88,31,224,35*5F
$GNGLL,3030.87063,N,11420.31095,E,013213.00,A,A*77
$GNRMC,013214.00,A,3030.87083,N,11420.31015,E,2.477,296.57,220119,,,A*71
$GNVTG,296.57,T,,M,2.477,N,4.587,K,A*24
$GNGGA,013214.00,3030.87083,N,11420.31015,E,1,10,0.99,3.8,M,-10.8,M,,*6D
$GNGSA,A,3,15,20,10,32,,,,,,,,,2.63,0.99,2.43*18
$GNGSA,A,3,66,88,76,75,81,65,,,,,,,2.63,0.99,2.43*17
$GPGSV,2,1,07,10,19,309,35,15,48,037,40,20,45,321,43,21,,,40*43
$GPGSV,2,2,07,24,,,41,32,06,253,32,41,41,230,39*74
$GLGSV,3,1,11,65,38,045,21,66,36,322,39,67,01,285,,72,07,079,13*60
$GLGSV,3,2,11,74,09,028,23,75,42,076,26,76,39,139,30,81,36,284,38*6E
$GLGSV,3,3,11,82,10,330,27,87,03,188,17,88,31,224,36*53
$GNGLL,3030.87083,N,11420.31015,E,013214.00,A,A*76
$GNRMC,013215.00,A,3030.87090,N,11420.30933,E,2.139,296.22,220119,,,A*73
$GNVTG,296.22,T,,M,2.139,N,3.962,K,A*29
$GNGGA,013215.00,3030.87090,N,11420.30933,E,1,10,0.99,4.3,M,-10.8,M,,*6E
$GNGSA,A,3,15,20,10,32,,,,,,,,,2.63,0.99,2.43*18
$GNGSA,A,3,66,88,76,75,81,65,,,,,,,2.63,0.99,2.43*17
$GPGSV,2,1,07,10,19,309,37,15,48,037,40,20,45,321,43,21,,,40*41
$GPGSV,2,2,07,24,,,38,32,06,253,32,41,41,230,42*76
$GLGSV,3,1,11,65,38,045,20,66,36,322,37,67,01,285,,72,07,079,11*6D
$GLGSV,3,2,11,74,09,028,23,75,42,076,34,76,39,139,34,81,36,284,38*69
$GLGSV,3,3,11,82,10,330,25,87,03,188,16,88,31,224,37*51
$GNGLL,3030.87090,N,11420.30933,E,013215.00,A,A*79
$GNRMC,013216.00,A,3030.87104,N,11420.30868,E,1.889,295.65,220119,,,A*72
$GNVTG,295.65,T,,M,1.889,N,3.498,K,A*20
$GNGGA,013216.00,3030.87104,N,11420.30868,E,1,10,0.99,4.6,M,-10.8,M,,*6B
$GNGSA,A,3,15,20,10,32,,,,,,,,,2.63,0.99,2.43*18
$GNGSA,A,3,66,88,76,75,81,65,,,,,,,2.63,0.99,2.43*17
$GPGSV,2,1,07,10,19,309,35,15,48,037,38,20,45,321,43,21,,,39*42
$GPGSV,2,2,07,24,,,38,32,06,253,30,41,41,230,38*79
$GLGSV,3,1,11,65,38,045,20,66,36,322,37,67,01,285,,72,07,079,11*6D
$GLGSV,3,2,11,74,09,028,22,75,42,076,36,76,39,139,34,81,36,284,36*64
$GLGSV,3,3,11,82,10,330,22,87,03,188,17,88,31,224,34*54
$GNGLL,3030.87104,N,11420.30868,E,013216.00,A,A*79
$GNRMC,013217.00,A,3030.87094,N,11420.30789,E,1.862,289.74,220119,,,A*73
$GNVTG,289.74,T,,M,1.862,N,3.448,K,A*25
$GNGGA,013217.00,3030.87094,N,11420.30789,E,1,10,0.99,5.2,M,-10.8,M,,*67
$GNGSA,A,3,15,20,10,32,,,,,,,,,2.63,0.99,2.43*18
$GNGSA,A,3,66,88,76,75,81,65,,,,,,,2.63,0.99,2.43*17
$GPGSV,2,1,07,10,19,309,37,15,48,037,40,20,45,321,41,21,,,41*42
$GPGSV,2,2,07,24,,,38,32,06,253,25,41,41,230,41*73
$GLGSV,3,1,11,65,38,045,21,66,36,322,39,67,01,285,,72,07,079,09*6B
$GLGSV,3,2,11,74,09,028,22,75,42,076,38,76,39,139,38,81,36,284,37*67
$GLGSV,3,3,11,82,10,330,22,87,03,188,16,88,31,224,35*54
$GNGLL,3030.87094,N,11420.30789,E,013217.00,A,A*70
$GNRMC,013218.00,A,3030.87086,N,11420.30735,E,1.302,289.07,220119,,,A*71
$GNVTG,289.07,T,,M,1.302,N,2.412,K,A*22
$GNGGA,013218.00,3030.87086,N,11420.30735,E,1,10,0.99,5.3,M,-10.8,M,,*6D
$GNGSA,A,3,15,20,10,32,,,,,,,,,2.63,0.99,2.43*18
$GNGSA,A,3,66,88,76,75,81,65,,,,,,,2.63,0.99,2.43*17
$GPGSV,2,1,07,10,19,309,34,15,48,037,43,20,45,321,45,21,,,41*46
$GPGSV,2,2,07,24,,,42,32,06,253,27,41,41,230,42*7F
$GLGSV,3,1,11,65,38,045,21,66,36,322,35,67,01,285,,72,07,079,08*66
$GLGSV,3,2,11,74,09,028,20,75,42,076,35,76,39,139,36,81,36,284,35*64
$GLGSV,3,3,11,82,10,330,22,87,03,188,17,88,31,224,36*56
$GNGLL,3030.87086,N,11420.30735,E,013218.00,A,A*7B
$GNRMC,013219.00,A,3030.87089,N,11420.30698,E,0.993,290.15,220119,,,A*71
$GNVTG,290.15,T,,M,0.993,N,1.839,K,A*2C
$GNGGA,013219.00,3030.87089,N,11420.30698,E,1,10,1.10,5.5,M,-10.8,M,,*63
$GNGSA,A,3,15,20,10,32,,,,,,,,,2.80,1.10,2.57*10
$GNGSA,A,3,66,88,76,75,81,65,,,,,,,2.80,1.10,2.57*1F
$GPGSV,2,1,07,10,19,309,30,15,48,037,33,20,45,321,45,21,,,41*45
$GPGSV,2,2,07,24,,,40,32,06,253,27,41,41,230,42*7D
$GLGSV,3,1,11,65,38,045,29,66,36,322,38,67,01,285,,72,07,079,09*62
$GLGSV,3,2,11,74,09,028,19,75,42,076,28,76,39,139,33,81,36,284,36*64
$GLGSV,3,3,11,82,10,330,22,87,03,188,21,88,31,224,36*53
$GNGLL,3030.87089,N,11420.30698,E,013219.00,A,A*73
$GNRMC,013220.00,A,3030.87065,N,11420.30669,E,0.562,276.22,220119,,,A*79
$GNVTG,276.22,T,,M,0.562,N,1.041,K,A*25
$GNGGA,013220.00,3030.87065,N,11420.30669,E,1,10,0.99,6.0,M,-10.8,M,,*63
$GNGSA,A,3,15,20,10,32,,,,,,,,,2.63,0.99,2.43*18
$GNGSA,A,3,66,88,76,75,81,65,,,,,,,2.63,0.99,2.43*17
$GPGSV,2,1,07,10,19,309,36,15,48,037,38,20,45,321,45,21,,,41*48
$GPGSV,2,2,07,24,,,39,32,06,253,35,41,41,230,40*72
$GLGSV,3,1,11,65,38,045,29,66,36,322,36,67,01,285,,72,07,079,09*6C
$GLGSV,3,2,11,74,09,028,19,75,42,076,31,76,39,139,37,81,36,284,36*68
$GLGSV,3,3,11,82,10,330,22,87,03,188,29,88,31,224,36*5B
$GNGLL,3030.87065,N,11420.30669,E,013220.00,A,A*75
$GNRMC,013221.00,A,3030.87063,N,11420.30666,E,1.131,13.49,220119,,,A*4E
$GNVTG,13.49,T,,M,1.131,N,2.094,K,A*11
$GNGGA,013221.00,3030.87063,N,11420.30666,E,1,10,0.99,6.8,M,-10.8,M,,*63
$GNGSA,A,3,15,20,10,32,,,,,,,,,2.63,0.99,2.43*18
$GNGSA,A,3,66,88,76,75,81,65,,,,,,,2.63,0.99,2.43*17
$GPGSV,2,1,07,10,19,309,33,15,48,037,39,20,45,321,31,21,,,43*4D
$GPGSV,2,2,07,24,,,45,32,06,253,25,41,41,230,42*7A
$GLGSV,3,1,11,65,38,045,36,66,36,323,28,67,01,285,,72,07,079,10*64
$GLGSV,3,2,11,74,09,028,19,75,42,076,37,76,39,139,31,81,36,284,38*66
$GLGSV,3,3,11,82,10,330,30,87,03,188,33,88,31,224,32*57
$GNGLL,3030.87063,N,11420.30666,E,013221.00,A,A*7D
$GNRMC,013222.00,A,3030.87054,N,11420.30677,E,0.071,,220119,,,A*6C
$GNVTG,,T,,M,0.071,N,0.131,K,A*38
$GNGGA,013222.00,3030.87054,N,11420.30677,E,1,10,0.99,6.9,M,-10.8,M,,*65
$GNGSA,A,3,15,20,10,32,,,,,,,,,2.63,0.99,2.43*18
$GNGSA,A,3,66,88,76,75,81,65,,,,,,,2.63,0.99,2.43*17
$GPGSV,2,1,07,10,19,309,34,15,48,037,38,20,45,321,26,21,,,40*4E
$GPGSV,2,2,07,24,,,40,32,06,253,30,41,41,230,38*76
$GLGSV,3,1,11,65,38,045,35,66,36,323,27,67,01,285,,72,07,079,08*61
$GLGSV,3,2,11,74,09,028,19,75,42,076,39,76,39,139,37,81,36,284,36*60
$GLGSV,3,3,11,82,10,330,24,87,03,188,28,88,31,224,28*53
$GNGLL,3030.87054,N,11420.30677,E,013222.00,A,A*7A
$GNRMC,013223.00,A,3030.87037,N,11420.30652,E,0.091,,220119,,,A*61
$GNVTG,,T,,M,0.091,N,0.168,K,A*3A
$GNGGA,013223.00,3030.87037,N,11420.30652,E,1,10,0.99,7.7,M,-10.8,M,,*69
$GNGSA,A,3,15,20,10,32,,,,,,,,,2.63,0.99,2.44*1F
$GNGSA,A,3,66,88,76,75,81,65,,,,,,,2.63,0.99,2.44*10
$GPGSV,2,1,07,10,19,309,34,15,48,037,39,20,45,321,25,21,,,38*43
$GPGSV,2,2,07,24,,,40,32,06,253,30,41,41,230,41*78
$GLGSV,3,1,11,65,38,045,36,66,36,323,28,67,01,285,,72,07,079,08*6D
$GLGSV,3,2,11,74,09,028,21,75,42,076,39,76,39,139,35,81,36,284,32*6D
$GLGSV,3,3,11,82,10,330,25,87,03,188,32,88,31,224,27*56
$GNGLL,3030.87037,N,11420.30652,E,013223.00,A,A*79
$GNRMC,013224.00,A,3030.87007,N,11420.30632,E,0.030,,220119,,,A*68
$GNVTG,,T,,M,0.030,N,0.056,K,A*3D
$GNGGA,013224.00,3030.87007,N,11420.30632,E,1,10,0.99,9.0,M,-10.8,M,,*62
$GNGSA,A,3,15,20,10,32,,,,,,,,,2.63,0.99,2.44*1F
$GNGSA,A,3,66,88,76,75,81,65,,,,,,,2.63,0.99,2.44*10
$GPGSV,2,1,07,10,19,309,37,15,48,037,41,20,45,321,32,21,,,42*44
$GPGSV,2,2,07,24,,,42,32,06,253,29,41,41,230,43*70
$GLGSV,3,1,11,65,38,045,37,66,36,323,27,67,01,285,,72,07,079,08*63
$GLGSV,3,2,11,74,09,028,23,75,42,076,38,76,39,139,36,81,36,284,36*69
$GLGSV,3,3,11,82,10,330,25,87,03,188,31,88,31,224,29*5B
$GNGLL,3030.87007,N,11420.30632,E,013224.00,A,A*7B
$GNRMC,013225.00,A,3030.86984,N,11420.30613,E,0.110,,220119,,,A*6A
$GNVTG,,T,,M,0.110,N,0.203,K,A*3C
$GNGGA,013225.00,3030.86984,N,11420.30613,E,1,10,0.99,10.1,M,-10.8,M,,*5A
$GNGSA,A,3,15,20,10,32,,,,,,,,,2.63,0.99,2.44*1F
$GNGSA,A,3,66,88,76,75,81,65,,,,,,,2.63,0.99,2.44*10
$GPGSV,2,1,07,10,19,309,37,15,48,037,41,20,45,321,32,21,,,41*47
$GPGSV,2,2,07,24,,,42,32,06,253,29,41,41,230,43*70
$GLGSV,3,1,11,65,38,045,37,66,36,323,23,67,01,285,,72,07,079,08*67
$GLGSV,3,2,11,74,09,028,25,75,42,076,38,76,39,139,35,81,36,284,32*68
$GLGSV,3,3,11,82,10,330,25,87,03,188,31,88,31,224,30*53
$GNGLL,3030.86984,N,11420.30613,E,013225.00,A,A*7A
$GNRMC,013226.00,A,3030.86975,N,11420.30610,E,0.065,,220119,,,A*67
$GNVTG,,T,,M,0.065,N,0.120,K,A*3D
$GNGGA,013226.00,3030.86975,N,11420.30610,E,1,10,0.99,10.6,M,-10.8,M,,*53
$GNGSA,A,3,15,20,10,32,,,,,,,,,2.63,0.99,2.44*1F
$GNGSA,A,3,66,88,76,75,81,65,,,,,,,2.63,0.99,2.44*10
$GPGSV,2,1,07,10,19,309,39,15,48,037,44,20,45,321,25,21,,,44*4F
$GPGSV,2,2,07,24,,,44,32,06,253,29,41,41,230,47*72
$GLGSV,3,1,11,65,38,045,35,66,36,323,23,67,01,285,,72,07,079,11*6D
$GLGSV,3,2,11,74,09,028,24,75,42,076,36,76,39,139,33,81,36,284,30*63
$GLGSV,3,3,11,82,10,330,25,87,03,188,27,88,31,224,31*55
$GNGLL,3030.86975,N,11420.30610,E,013226.00,A,A*74
$GNRMC,013227.00,A,3030.86955,N,11420.30603,E,0.219,,220119,,,A*6F
$GNVTG,,T,,M,0.219,N,0.405,K,A*36
$GNGGA,013227.00,3030.86955,N,11420.30603,E,1,10,0.99,11.6,M,-10.8,M,,*53
$GNGSA,A,3,15,20,10,32,,,,,,,,,2.63,0.99,2.44*1F
$GNGSA,A,3,66,88,76,75,81,65,,,,,,,2.63,0.99,2.44*10
$GPGSV,3,1,09,03,,,27,05,,,23,10,19,309,41,15,48,037,48*76
$GPGSV,3,2,09,20,45,321,27,21,,,46,24,,,45,32,06,253,37*76
$GPGSV,3,3,09,41,41,230,49*4C
$GLGSV,3,1,11,65,38,045,35,66,36,323,18,67,01,285,,72,07,079,10*64
$GLGSV,3,2,11,74,09,028,23,75,42,076,38,76,39,139,34,81,36,284,29*65
$GLGSV,3,3,11,82,10,330,25,87,03,188,27,88,31,224,30*54
$GNGLL,3030.86955,N,11420.30603,E,013227.00,A,A*75
$GNRMC,013228.00,A,3030.86935,N,11420.30600,E,0.715,66.62,220119,,,A*46
$GNVTG,66.62,T,,M,0.715,N,1.324,K,A*10
$GNGGA,013228.00,3030.86935,N,11420.30600,E,1,10,0.99,11.8,M,-10.8,M,,*57
$GNGSA,A,3,15,20,10,32,,,,,,,,,2.63,0.99,2.44*1F
$GNGSA,A,3,66,88,76,75,81,65,,,,,,,2.63,0.99,2.44*10
$GPGSV,2,1,08,03,,,24,10,19,309,34,15,48,037,44,20,45,321,33*4C
$GPGSV,2,2,08,21,,,44,24,,,43,32,06,253,32,41,41,230,46*72
$GLGSV,3,1,11,65,38,045,34,66,36,323,20,67,01,285,,72,07,079,11*6F
$GLGSV,3,2,11,74,09,028,20,75,42,076,38,76,39,139,34,81,36,284,30*6E
$GLGSV,3,3,11,82,10,330,24,87,03,188,26,88,31,224,30*54
$GNGLL,3030.86935,N,11420.30600,E,013228.00,A,A*7F
$GNRMC,013229.00,A,3030.86906,N,11420.30590,E,1.016,146.03,220119,,,A*7C
$GNVTG,146.03,T,,M,1.016,N,1.881,K,A*25
$GNGGA,013229.00,3030.86906,N,11420.30590,E,1,10,0.99,12.1,M,-10.8,M,,*56
$GNGSA,A,3,15,20,10,32,,,,,,,,,2.63,0.99,2.44*1F
$GNGSA,A,3,66,88,76,75,81,65,,,,,,,2.63,0.99,2.44*10
$GPGSV,3,1,09,03,,,21,05,,,27,10,19,309,29,15,48,037,47*75
$GPGSV,3,2,09,20,45,321,33,21,,,46,24,,,43,32,06,253,32*70
$GPGSV,3,3,09,41,41,230,48*4D
$GLGSV,3,1,11,65,38,045,35,66,36,323,24,67,01,285,,72,07,079,11*6A
$GLGSV,3,2,11,74,09,028,20,75,42,076,40,76,39,139,36,81,36,284,31*62
$GLGSV,3,3,11,82,10,330,23,87,03,188,26,88,31,224,31*52
$GNGLL,3030.86906,N,11420.30590,E,013229.00,A,A*74
$GNRMC,013230.00,A,3030.86865,N,11420.30574,E,1.535,176.74,220119,,,A*7D
$GNVTG,176.74,T,,M,1.535,N,2.843,K,A*2F
$GNGGA,013230.00,3030.86865,N,11420.30574,E,1,10,0.99,13.1,M,-10.8,M,,*51
$GNGSA,A,3,15,20,10,32,,,,,,,,,2.63,0.99,2.44*1F
$GNGSA,A,3,66,88,76,75,81,65,,,,,,,2.63,0.99,2.44*10
$GPGSV,2,1,07,10,19,309,32,15,48,037,47,20,45,321,28,21,,,46*48
$GPGSV,2,2,07,24,,,44,32,06,253,38,41,41,230,49*7C
$GLGSV,3,1,11,65,38,045,36,66,36,323,24,67,01,285,,72,07,079,15*6D
$GLGSV,3,2,11,74,09,028,19,75,42,075,38,76,39,139,35,81,36,284,32*64
$GLGSV,3,3,11,82,10,330,24,87,03,188,26,88,31,224,32*56
$GNGLL,3030.86865,N,11420.30574,E,013230.00,A,A*72
$GNRMC,013231.00,A,3030.86779,N,11420.30525,E,1.607,184.02,220119,,,A*74
$GNVTG,184.02,T,,M,1.607,N,2.976,K,A*26
$GNGGA,013231.00,3030.86779,N,11420.30525,E,1,12,0.87,16.0,M,-10.8,M,,*5F
$GNGSA,A,3,15,20,10,21,32,24,,,,,,,1.77,0.87,1.54*11
$GNGSA,A,3,66,88,76,75,81,65,,,,,,,1.77,0.87,1.54*1B
$GPGSV,2,1,08,03,,,25,10,19,309,32,15,48,037,40,20,45,321,29*44
$GPGSV,2,2,08,21,62,257,44,24,71,117,41,32,06,253,38,41,41,230,46*7F
$GLGSV,3,1,11,65,38,045,35,66,36,323,25,67,01,285,,72,07,079,17*6D
$GLGSV,3,2,11,74,09,028,19,75,42,075,37,76,39,139,34,81,36,284,31*69
$GLGSV,3,3,11,82,10,330,25,87,03,188,25,88,31,224,33*55
$GNGLL,3030.86779,N,11420.30525,E,013231.00,A,A*75
$GNRMC,013232.00,A,3030.86714,N,11420.30507,E,1.586,191.07,220119,,,A*77
$GNVTG,191.07,T,,M,1.586,N,2.937,K,A*28
$GNGGA,013232.00,3030.86714,N,11420.30507,E,1,12,0.87,17.1,M,-10.8,M,,*57
$GNGSA,A,3,15,20,10,21,32,24,,,,,,,1.77,0.87,1.54*11
$GNGSA,A,3,66,88,76,75,81,65,,,,,,,1.77,0.87,1.54*1B
$GPGSV,2,1,08,03,,,21,10,19,309,37,15,48,037,42,20,45,321,29*47
$GPGSV,2,2,08,21,62,257,44,24,71,117,42,32,06,253,35,41,41,230,44*73
$GLGSV,3,1,11,65,38,045,36,66,36,323,23,67,01,285,,72,07,079,15*6A
$GLGSV,3,2,11,74,09,028,20,75,42,075,38,76,39,139,35,81,36,284,31*6D
$GLGSV,3,3,11,82,10,330,24,87,03,188,25,88,31,224,32*55
$GNGLL,3030.86714,N,11420.30507,E,013232.00,A,A*7D
$GNRMC,013233.00,A,3030.86659,N,11420.30488,E,1.587,193.87,220119,,,A*73
$GNVTG,193.87,T,,M,1.587,N,2.939,K,A*2D
$GNGGA,013233.00,3030.86659,N,11420.30488,E,1,12,0.87,17.9,M,-10.8,M,,*50
$GNGSA,A,3,15,20,10,21,32,24,,,,,,,1.77,0.87,1.54*11
$GNGSA,A,3,66,88,76,75,81,65,,,,,,,1.77,0.87,1.54*1B
$GPGSV,2,1,08,03,,,20,10,19,309,32,15,48,037,44,20,45,321,30*4D
$GPGSV,2,2,08,21,62,257,44,24,71,117,42,32,06,253,36,41,41,230,47*73
$GLGSV,3,1,11,65,38,045,36,66,36,323,23,67,01,285,,72,07,079,14*6B
$GLGSV,3,2,11,74,09,028,21,75,42,075,41,76,39,139,37,81,36,284,31*60
$GLGSV,3,3,11,82,10,330,22,87,03,188,25,88,31,224,32*53
$GNGLL,3030.86659,N,11420.30488,E,013233.00,A,A*72
$GNRMC,013234.00,A,3030.86600,N,11420.30479,E,1.978,191.17,220119,,,A*71
$GNVTG,191.17,T,,M,1.978,N,3.664,K,A*2C
$GNGGA,013234.00,3030.86600,N,11420.30479,E,1,12,0.87,18.2,M,-10.8,M,,*51
$GNGSA,A,3,15,20,10,21,32,24,,,,,,,1.77,0.87,1.54*11
$GNGSA,A,3,66,88,76,75,81,65,,,,,,,1.77,0.87,1.54*1B
$GPGSV,2,1,08,03,,,16,10,19,309,31,15,48,037,43,20,45,321,29*44
$GPGSV,2,2,08,21,62,257,44,24,71,117,42,32,06,253,39,41,41,230,45*7E
$GLGSV,3,1,11,65,38,045,35,66,36,323,24,67,01,285,,72,07,079,14*6F
$GLGSV,3,2,11,74,09,028,21,75,42,075,40,76,39,139,37,81,36,284,30*60
$GLGSV,3,3,11,82,10,330,20,87,03,188,25,88,31,224,32*51
$GNGLL,3030.86600,N,11420.30479,E,013234.00,A,A*77
$GNRMC,013235.00,A,3030.86547,N,11420.30472,E,1.691,191.08,220119,,,A*7D
$GNVTG,191.08,T,,M,1.691,N,3.133,K,A*2F
$GNGGA,013235.00,3030.86547,N,11420.30472,E,1,12,0.87,18.3,M,-10.8,M,,*5A
$GNGSA,A,3,15,20,10,21,32,24,,,,,,,1.77,0.87,1.54*11
$GNGSA,A,3,66,88,76,75,81,65,,,,,,,1.77,0.87,1.54*1B
$GPGSV,2,1,08,03,,,14,10,19,309,32,15,48,037,41,20,45,321,29*47
$GPGSV,2,2,08,21,62,257,44,24,71,117,42,32,06,253,31,41,41,230,46*75
$GLGSV,3,1,11,65,38,045,32,66,36,323,23,67,01,285,,72,07,079,14*6F
$GLGSV,3,2,11,74,09,028,21,75,42,075,39,76,39,139,31,81,36,284,29*60
$GLGSV,3,3,11,82,10,330,19,87,03,188,24,88,31,224,32*5A
$GNGLL,3030.86547,N,11420.30472,E,013235.00,A,A*7D
$GNRMC,013236.00,A,3030.86489,N,11420.30462,E,1.952,188.16,220119,,,A*7B
$GNVTG,188.16,T,,M,1.952,N,3.616,K,A*28
$GNGGA,013236.00,3030.86489,N,11420.30462,E,1,12,0.87,18.6,M,-10.8,M,,*5E
$GNGSA,A,3,15,20,10,21,32,24,,,,,,,1.77,0.87,1.54*11
$GNGSA,A,3,66,88,76,75,81,65,,,,,,,1.77,0.87,1.54*1B
$GPGSV,2,1,08,03,,,07,10,19,309,34,15,48,037,40,20,45,321,23*48
$GPGSV,2,2,08,21,62,257,40,24,71,117,38,32,06,253,29,41,41,230,43*70
$GLGSV,3,1,11,65,38,045,35,66,36,323,20,67,01,285,,72,07,079,09*67
$GLGSV,3,2,11,74,09,028,20,75,42,075,40,76,39,139,33,81,36,284,31*64
$GLGSV,3,3,11,82,10,330,,87,03,188,30,88,31,224,34*51
$GNGLL,3030.86489,N,11420.30462,E,013236.00,A,A*7C
$GNRMC,013237.00,A,3030.86431,N,11420.30452,E,1.913,189.48,220119,,,A*75
$GNVTG,189.48,T,,M,1.913,N,3.543,K,A*24
$GNGGA,013237.00,3030.86431,N,11420.30452,E,1,12,0.91,18.6,M,-10.8,M,,*58
$GNGSA,A,3,15,20,10,21,32,24,,,,,,,1.82,0.91,1.58*10
$GNGSA,A,3,66,88,76,75,81,65,,,,,,,1.82,0.91,1.58*1A
$GPGSV,2,1,08,03,,,07,10,19,309,30,15,48,037,40,20,45,321,30*4E
$GPGSV,2,2,08,21,62,257,39,24,71,117,39,32,06,253,34,41,41,230,42*72
$GLGSV,3,1,11,65,38,045,37,66,36,323,29,67,01,285,,72,07,079,08*6D
$GLGSV,3,2,11,74,09,028,19,75,42,075,40,76,39,139,33,81,36,284,27*69
$GLGSV,3,3,11,82,10,330,,87,03,188,28,88,31,224,33*5F
$GNGLL,3030.86431,N,11420.30452,E,013237.00,A,A*7D
$GNRMC,013238.00,A,3030.86377,N,11420.30438,E,1.845,193.25,220119,,,A*71
$GNVTG,193.25,T,,M,1.845,N,3.417,K,A*26
$GNGGA,013238.00,3030.86377,N,11420.30438,E,1,12,0.87,18.7,M,-10.8,M,,*58
$GNGSA,A,3,15,20,10,21,32,24,,,,,,,1.77,0.87,1.54*11
$GNGSA,A,3,66,88,76,75,81,65,,,,,,,1.77,0.87,1.54*1B
$GPGSV,2,1,08,03,,,06,10,19,309,30,15,48,037,37,20,45,321,21*4F
$GPGSV,2,2,08,21,62,257,38,24,71,117,37,32,06,253,30,41,41,230,41*7A
$GLGSV,3,1,11,65,38,045,32,66,36,323,20,67,01,285,,72,07,079,08*61
$GLGSV,3,2,11,74,09,028,18,75,42,075,36,76,39,139,31,81,36,284,27*6B
$GLGSV,3,3,11,82,10,330,,87,03,188,27,88,31,224,29*5B
$GNGLL,3030.86377,N,11420.30438,E,013238.00,A,A*7B
$GNRMC,013239.00,A,3030.86321,N,11420.30429,E,2.098,193.42,220119,,,A*79
$GNVTG,193.42,T,,M,2.098,N,3.885,K,A*2B
$GNGGA,013239.00,3030.86321,N,11420.30429,E,1,12,0.91,18.9,M,-10.8,M,,*53
$GNGSA,A,3,15,20,10,21,32,24,,,,,,,1.82,0.91,1.58*10
$GNGSA,A,3,66,88,76,75,81,65,,,,,,,1.82,0.91,1.58*1A
$GPGSV,2,1,08,03,,,06,10,19,309,32,15,48,037,38,20,45,321,30*42
$GPGSV,2,2,08,21,62,257,40,24,71,117,41,32,06,253,38,41,41,230,46*7B
$GLGSV,3,1,11,65,38,045,32,66,36,323,20,67,01,285,,72,07,079,07*6E
$GLGSV,3,2,11,74,09,028,18,75,42,075,36,76,39,139,27,81,36,284,31*6B
$GLGSV,3,3,11,82,10,330,,87,03,188,25,88,31,224,30*51
$GNGLL,3030.86321,N,11420.30429,E,013239.00,A,A*79
$GNRMC,013240.00,A,3030.86266,N,11420.30423,E,1.875,192.74,220119,,,A*73
$GNVTG,192.74,T,,M,1.875,N,3.473,K,A*22
$GNGGA,013240.00,3030.86266,N,11420.30423,E,1,12,0.87,18.6,M,-10.8,M,,*5D
$GNGSA,A,3,15,20,10,21,32,24,,,,,,,1.77,0.87,1.54*11
$GNGSA,A,3,66,88,76,75,81,65,,,,,,,1.77,0.87,1.54*1B
$GPGSV,2,1,08,03,,,07,10,19,309,35,15,48,037,41,20,45,321,25*4E
$GPGSV,2,2,08,21,62,257,40,24,71,117,40,32,06,253,29,41,41,230,44*78
$GLGSV,3,1,11,65,38,045,32,66,36,323,21,67,01,285,,72,07,079,07*6F
$GLGSV,3,2,11,74,09,028,18,75,42,075,36,76,39,139,27,81,36,284,29*62
$GLGSV,3,3,11,82,10,330,,87,03,188,25,88,31,224,33*52
$GNGLL,3030.86266,N,11420.30423,E,013240.00,A,A*7F
$GNRMC,013241.00,A,3030.86221,N,11420.30416,E,1.758,185.06,220119,,,A*74
$GNVTG,185.06,T,,M,1.758,N,3.255,K,A*23
$GNGGA,013241.00,3030.86221,N,11420.30416,E,1,12,0.87,19.2,M,-10.8,M,,*5C
$GNGSA,A,3,15,20,10,21,32,24,,,,,,,1.77,0.87,1.54*11
$GNGSA,A,3,66,88,76,75,81,65,,,,,,,1.77,0.87,1.54*1B
$GPGSV,2,1,08,03,,,07,10,19,309,32,15,48,037,36,20,45,321,27*4B
$GPGSV,2,2,08,21,62,257,43,24,71,117,42,32,06,253,36,41,41,230,44*77
$GLGSV,3,1,11,65,38,045,36,66,36,323,23,67,01,285,,72,07,079,07*69
$GLGSV,3,2,11,74,09,028,20,75,42,075,42,76,39,139,30,81,36,284,36*62
$GLGSV,3,3,11,82,10,330,,87,03,188,26,88,31,224,29*5A
$GNGLL,3030.86221,N,11420.30416,E,013241.00,A,A*7B
$GNRMC,013242.00,A,3030.86175,N,11420.30410,E,1.584,186.84,220119,,,A*79
$GNVTG,186.84,T,,M,1.584,N,2.934,K,A*24
$GNGGA,013242.00,3030.86175,N,11420.30410,E,1,12,0.87,19.1,M,-10.8,M,,*58
$GNGSA,A,3,15,20,10,21,32,24,,,,,,,1.77,0.87,1.54*11
$GNGSA,A,3,66,88,76,75,81,65,,,,,,,1.77,0.87,1.54*1B
$GPGSV,2,1,08,03,,,07,10,19,309,31,15,48,037,40,20,45,321,32*4D
$GPGSV,2,2,08,21,62,257,39,24,71,117,40,32,06,253,30,41,41,230,41*7B
$GLGSV,3,1,11,65,38,045,38,66,36,323,25,67,01,285,,72,07,079,08*6E
$GLGSV,3,2,11,74,09,028,23,75,42,075,44,76,39,139,30,81,36,284,36*67
$GLGSV,3,3,11,82,10,330,,87,02,187,26,88,31,224,32*5E
$GNGLL,3030.86175,N,11420.30410,E,013242.00,A,A*7C
$GNRMC,013243.00,A,3030.86123,N,11420.30403,E,1.854,188.82,220119,,,A*71
$GNVTG,188.82,T,,M,1.854,N,3.435,K,A*21
$GNGGA,013243.00,3030.86123,N,11420.30403,E,1,12,0.87,19.2,M,-10.8,M,,*5B
$GNGSA,A,3,15,20,10,21,32,24,,,,,,,1.77,0.87,1.54*11
$GNGSA,A,3,66,88,76,75,81,65,,,,,,,1.77,0.87,1.54*1B
$GPGSV,2,1,08,03,,,06,10,19,309,37,15,48,037,40,20,45,321,26*4F
$GPGSV,2,2,08,21,62,256,40,24,71,117,40,32,06,253,30,41,41,230,42*77
$GLGSV,3,1,11,65,38,045,38,66,36,323,25,67,01,285,,72,07,079,09*6F
$GLGSV,3,2,11,74,09,028,25,75,42,075,41,76,39,139,34,81,36,284,33*65
$GLGSV,3,3,11,82,10,330,,87,02,187,26,88,30,224,33*5E
$GNGLL,3030.86123,N,11420.30403,E,013243.00,A,A*7C
$GNRMC,013244.00,A,3030.86076,N,11420.30394,E,1.630,189.81,220119,,,A*70
$GNVTG,189.81,T,,M,1.630,N,3.020,K,A*2F
$GNGGA,013244.00,3030.86076,N,11420.30394,E,1,12,0.87,19.4,M,-10.8,M,,*52
$GNGSA,A,3,15,20,10,21,32,24,,,,,,,1.77,0.87,1.54*11
$GNGSA,A,3,66,88,76,75,81,65,,,,,,,1.77,0.87,1.54*1B
$GPGSV,2,1,08,03,,,07,10,19,309,25,15,48,037,39,20,45,321,25*40
$GPGSV,2,2,08,21,62,256,42,24,71,117,42,32,06,253,34,41,41,230,43*72
$GLGSV,3,1,11,65,38,045,37,66,36,323,31,67,01,285,,72,07,079,12*6F
$GLGSV,3,2,11,74,09,028,25,75,42,075,40,76,39,139,29,81,36,284,40*6C
$GLGSV,3,3,11,82,10,330,,87,02,187,28,88,30,224,34*57
$GNGLL,3030.86076,N,11420.30394,E,013244.00,A,A*73
$GNRMC,013245.00,A,3030.86025,N,11420.30393,E,1.479,190.60,220119,,,A*78
$GNVTG,190.60,T,,M,1.479,N,2.738,K,A*28
$GNGGA,013245.00,3030.86025,N,11420.30393,E,1,12,0.87,19.2,M,-10.8,M,,*54
$GNGSA,A,3,15,20,10,21,32,24,,,,,,,1.77,0.87,1.54*11
$GNGSA,A,3,66,88,76,75,81,65,,,,,,,1.77,0.87,1.54*1B
$GPGSV,2,1,07,10,20,309,27,15,48,037,38,20,45,321,31,21,62,256,43*76
$GPGSV,2,2,07,24,71,117,42,32,06,253,29,41,41,230,42*40
$GLGSV,3,1,11,65,38,045,38,66,36,323,32,67,01,285,,72,07,079,11*60
$GLGSV,3,2,11,74,09,028,25,75,42,075,36,76,39,139,36,81,36,284,33*67
$GLGSV,3,3,11,82,10,330,,87,02,187,31,88,30,224,33*58
$GNGLL,3030.86025,N,11420.30393,E,013245.00,A,A*73
$GNRMC,013246.00,A,3030.85980,N,11420.30382,E,1.393,195.95,220119,,,A*72
$GNVTG,195.95,T,,M,1.393,N,2.579,K,A*23
$GNGGA,013246.00,3030.85980,N,11420.30382,E,1,12,0.87,19.2,M,-10.8,M,,*52
$GNGSA,A,3,15,20,10,21,32,24,,,,,,,1.77,0.87,1.54*11
$GNGSA,A,3,66,88,76,75,81,65,,,,,,,1.77,0.87,1.54*1B
$GPGSV,2,1,07,10,20,309,35,15,48,037,39,20,45,321,31,21,62,256,39*79
$GPGSV,2,2,07,24,71,117,41,32,06,253,36,41,41,230,43*4C
$GLGSV,3,1,11,65,38,045,39,66,36,323,27,67,01,285,,72,07,079,09*6C
$GLGSV,3,2,11,74,09,028,24,75,42,075,40,76,39,139,37,81,36,284,36*63
$GLGSV,3,3,11,82,10,330,,87,02,187,31,88,30,224,33*58
$GNGLL,3030.85980,N,11420.30382,E,013246.00,A,A*75
$GNRMC,013247.00,A,3030.85935,N,11420.30362,E,1.839,201.32,220119,,,A*7B
$GNVTG,201.32,T,,M,1.839,N,3.406,K,A*23
$GNGGA,013247.00,3030.85935,N,11420.30362,E,1,12,0.87,19.0,M,-10.8,M,,*51
$GNGSA,A,3,15,20,10,21,32,24,,,,,,,1.77,0.87,1.54*11
$GNGSA,A,3,66,88,76,75,81,65,,,,,,,1.77,0.87,1.54*1B
$GPGSV,2,1,07,10,20,309,35,15,48,037,37,20,45,321,25,21,62,256,43*7F
$GPGSV,2,2,07,24,71,117,41,32,06,253,30,41,41,230,42*4B
$GLGSV,3,1,11,65,38,045,38,66,36,323,35,67,01,285,,72,07,079,*67
$GLGSV,3,2,11,74,09,028,24,75,42,075,37,76,39,139,30,81,36,284,36*64
$GLGSV,3,3,11,82,10,330,,87,02,187,35,88,30,224,30*5F
$GNGLL,3030.85935,N,11420.30362,E,013247.00,A,A*74
$GNRMC,013248.00,A,3030.85884,N,11420.30351,E,1.757,197.24,220119,,,A*73
$GNVTG,197.24,T,,M,1.757,N,3.254,K,A*2E
$GNGGA,013248.00,3030.85884,N,11420.30351,E,1,12,0.87,18.9,M,-10.8,M,,*5D
$GNGSA,A,3,15,20,10,21,32,24,,,,,,,1.77,0.87,1.54*11
$GNGSA,A,3,66,88,76,75,81,65,,,,,,,1.77,0.87,1.54*1B
$GPGSV,2,1,07,10,20,309,31,15,48,037,36,20,45,321,25,21,62,256,40*79
$GPGSV,2,2,07,24,71,117,41,32,06,253,31,41,41,230,43*4B
$GLGSV,3,1,11,65,38,045,37,66,36,323,32,67,01,285,,72,07,079,*6F
$GLGSV,3,2,11,74,09,028,25,75,42,075,34,76,39,139,30,81,36,284,33*63
$GLGSV,3,3,11,82,10,330,,87,02,187,32,88,30,224,31*59
$GNGLL,3030.85884,N,11420.30351,E,013248.00,A,A*70
$GNRMC,013249.00,A,3030.85829,N,11420.30350,E,1.936,187.92,220119,,,A*71
$GNVTG,187.92,T,,M,1.936,N,3.586,K,A*23
$GNGGA,013249.00,3030.85829,N,11420.30350,E,1,12,0.87,18.9,M,-10.8,M,,*5A
$GNGSA,A,3,15,20,10,21,32,24,,,,,,,1.77,0.87,1.54*11
$GNGSA,A,3,66,88,76,75,81,65,,,,,,,1.77,0.87,1.54*1B
$GPGSV,2,1,07,10,20,309,31,15,48,037,40,20,45,321,26,21,62,256,41*7A
$GPGSV,2,2,07,24,71,117,40,32,06,253,34,41,41,230,44*48
$GLGSV,3,1,11,65,38,045,35,66,36,323,25,67,01,285,,72,07,079,*6B
$GLGSV,3,2,11,74,09,028,25,75,42,075,36,76,39,139,30,81,36,284,36*64
$GLGSV,3,3,11,82,10,330,,87,02,187,30,88,30,224,34*5E
$GNGLL,3030.85829,N,11420.30350,E,013249.00,A,A*77
$GNRMC,013250.00,A,3030.85773,N,11420.30344,E,1.849,187.97,220119,,,A*70
$GNVTG,187.97,T,,M,1.849,N,3.424,K,A*26
$GNGGA,013250.00,3030.85773,N,11420.30344,E,1,12,0.87,18.6,M,-10.8,M,,*58
$GNGSA,A,3,15,20,10,21,32,24,,,,,,,1.77,0.87,1.54*11
$GNGSA,A,3,66,88,76,75,81,65,,,,,,,1.77,0.87,1.54*1B
$GPGSV,2,1,07,10,20,309,26,15,48,037,42,20,45,321,26,21,62,256,41*7E
$GPGSV,2,2,07,24,71,117,40,32,06,253,39,41,41,230,44*45
$GLGSV,3,1,11,65,38,045,35,66,36,323,25,67,01,285,,72,07,079,*6B
$GLGSV,3,2,11,74,09,028,25,75,42,075,39,76,39,139,31,81,36,284,29*64
$GLGSV,3,3,11,82,10,330,,87,02,187,22,88,30,224,33*5A
$GNGLL,3030.85773,N,11420.30344,E,013250.00,A,A*7A
$GNRMC,013251.00,A,3030.85720,N,11420.30330,E,1.865,190.48,220119,,,A*7E
$GNVTG,190.48,T,,M,1.865,N,3.454,K,A*2B
$GNGGA,013251.00,3030.85720,N,11420.30330,E,1,12,0.87,18.6,M,-10.8,M,,*5C
$GNGSA,A,3,15,20,10,21,32,24,,,,,,,1.77,0.87,1.54*11
$GNGSA,A,3,66,88,76,75,81,65,,,,,,,1.77,0.87,1.54*1B
$GPGSV,2,1,07,10,20,309,30,15,48,037,39,20,45,321,26,21,62,256,42*76
$GPGSV,2,2,07,24,71,117,39,32,06,253,35,41,41,230,43*40
$GLGSV,3,1,11,65,38,045,35,66,36,323,24,67,01,285,,72,07,079,*6A
$GLGSV,3,2,11,74,09,028,26,75,42,075,40,76,39,139,31,81,36,284,29*69
$GLGSV,3,3,11,82,10,330,,87,02,187,26,88,30,224,36*5B
$GNGLL,3030.85720,N,11420.30330,E,013251.00,A,A*7E
$GNRMC,013252.00,A,3030.85665,N,11420.30320,E,1.965,192.50,220119,,,A*76
$GNVTG,192.50,T,,M,1.965,N,3.640,K,A*26
$GNGGA,013252.00,3030.85665,N,11420.30320,E,1,12,0.87,18.5,M,-10.8,M,,*5D
$GNGSA,A,3,15,20,10,21,32,24,,,,,,,1.77,0.87,1.54*11
$GNGSA,A,3,66,88,76,75,81,65,,,,,,,1.77,0.87,1.54*1B
$GPGSV,2,1,07,10,20,309,34,15,48,037,41,20,45,321,26,21,62,256,42*7D
$GPGSV,2,2,07,24,71,117,41,32,06,253,27,41,41,230,45*4A
$GLGSV,3,1,11,65,38,045,31,66,36,323,26,67,01,285,,72,07,079,*6C
$GLGSV,3,2,11,74,09,028,25,75,42,075,37,76,39,139,30,81,36,284,33*60
$GLGSV,3,3,11,82,10,330,,87,02,187,24,88,30,224,29*57
$GNGLL,3030.85665,N,11420.30320,E,013252.00,A,A*7C
$GNRMC,013253.00,A,3030.85611,N,11420.30309,E,1.921,192.69,220119,,,A*75
$GNVTG,192.69,T,,M,1.921,N,3.557,K,A*29
$GNGGA,013253.00,3030.85611,N,11420.30309,E,1,12,0.87,18.5,M,-10.8,M,,*54
$GNGSA,A,3,15,20,10,21,32,24,,,,,,,1.77,0.87,1.54*11
$GNGSA,A,3,66,88,76,75,81,65,,,,,,,1.77,0.87,1.54*1B
$GPGSV,2,1,07,10,20,309,34,15,48,037,35,20,45,321,25,21,62,256,42*7D
$GPGSV,2,2,07,24,71,116,42,32,06,253,27,41,41,230,44*49
$GLGSV,3,1,11,65,38,045,31,66,36,323,26,67,01,285,,72,07,079,*6C
$GLGSV,3,2,11,74,09,028,23,75,42,075,33,76,39,139,29,81,36,284,34*6D
$GLGSV,3,3,11,82,10,330,,87,02,187,23,88,30,224,29*50
$GNGLL,3030.85611,N,11420.30309,E,013253.00,A,A*75
$GNRMC,013254.00,A,3030.85550,N,11420.30303,E,2.171,189.95,220119,,,A*79
$GNVTG,189.95,T,,M,2.171,N,4.020,K,A*2C
$GNGGA,013254.00,3030.85550,N,11420.30303,E,1,12,0.87,18.5,M,-10.8,M,,*5F
$GNGSA,A,3,15,20,10,21,32,24,,,,,,,1.77,0.87,1.54*11
$GNGSA,A,3,66,88,76,75,81,65,,,,,,,1.77,0.87,1.54*1B
$GPGSV,2,1,07,10,20,309,37,15,48,037,37,20,45,321,25,21,62,256,41*7F
$GPGSV,2,2,07,24,71,116,42,32,07,253,35,41,41,230,44*4B
$GLGSV,3,1,11,65,38,045,31,66,36,323,26,67,01,285,,72,07,079,*6C
$GLGSV,3,2,11,74,09,028,21,75,42,075,34,76,39,139,29,81,36,284,33*6F
$GLGSV,3,3,11,82,10,330,,87,02,187,22,88,30,224,28*50
$GNGLL,3030.85550,N,11420.30303,E,013254.00,A,A*7E
$GNRMC,013255.00,A,3030.85495,N,11420.30295,E,1.617,190.98,220119,,,A*7F
$GNVTG,190.98,T,,M,1.617,N,2.995,K,A*2C
$GNGGA,013255.00,3030.85495,N,11420.30295,E,1,12,0.87,18.3,M,-10.8,M,,*5E
$GNGSA,A,3,15,20,10,21,32,24,,,,,,,1.77,0.87,1.54*11
$GNGSA,A,3,66,88,76,75,81,65,,,,,,,1.77,0.87,1.54*1B
$GPGSV,2,1,07,10,20,309,31,15,48,037,40,20,45,321,32,21,62,256,38*71
$GPGSV,2,2,07,24,71,116,42,32,07,253,35,41,41,230,45*4A
$GLGSV,3,1,11,65,38,045,32,66,36,323,25,67,01,285,,72,07,079,*6C
$GLGSV,3,2,11,74,09,028,18,75,42,075,35,76,39,139,30,81,36,284,27*69
$GLGSV,3,3,11,82,10,330,,87,02,187,22,88,30,224,30*59
$GNGLL,3030.85495,N,11420.30295,E,013255.00,A,A*79
$GNRMC,013256.00,A,3030.85442,N,11420.30284,E,1.934,194.13,220119,,,A*7F
$GNVTG,194.13,T,,M,1.934,N,3.582,K,A*2E
$GNGGA,013256.00,3030.85442,N,11420.30284,E,1,12,0.87,18.2,M,-10.8,M,,*56
$GNGSA,A,3,15,20,10,21,32,24,,,,,,,1.77,0.87,1.54*11
$GNGSA,A,3,66,88,76,75,81,65,,,,,,,1.77,0.87,1.54*1B
$GPGSV,2,1,07,10,20,309,26,15,48,037,38,20,45,321,26,21,62,256,41*73
$GPGSV,2,2,07,24,71,116,39,32,07,253,31,41,41,230,45*42
$GLGSV,3,1,11,65,38,045,31,66,36,323,25,67,01,285,,72,07,079,*6F
$GLGSV,3,2,11,74,09,028,15,75,42,075,31,76,39,139,31,81,36,284,28*6E
$GLGSV,3,3,11,82,10,330,,87,02,187,22,88,30,224,31*58
$GNGLL,3030.85442,N,11420.30284,E,013256.00,A,A*70
$GNRMC,013257.00,A,3030.85373,N,11420.30280,E,2.118,192.03,220119,,,A*7D
$GNVTG,192.03,T,,M,2.118,N,3.923,K,A*2B
$GNGGA,013257.00,3030.85373,N,11420.30280,E,1,12,0.87,17.8,M,-10.8,M,,*53
$GNGSA,A,3,15,20,10,21,32,24,,,,,,,1.77,0.87,1.54*11
$GNGSA,A,3,66,88,76,75,81,65,,,,,,,1.77,0.87,1.54*1B
$GPGSV,2,1,07,10,20,309,41,15,48,037,43,20,45,321,27,21,62,256,41*7F
$GPGSV,2,2,07,24,71,116,43,32,07,253,39,41,41,230,47*45
$GLGSV,3,1,11,65,38,045,35,66,36,323,32,67,01,285,,72,07,079,*6D
$GLGSV,3,2,11,74,09,028,15,75,42,075,35,76,39,139,37,81,36,284,37*62
$GLGSV,3,3,11,82,10,330,,87,02,187,24,88,30,224,35*5A
$GNGLL,3030.85373,N,11420.30280,E,013257.00,A,A*70
$GNRMC,013258.00,A,3030.85313,N,11420.30275,E,1.921,189.40,220119,,,A*72
$GNVTG,189.40,T,,M,1.921,N,3.558,K,A*27
$GNGGA,013258.00,3030.85313,N,11420.30275,E,1,12,0.87,17.9,M,-10.8,M,,*51
$GNGSA,A,3,15,20,10,21,32,24,,,,,,,1.77,0.87,1.54*11
$GNGSA,A,3,66,88,76,75,81,65,,,,,,,1.77,0.87,1.54*1B
$GPGSV,2,1,07,10,20,309,32,15,48,037,34,20,45,321,25,21,62,256,42*7A
$GPGSV,2,2,07,24,71,116,41,32,07,253,33,41,41,230,43*49
$GLGSV,3,1,11,65,38,045,34,66,36,323,25,67,01,285,,72,07,079,*6A
$GLGSV,3,2,11,74,09,028,16,75,42,075,38,76,39,139,32,81,36,284,40*69
$GLGSV,3,3,11,82,10,330,,87,02,187,26,88,30,224,33*5E
$GNGLL,3030.85313,N,11420.30275,E,013258.00,A,A*73
$GNRMC,013259.00,A,3030.85252,N,11420.30270,E,2.204,188.38,220119,,,A*73
$GNVTG,188.38,T,,M,2.204,N,4.082,K,A*23
$GNGGA,013259.00,3030.85252,N,11420.30270,E,1,12,0.87,17.9,M,-10.8,M,,*51
$GNGSA,A,3,15,20,10,21,32,24,,,,,,,1.77,0.87,1.54*11
$GNGSA,A,3,66,88,76,75,81,65,,,,,,,1.77,0.87,1.54*1B
$GPGSV,2,1,07,10,20,309,35,15,48,037,44,20,45,321,26,21,62,256,44*7F
$GPGSV,2,2,07,24,71,116,44,32,07,253,29,41,41,230,46*42
$GLGSV,3,1,11,65,38,045,34,66,36,323,32,67,01,285,,72,07,079,*6C
$GLGSV,3,2,11,74,09,028,19,75,42,075,35,76,39,139,31,81,36,284,35*6A
$GLGSV,3,3,11,82,10,330,,87,02,187,27,88,30,224,35*59
$GNGLL,3030.85252,N,11420.30270,E,013259.00,A,A*73
$GNRMC,013300.00,A,3030.85201,N,11420.30262,E,1.817,190.39,220119,,,A*78
$GNVTG,190.39,T,,M,1.817,N,3.365,K,A*2D
$GNGGA,013300.00,3030.85201,N,11420.30262,E,1,12,0.87,18.0,M,-10.8,M,,*5F
$GNGSA,A,3,15,20,10,21,32,24,,,,,,,1.77,0.87,1.54*11
$GNGSA,A,3,66,88,76,75,81,65,,,,,,,1.77,0.87,1.54*1B
$GPGSV,2,1,07,10,20,309,35,15,48,037,40,20,45,321,25,21,62,256,42*7E
$GPGSV,2,2,07,24,71,116,43,32,07,253,29,41,41,230,45*46
$GLGSV,3,1,11,65,38,045,34,66,36,323,28,67,01,285,,72,07,079,*67
$GLGSV,3,2,11,74,09,028,20,75,42,075,38,76,39,139,32,81,36,284,36*6D
$GLGSV,3,3,11,82,10,330,,87,02,187,27,88,30,224,34*58
$GNGLL,3030.85201,N,11420.30262,E,013300.00,A,A*7B
$GNRMC,013301.00,A,3030.85149,N,11420.30247,E,2.032,197.44,220119,,,A*70
$GNVTG,197.44,T,,M,2.032,N,3.764,K,A*29
$GNGGA,013301.00,3030.85149,N,11420.30247,E,1,12,0.87,17.7,M,-10.8,M,,*5E
$GNGSA,A,3,15,20,10,21,32,24,,,,,,,1.77,0.87,1.54*11
$GNGSA,A,3,66,88,76,75,81,65,,,,,,,1.77,0.87,1.54*1B
$GPGSV,2,1,07,10,20,309,38,15,48,037,37,20,45,321,33,21,62,256,44*72
$GPGSV,2,2,07,24,71,116,40,32,07,253,28,41,41,230,44*45
$GLGSV,3,1,11,65,38,045,34,66,36,323,29,67,01,285,,72,07,079,*66
$GLGSV,3,2,11,74,09,028,18,75,42,075,36,76,39,139,30,81,36,284,38*64
$GLGSV,3,3,11,82,10,330,,87,02,187,29,88,30,224,33*51
$GNGLL,3030.85149,N,11420.30247,E,013301.00,A,A*72
$GNRMC,013302.00,A,3030.85092,N,11420.30236,E,1.986,192.37,220119,,,A*76
$GNVTG,192.37,T,,M,1.986,N,3.678,K,A*21
$GNGGA,013302.00,3030.85092,N,11420.30236,E,1,12,0.87,17.5,M,-10.8,M,,*5E
$GNGSA,A,3,15,20,10,21,32,24,,,,,,,1.77,0.87,1.54*11
$GNGSA,A,3,66,88,76,75,81,65,,,,,,,1.77,0.87,1.54*1B
$GPGSV,2,1,07,10,20,309,36,15,48,037,43,20,45,321,26,21,62,256,43*7C
$GPGSV,2,2,07,24,71,116,45,32,07,253,32,41,41,230,46*49
$GLGSV,3,1,11,65,38,045,33,66,36,323,28,67,01,285,,72,07,079,*60
$GLGSV,3,2,11,74,09,028,14,75,42,075,36,76,39,139,30,81,36,284,34*64
$GLGSV,3,3,11,82,10,330,,87,02,187,28,88,30,224,34*57
$GNGLL,3030.85092,N,11420.30236,E,013302.00,A,A*70
$GNRMC,013303.00,A,3030.85029,N,11420.30228,E,2.164,189.69,220119,,,A*7E
$GNVTG,189.69,T,,M,2.164,N,4.007,K,A*2E
$GNGGA,013303.00,3030.85029,N,11420.30228,E,1,12,0.87,17.5,M,-10.8,M,,*50
$GNGSA,A,3,15,20,10,21,32,24,,,,,,,1.77,0.87,1.54*11
$GNGSA,A,3,66,88,76,75,81,65,,,,,,,1.77,0.87,1.54*1B
$GPGSV,2,1,07,10,20,309,38,15,48,037,38,20,45,321,31,21,62,256,43*78
$GPGSV,2,2,07,24,71,116,43,32,07,253,31,41,41,230,45*4F
$GLGSV,3,1,11,65,38,045,35,66,36,323,33,67,01,285,,72,07,079,*6C
$GLGSV,3,2,11,74,09,028,15,75,42,075,36,76,39,139,29,81,36,284,37*6E
$GLGSV,3,3,11,82,10,330,,87,02,187,27,88,30,224,31*5D
$GNGLL,3030.85029,N,11420.30228,E,013303.00,A,A*7E
$GNRMC,013304.00,A,3030.84961,N,11420.30221,E,2.250,188.48,220119,,,A*72
$GNVTG,188.48,T,,M,2.250,N,4.167,K,A*2F
$GNGGA,013304.00,3030.84961,N,11420.30221,E,1,12,0.87,17.4,M,-10.8,M,,*5B
$GNGSA,A,3,15,20,10,21,32,24,,,,,,,1.77,0.87,1.54*11
$GNGSA,A,3,66,88,76,75,81,65,,,,,,,1.77,0.87,1.54*1B
$GPGSV,2,1,07,10,20,309,32,15,48,037,41,20,45,321,24,21,62,256,42*79
$GPGSV,2,2,07,24,71,116,41,32,07,253,32,41,41,230,43*48
$GLGSV,3,1,11,65,38,045,32,66,36,323,28,67,01,285,,72,07,079,*61
$GLGSV,3,2,11,74,09,028,17,75,42,075,34,76,39,139,28,81,36,284,35*6D
$GLGSV,3,3,11,82,10,330,,87,02,187,24,88,30,224,29*57
$GNGLL,3030.84961,N,11420.30221,E,013304.00,A,A*74
$GNRMC,013305.00,A,3030.84905,N,11420.30210,E,1.770,189.04,220119,,,A*7E
$GNVTG,189.04,T,,M,1.770,N,3.278,K,A*28
$GNGGA,013305.00,3030.84905,N,11420.30210,E,1,12,0.87,17.4,M,-10.8,M,,*5A
$GNGSA,A,3,15,20,10,21,32,24,,,,,,,1.77,0.87,1.54*11
$GNGSA,A,3,66,88,76,75,81,65,,,,,,,1.77,0.87,1.54*1B
$GPGSV,2,1,07,10,20,309,29,15,48,037,43,20,45,321,24,21,62,256,41*72
$GPGSV,2,2,07,24,71,116,41,32,07,253,34,41,41,230,43*4E
$GLGSV,3,1,11,65,38,045,33,66,36,323,27,67,01,285,,72,07,079,*6F
$GLGSV,3,2,11,74,09,028,18,75,42,075,37,76,39,139,30,81,36,284,30*6D
$GLGSV,3,3,11,82,10,330,,87,02,187,22,88,30,224,31*58
$GNGLL,3030.84905,N,11420.30210,E,013305.00,A,A*75
$GNRMC,013306.00,A,3030.84853,N,11420.30195,E,1.982,193.39,220119,,,A*77
$GNVTG,193.39,T,,M,1.982,N,3.671,K,A*23
$GNGGA,013306.00,3030.84853,N,11420.30195,E,1,12,0.87,17.5,M,-10.8,M,,*54
$GNGSA,A,3,15,20,10,21,32,24,,,,,,,1.77,0.87,1.54*11
$GNGSA,A,3,66,88,76,75,81,65,,,,,,,1.77,0.87,1.54*1B
$GPGSV,2,1,07,10,20,309,33,15,48,037,39,20,45,321,31,21,62,256,42*73
$GPGSV,2,2,07,24,71,116,41,32,07,253,31,41,41,230,43*4B
$GLGSV,3,1,11,65,38,045,34,66,36,323,25,67,01,285,,72,07,079,*6A
$GLGSV,3,2,11,74,09,028,17,75,42,075,35,76,39,139,30,81,36,284,30*60
$GLGSV,3,3,11,82,10,330,,87,02,187,21,88,30,224,30*5A
$GNGLL,3030.84853,N,11420.30195,E,013306.00,A,A*7A
$GNRMC,013307.00,A,3030.84791,N,11420.30177,E,2.182,195.09,220119,,,A*75
$GNVTG,195.09,T,,M,2.182,N,4.041,K,A*2F
$GNGGA,013307.00,3030.84791,N,11420.30177,E,1,12,0.87,17.4,M,-10.8,M,,*59
$GNGSA,A,3,15,20,10,21,32,24,,,,,,,1.77,0.87,1.54*11
$GNGSA,A,3,66,88,76,75,81,65,,,,,,,1.77,0.87,1.54*1B
$GPGSV,2,1,07,10,20,309,36,15,48,037,45,20,45,321,26,21,62,256,43*7A
$GPGSV,2,2,07,24,71,116,43,32,07,253,35,41,41,230,46*48
$GLGSV,3,1,11,65,38,045,39,66,36,323,30,67,01,285,,72,07,079,*63
$GLGSV,3,2,11,74,09,028,18,75,42,075,37,76,39,139,35,81,36,284,34*6C
$GLGSV,3,3,11,82,10,330,,87,02,187,24,88,30,224,33*5C
$GNGLL,3030.84791,N,11420.30177,E,013307.00,A,A*76
$GNRMC,013308.00,A,3030.84730,N,11420.30167,E,2.121,190.50,220119,,,A*70
$GNVTG,190.50,T,,M,2.121,N,3.928,K,A*2E
$GNGGA,013308.00,3030.84730,N,11420.30167,E,1,12,0.87,17.4,M,-10.8,M,,*5C
$GNGSA,A,3,15,20,10,21,32,24,,,,,,,1.77,0.87,1.54*11
$GNGSA,A,3,66,88,76,75,81,65,,,,,,,1.77,0.87,1.54*1B
$GPGSV,2,1,07,10,20,309,33,15,48,037,39,20,45,321,26,21,62,256,42*75
$GPGSV,2,2,07,24,71,116,43,32,07,253,33,41,41,230,44*4C
$GLGSV,3,1,11,65,38,045,36,66,36,323,33,67,01,285,,72,07,079,*6F
$GLGSV,3,2,11,74,09,028,18,75,42,075,39,76,39,139,35,81,36,284,37*61
$GLGSV,3,3,11,82,10,330,,87,02,187,26,88,30,224,30*5D
$GNGLL,3030.84730,N,11420.30167,E,013308.00,A,A*73
$GNRMC,013309.00,A,3030.84672,N,11420.30161,E,2.069,187.11,220119,,,A*7E
$GNVTG,187.11,T,,M,2.069,N,3.831,K,A*29
$GNGGA,013309.00,3030.84672,N,11420.30161,E,1,12,0.87,17.7,M,-10.8,M,,*5F
$GNGSA,A,3,15,20,10,21,32,24,,,,,,,1.77,0.87,1.54*11
$GNGSA,A,3,66,88,76,75,81,65,,,,,,,1.77,0.87,1.54*1B
$GPGSV,2,1,07,10,20,309,32,15,48,037,38,20,45,321,25,21,62,256,44*70
$GPGSV,2,2,07,24,71,116,41,32,07,253,32,41,41,230,44*4F
$GLGSV,3,1,11,65,38,045,37,66,36,323,30,67,01,285,,72,07,079,*6D
$GLGSV,3,2,11,74,09,028,19,75,42,075,39,76,39,139,31,81,36,284,34*67
$GLGSV,3,3,11,82,10,330,,87,02,187,26,88,30,224,31*5C
$GNGLL,3030.84672,N,11420.30161,E,013309.00,A,A*73
$GNRMC,013310.00,A,3030.84618,N,11420.30157,E,2.057,184.64,220119,,,A*73
$GNVTG,184.64,T,,M,2.057,N,3.809,K,A*2E
$GNGGA,013310.00,3030.84618,N,11420.30157,E,1,12,0.87,17.8,M,-10.8,M,,*51
$GNGSA,A,3,15,20,10,21,32,24,,,,,,,1.77,0.87,1.54*11
$GNGSA,A,3,66,88,76,75,81,65,,,,,,,1.77,0.87,1.54*1B
$GPGSV,2,1,07,10,20,309,27,15,48,037,43,20,45,321,26,21,62,256,41*7E
$GPGSV,2,2,07,24,71,116,43,32,07,253,31,41,41,230,43*49
$GLGSV,3,1,11,65,38,045,34,66,36,323,27,67,01,285,,72,07,079,*68
$GLGSV,3,2,11,74,09,028,20,75,42,075,39,76,39,139,35,81,36,284,34*69
$GLGSV,3,3,11,82,10,330,21,87,02,187,24,88,30,224,31*5D
$GNGLL,3030.84618,N,11420.30157,E,013310.00,A,A*72
$GNRMC,013311.00,A,3030.84562,N,11420.30149,E,1.991,187.95,220119,,,A*7E
$GNVTG,187.95,T,,M,1.991,N,3.688,K,A*24
$GNGGA,013311.00,3030.84562,N,11420.30149,E,1,12,0.87,17.8,M,-10.8,M,,*51
$GNGSA,A,3,15,20,10,21,32,24,,,,,,,1.77,0.87,1.54*11
$GNGSA,A,3,66,88,76,75,81,65,,,,,,,1.77,0.87,1.54*1B
$GPGSV,2,1,07,10,20,309,35,15,48,037,41,20,45,321,25,21,62,256,41*7C
$GPGSV,2,2,07,24,71,116,40,32,07,253,27,41,41,230,43*4D
$GLGSV,3,1,11,65,38,045,32,66,36,323,28,67,01,285,,72,07,079,*61
$GLGSV,3,2,11,74,09,028,18,75,42,075,38,76,39,139,33,81,36,284,35*64
$GLGSV,3,3,11,82,10,330,19,87,02,187,24,88,30,224,33*54
$GNGLL,3030.84562,N,11420.30149,E,013311.00,A,A*72
$GNRMC,013312.00,A,3030.84503,N,11420.30143,E,1.996,190.02,220119,,,A*7F
$GNVTG,190.02,T,,M,1.996,N,3.697,K,A*25
$GNGGA,013312.00,3030.84503,N,11420.30143,E,1,12,0.87,17.8,M,-10.8,M,,*5F
$GNGSA,A,3,15,20,10,21,32,24,,,,,,,1.77,0.87,1.54*11
$GNGSA,A,3,66,88,76,75,81,65,,,,,,,1.77,0.87,1.54*1B
$GPGSV,2,1,07,10,20,309,35,15,48,037,38,20,45,321,25,21,62,256,42*71
$GPGSV,2,2,07,24,71,116,42,32,07,253,31,41,41,230,44*4F
$GLGSV,3,1,11,65,38,046,36,66,36,323,34,67,01,285,,72,07,079,*6B
$GLGSV,3,2,11,74,09,028,,75,42,075,36,76,39,139,33,81,36,284,37*61
$GLGSV,3,3,11,82,10,330,20,87,02,187,23,88,30,224,35*5F
$GNGLL,3030.84503,N,11420.30143,E,013312.00,A,A*7C
$GNRMC,013313.00,A,3030.84449,N,11420.30125,E,2.014,193.73,220119,,,A*74
$GNVTG,193.73,T,,M,2.014,N,3.730,K,A*2C
$GNGGA,013313.00,3030.84449,N,11420.30125,E,1,12,0.87,17.8,M,-10.8,M,,*51
$GNGSA,A,3,15,20,10,21,32,24,,,,,,,1.77,0.87,1.54*11
$GNGSA,A,3,66,88,76,75,81,65,,,,,,,1.77,0.87,1.54*1B
$GPGSV,2,1,07,10,20,309,34,15,48,037,43,20,45,321,31,21,62,256,43*78
$GPGSV,2,2,07,24,71,116,44,32,07,253,24,41,41,230,45*4C
$GLGSV,3,1,11,65,38,046,36,66,36,323,30,67,01,285,,72,07,079,*6F
$GLGSV,3,2,11,74,09,028,,75,42,075,40,76,39,139,32,81,36,284,39*6F
$GLGSV,3,3,11,82,10,330,23,87,02,187,24,88,30,224,35*5B
$GNGLL,3030.84449,N,11420.30125,E,013313.00,A,A*72
$GNRMC,013314.00,A,3030.84393,N,11420.30108,E,2.063,192.32,220119,,,A*78
$GNVTG,192.32,T,,M,2.063,N,3.820,K,A*26
$GNGGA,013314.00,3030.84393,N,11420.30108,E,1,12,0.87,17.6,M,-10.8,M,,*57
$GNGSA,A,3,15,20,10,21,32,24,,,,,,,1.77,0.87,1.54*11
$GNGSA,A,3,66,88,76,75,81,65,,,,,,,1.77,0.87,1.54*1B
$GPGSV,2,1,07,10,20,309,37,15,48,037,40,20,45,321,31,21,62,256,43*78
$GPGSV,2,2,07,24,71,116,42,32,07,253,25,41,41,230,44*4A
$GLGSV,3,1,11,65,38,046,33,66,36,323,31,67,01,286,,72,07,079,*68
$GLGSV,3,2,11,74,09,028,,75,42,075,39,76,39,139,33,81,36,284,41*6F
$GLGSV,3,3,11,82,10,330,22,87,02,187,23,88,30,224,35*5D
$GNGLL,3030.84393,N,11420.30108,E,013314.00,A,A*7A
$GNRMC,013315.00,A,3030.84330,N,11420.30097,E,2.330,191.56,220119,,,A*73
$GNVTG,191.56,T,,M,2.330,N,4.315,K,A*28
$GNGGA,013315.00,3030.84330,N,11420.30097,E,1,12,0.87,17.5,M,-10.8,M,,*5B
$GNGSA,A,3,15,20,10,21,32,24,,,,,,,1.77,0.87,1.54*11
$GNGSA,A,3,66,88,76,75,81,65,,,,,,,1.77,0.87,1.54*1B
$GPGSV,2,1,07,10,20,309,37,15,48,037,42,20,45,321,26,21,62,256,41*7E
$GPGSV,2,2,07,24,71,116,43,32,07,253,26,41,41,230,45*49
$GLGSV,3,1,11,65,38,046,33,66,36,323,30,67,01,286,,72,07,079,*69
$GLGSV,3,2,11,74,09,028,,75,42,075,35,76,39,139,32,81,36,284,38*6C
$GLGSV,3,3,11,82,10,330,23,87,02,187,23,88,30,224,34*5D
$GNGLL,3030.84330,N,11420.30097,E,013315.00,A,A*75
$GNRMC,013316.00,A,3030.84279,N,11420.30080,E,1.758,192.66,220119,,,A*73
$GNVTG,192.66,T,,M,1.758,N,3.257,K,A*21
$GNGGA,013316.00,3030.84279,N,11420.30080,E,1,12,0.87,17.5,M,-10.8,M,,*52
$GNGSA,A,3,15,20,10,21,32,24,,,,,,,1.77,0.87,1.54*11
$GNGSA,A,3,66,88,76,75,81,65,,,,,,,1.77,0.87,1.54*1B
$GPGSV,2,1,07,10,20,309,34,15,48,037,44,20,45,321,26,21,62,256,43*79
$GPGSV,2,2,07,24,71,116,41,32,07,253,37,41,41,230,43*4D
$GLGSV,3,1,11,65,38,046,34,66,36,323,27,67,01,286,,72,07,079,*68
$GLGSV,3,2,11,74,09,028,,75,42,075,40,76,39,139,31,81,36,284,28*6C
$GLGSV,3,3,11,82,10,330,24,87,02,187,22,88,30,224,33*5C
$GNGLL,3030.84279,N,11420.30080,E,013316.00,A,A*7C
$GNRMC,013317.00,A,3030.84222,N,11420.30064,E,2.136,190.61,220119,,,A*7E
$GNVTG,190.61,T,,M,2.136,N,3.956,K,A*23
$GNGGA,013317.00,3030.84222,N,11420.30064,E,1,12,0.87,17.6,M,-10.8,M,,*54
$GNGSA,A,3,15,20,10,21,32,24,,,,,,,1.77,0.87,1.54*11
$GNGSA,A,3,66,88,76,75,81,65,,,,,,,1.77,0.87,1.54*1B
$GPGSV,2,1,07,10,20,309,34,15,48,037,38,20,45,321,26,21,62,256,41*70
$GPGSV,2,2,07,24,71,116,41,32,07,253,35,41,41,230,43*4F
$GLGSV,3,1,11,65,38,046,34,66,36,323,27,67,01,286,,72,07,079,*68
$GLGSV,3,2,11,74,09,028,,75,42,075,40,76,39,139,32,81,36,284,33*65
$GLGSV,3,3,11,82,10,330,24,87,02,187,21,88,30,224,33*5F
$GNGLL,3030.84222,N,11420.30064,E,013317.00,A,A*79
$GNRMC,013318.00,A,3030.84159,N,11420.30044,E,2.411,193.39,220119,,,D*77
$GNVTG,193.39,T,,M,2.411,N,4.464,K,D*23
$GNGGA,013318.00,3030.84159,N,11420.30044,E,2,12,0.87,17.6,M,-10.8,M,,0000*55
$GNGSA,A,3,15,20,10,21,32,24,,,,,,,1.77,0.87,1.54*11
$GNGSA,A,3,66,88,76,75,81,65,,,,,,,1.77,0.87,1.54*1B
$GPGSV,2,1,07,10,20,309,37,15,48,037,45,20,45,321,27,21,62,256,43*7A
$GPGSV,2,2,07,24,71,116,43,32,07,253,31,41,41,230,45*4F
$GLGSV,3,1,11,65,38,046,35,66,36,323,27,67,01,286,,72,07,079,*69
$GLGSV,3,2,11,74,09,028,,75,42,075,38,76,39,139,31,81,36,284,34*6E
