###################第五圈###############小走位####################################

$GNGGA,061648.00,3030.85662,N,11420.30056,E,2,12,0.70,14.5,M,-10.8,M,,0000*55
$GNGSA,A,3,14,22,26,31,32,03,10,25,41,29,,,1.44,0.70,1.26*16
$GNGSA,A,3,68,79,78,77,67,,,,,,,,1.44,0.70,1.26*11
$GPGSV,4,1,16,01,00,281,,03,11,320,18,10,26,177,32,12,02,036,*7B
$GPGSV,4,2,16,14,69,013,29,16,12,208,24,20,03,164,,22,26,306,27*75
$GPGSV,4,3,16,25,34,043,21,26,40,208,36,29,19,097,28,31,57,313,25*73
$GPGSV,4,4,16,32,68,075,36,40,18,253,,41,41,230,34,50,41,130,*7B
$GLGSV,2,1,08,66,03,151,,67,54,153,33,68,65,327,32,69,15,331,21*6C
$GLGSV,2,2,08,77,26,031,21,78,64,331,32,79,35,249,41,87,00,079,*66
$GNGLL,3030.85662,N,11420.30056,E,061648.00,A,D*76
$GNRMC,061649.00,A,3030.85622,N,11420.30043,E,1.596,217.30,220119,,,D*75
$GNVTG,217.30,T,,M,1.596,N,2.956,K,D*22
$GNGGA,061649.00,3030.85622,N,11420.30043,E,2,12,0.70,14.3,M,-10.8,M,,0000*52
$GNGSA,A,3,14,22,26,31,32,03,10,25,41,29,,,1.44,0.70,1.26*16
$GNGSA,A,3,68,79,78,77,67,,,,,,,,1.44,0.70,1.26*11
$GPGSV,4,1,16,01,00,281,,03,11,320,18,10,26,177,31,12,02,036,*78
$GPGSV,4,2,16,14,69,013,28,16,12,208,22,20,03,164,,22,26,305,28*7E
$GPGSV,4,3,16,25,34,043,20,26,40,208,35,29,19,097,19,31,57,313,23*75
$GPGSV,4,4,16,32,68,075,33,40,18,253,,41,41,230,37,50,41,130,*7D
$GLGSV,2,1,08,66,03,151,,67,54,153,36,68,65,327,33,69,15,331,20*69
$GLGSV,2,2,08,77,26,031,20,78,64,331,31,79,35,249,39,87,00,079,*6B
$GNGLL,3030.85622,N,11420.30043,E,061649.00,A,D*77
$GNRMC,061650.00,A,3030.85576,N,11420.30017,E,1.833,203.81,220119,,,D*73
$GNVTG,203.81,T,,M,1.833,N,3.394,K,D*2A
$GNGGA,061650.00,3030.85576,N,11420.30017,E,2,12,0.70,14.4,M,-10.8,M,,0000*5E
$GNGSA,A,3,14,22,26,31,32,03,10,25,41,29,,,1.44,0.70,1.26*16
$GNGSA,A,3,68,79,78,77,67,,,,,,,,1.44,0.70,1.26*11
$GPGSV,4,1,16,01,00,281,,03,11,320,19,10,26,177,31,12,02,036,*79
$GPGSV,4,2,16,14,69,013,21,16,12,208,23,20,03,164,,22,26,305,22*7C
$GPGSV,4,3,16,25,34,043,20,26,40,208,33,29,19,097,27,31,57,313,23*7E
$GPGSV,4,4,16,32,68,075,33,40,18,253,,41,41,230,36,50,41,130,*7C
$GLGSV,2,1,08,66,03,151,,67,54,153,35,68,65,327,32,69,15,331,20*6B
$GLGSV,2,2,08,77,26,031,18,78,64,331,35,79,35,249,41,87,00,079,*6B
$GNGLL,3030.85576,N,11420.30017,E,061650.00,A,D*7C
$GNRMC,061651.00,A,3030.85518,N,11420.29998,E,2.045,196.21,220119,,,D*73
$GNVTG,196.21,T,,M,2.045,N,3.787,K,D*23
$GNGGA,061651.00,3030.85518,N,11420.29998,E,2,12,0.70,14.3,M,-10.8,M,,0000*56
$GNGSA,A,3,14,22,26,31,32,03,10,25,41,29,,,1.44,0.70,1.26*16
$GNGSA,A,3,68,79,78,77,67,,,,,,,,1.44,0.70,1.26*11
$GPGSV,4,1,16,01,00,281,,03,11,320,19,10,26,177,31,12,02,036,*79
$GPGSV,4,2,16,14,69,013,24,16,12,208,24,20,03,164,,22,26,305,30*7D
$GPGSV,4,3,16,25,33,043,19,26,40,208,34,29,19,097,28,31,57,313,21*79
$GPGSV,4,4,16,32,68,075,34,40,18,253,,41,41,230,36,50,41,130,*7B
$GLGSV,2,1,08,66,03,151,,67,54,153,35,68,65,327,35,69,15,331,19*66
$GLGSV,2,2,08,77,26,031,17,78,64,331,28,79,35,249,39,87,00,079,*67
$GNGLL,3030.85518,N,11420.29998,E,061651.00,A,D*73
$GNRMC,061652.00,A,3030.85469,N,11420.29986,E,1.704,192.56,220119,,,D*7D
$GNVTG,192.56,T,,M,1.704,N,3.156,K,D*2C
$GNGGA,061652.00,3030.85469,N,11420.29986,E,2,12,0.70,14.0,M,-10.8,M,,0000*5E
$GNGSA,A,3,14,22,26,31,32,03,10,25,41,29,,,1.44,0.70,1.26*16
$GNGSA,A,3,68,79,78,77,67,,,,,,,,1.44,0.70,1.26*11
$GPGSV,4,1,16,01,00,281,,03,11,320,20,10,26,177,31,12,02,036,*73
$GPGSV,4,2,16,14,69,013,26,16,12,208,24,20,03,164,,22,26,305,30*7F
$GPGSV,4,3,16,25,33,043,18,26,40,208,34,29,19,097,33,31,57,313,20*73
$GPGSV,4,4,16,32,68,075,33,40,18,253,,41,41,230,36,50,41,130,*7C
$GLGSV,2,1,08,66,03,151,,67,54,153,35,68,65,327,33,69,15,331,20*6A
$GLGSV,2,2,08,77,26,031,16,78,64,331,32,79,35,249,39,87,00,079,*6D
$GNGLL,3030.85469,N,11420.29986,E,061652.00,A,D*78
$GNRMC,061653.00,A,3030.85427,N,11420.29981,E,1.523,189.03,220119,,,D*7C
$GNVTG,189.03,T,,M,1.523,N,2.821,K,D*29
$GNGGA,061653.00,3030.85427,N,11420.29981,E,2,12,0.70,13.9,M,-10.8,M,,0000*5C
$GNGSA,A,3,14,22,26,31,32,03,10,25,41,29,,,1.44,0.70,1.26*16
$GNGSA,A,3,68,79,78,77,67,,,,,,,,1.44,0.70,1.26*11
$GPGSV,4,1,16,01,00,281,,03,11,320,22,10,26,177,30,12,02,036,*70
$GPGSV,4,2,16,14,69,013,27,16,12,208,22,20,03,164,,22,26,305,30*78
$GPGSV,4,3,16,25,33,043,18,26,40,208,35,29,19,097,33,31,57,313,20*72
$GPGSV,4,4,16,32,68,075,37,40,18,253,,41,41,230,36,50,41,130,*78
$GLGSV,2,1,08,66,03,151,,67,54,153,35,68,65,327,33,69,15,331,20*6A
$GLGSV,2,2,08,77,26,031,16,78,64,331,33,79,35,249,37,87,00,079,*62
$GNGLL,3030.85427,N,11420.29981,E,061653.00,A,D*74
$GNRMC,061654.00,A,3030.85417,N,11420.29987,E,0.218,,220119,,,D*6D
$GNVTG,,T,,M,0.218,N,0.404,K,D*33
$GNGGA,061654.00,3030.85417,N,11420.29987,E,2,12,0.70,13.5,M,-10.8,M,,0000*52
$GNGSA,A,3,14,22,26,31,32,03,10,25,41,29,,,1.44,0.70,1.26*16
$GNGSA,A,3,68,79,78,77,67,,,,,,,,1.44,0.70,1.26*11
$GPGSV,4,1,16,01,00,281,,03,11,320,22,10,26,177,37,12,02,036,*77
$GPGSV,4,2,16,14,69,013,32,16,12,208,31,20,03,164,,22,26,305,22*7D
$GPGSV,4,3,16,25,33,043,30,26,40,208,41,29,19,097,30,31,57,313,23*7B
$GPGSV,4,4,16,32,68,075,37,40,18,253,,41,41,230,38,50,41,130,*76
$GLGSV,2,1,08,66,03,151,,67,54,153,37,68,65,327,28,69,15,331,21*63
$GLGSV,2,2,08,77,26,031,16,78,64,331,33,79,35,249,37,87,00,079,*62
$GNGLL,3030.85417,N,11420.29987,E,061654.00,A,D*76
$GNRMC,061655.00,A,3030.85412,N,11420.30006,E,0.611,,220119,,,D*6C
$GNVTG,,T,,M,0.611,N,1.132,K,D*3F
$GNGGA,061655.00,3030.85412,N,11420.30006,E,2,12,0.70,13.1,M,-10.8,M,,0000*5A
$GNGSA,A,3,14,22,26,31,32,03,10,25,41,29,,,1.44,0.70,1.26*16
$GNGSA,A,3,68,79,78,77,67,,,,,,,,1.44,0.70,1.26*11
$GPGSV,4,1,16,01,00,281,,03,11,320,23,10,26,177,36,12,02,036,*77
$GPGSV,4,2,16,14,69,013,31,16,12,208,29,20,03,164,,22,26,305,23*76
$GPGSV,4,3,16,25,33,043,29,26,40,208,35,29,20,096,29,31,57,313,30*71
$GPGSV,4,4,16,32,68,075,36,40,18,253,,41,41,230,28,50,41,130,*76
$GLGSV,2,1,08,66,03,151,,67,54,153,35,68,65,327,30,69,15,331,29*60
$GLGSV,2,2,08,77,26,031,19,78,64,331,28,79,35,249,26,87,00,079,*67
$GNGLL,3030.85412,N,11420.30006,E,061655.00,A,D*7A
$GNRMC,061656.00,A,3030.85406,N,11420.30051,E,1.731,132.86,220119,,,D*7A
$GNVTG,132.86,T,,M,1.731,N,3.207,K,D*2A
$GNGGA,061656.00,3030.85406,N,11420.30051,E,2,12,0.65,13.2,M,-10.8,M,,0000*59
$GNGSA,A,3,14,22,26,31,32,03,10,25,41,29,,,1.24,0.65,1.05*15
$GNGSA,A,3,68,79,78,77,67,,,,,,,,1.24,0.65,1.05*12
$GPGSV,4,1,16,01,00,281,,03,11,320,24,10,26,177,33,12,02,036,*75
$GPGSV,4,2,16,14,69,013,31,16,12,208,28,20,03,164,,22,26,305,24*70
$GPGSV,4,3,16,25,33,043,28,26,40,208,35,29,20,096,21,31,57,313,29*70
$GPGSV,4,4,16,32,68,075,36,40,18,253,,41,41,230,29,50,41,130,*77
$GLGSV,2,1,08,66,03,151,,67,54,153,37,68,65,327,29,69,15,331,29*6A
$GLGSV,2,2,08,77,26,031,24,78,64,331,29,79,35,249,28,87,00,079,*66
$GNGLL,3030.85406,N,11420.30051,E,061656.00,A,D*7E
$GNRMC,061657.00,A,3030.85401,N,11420.30095,E,1.098,123.59,220119,,,D*72
$GNVTG,123.59,T,,M,1.098,N,2.034,K,D*2F
$GNGGA,061657.00,3030.85401,N,11420.30095,E,2,12,0.65,13.2,M,-10.8,M,,0000*57
$GNGSA,A,3,14,22,26,31,32,03,10,25,41,29,,,1.24,0.65,1.05*15
$GNGSA,A,3,68,79,78,77,67,,,,,,,,1.24,0.65,1.05*12
$GPGSV,4,1,16,01,00,281,,03,11,320,26,10,26,177,29,12,02,036,*7C
$GPGSV,4,2,16,14,69,013,31,16,12,208,28,20,03,164,,22,26,305,24*70
$GPGSV,4,3,16,25,33,043,29,26,40,208,35,29,20,096,29,31,57,314,29*7E
$GPGSV,4,4,16,32,68,075,36,40,18,253,,41,41,230,28,50,41,130,*76
$GLGSV,2,1,08,66,03,151,,67,54,153,34,68,65,327,29,69,15,331,28*68
$GLGSV,2,2,08,77,26,031,24,78,64,331,29,79,35,249,37,87,00,079,*68
$GNGLL,3030.85401,N,11420.30095,E,061657.00,A,D*70
$GNRMC,061658.00,A,3030.85388,N,11420.30128,E,1.087,119.05,220119,,,D*72
$GNVTG,119.05,T,,M,1.087,N,2.012,K,D*25
$GNGGA,061658.00,3030.85388,N,11420.30128,E,2,12,0.66,13.2,M,-10.8,M,,0000*5A
$GNGSA,A,3,14,22,26,31,32,03,10,25,41,29,,,1.28,0.66,1.09*16
$GNGSA,A,3,68,79,78,77,67,,,,,,,,1.28,0.66,1.09*11
$GPGSV,4,1,16,01,00,281,,03,11,320,26,10,26,177,33,12,02,036,*77
$GPGSV,4,2,16,14,69,013,31,16,12,208,28,20,03,164,,22,26,305,25*71
$GPGSV,4,3,16,25,33,043,19,26,40,208,37,29,20,096,21,31,57,314,34*7B
$GPGSV,4,4,16,32,68,076,36,40,18,253,,41,41,230,33,50,41,130,*7F
$GLGSV,2,1,08,66,03,151,,67,54,153,30,68,65,327,29,69,15,331,27*63
$GLGSV,2,2,08,77,26,031,24,78,64,331,32,79,35,249,30,87,00,079,*65
$GNGLL,3030.85388,N,11420.30128,E,061658.00,A,D*7E
$GNRMC,061659.00,A,3030.85379,N,11420.30136,E,0.387,,220119,,,D*62
$GNVTG,,T,,M,0.387,N,0.717,K,D*35
$GNGGA,061659.00,3030.85379,N,11420.30136,E,2,12,0.65,13.1,M,-10.8,M,,0000*5A
$GNGSA,A,3,14,22,26,31,32,03,10,25,41,29,,,1.24,0.65,1.05*15
$GNGSA,A,3,68,79,78,77,67,,,,,,,,1.24,0.65,1.05*12
$GPGSV,4,1,16,01,00,281,,03,11,320,26,10,26,177,29,12,02,036,*7C
$GPGSV,4,2,16,14,69,013,30,16,12,208,28,20,03,164,,22,26,305,27*72
$GPGSV,4,3,16,25,33,043,18,26,40,208,35,29,20,096,33,31,57,314,31*7E
$GPGSV,4,4,16,32,68,076,30,40,18,253,,41,41,230,36,50,41,130,*7C
$GLGSV,2,1,08,66,03,151,,67,54,153,31,68,65,327,29,69,15,331,25*60
$GLGSV,2,2,08,77,26,031,21,78,64,331,31,79,35,249,39,87,00,079,*6A
$GNGLL,3030.85379,N,11420.30136,E,061659.00,A,D*7E
$GNRMC,061700.00,A,3030.85341,N,11420.30123,E,1.597,167.10,220119,,,D*79
$GNVTG,167.10,T,,M,1.597,N,2.957,K,D*24
$GNGGA,061700.00,3030.85341,N,11420.30123,E,2,12,0.69,13.2,M,-10.8,M,,0000*57
$GNGSA,A,3,14,22,26,31,32,03,10,41,29,,,,1.26,0.69,1.06*1F
$GNGSA,A,3,68,79,78,77,67,,,,,,,,1.26,0.69,1.06*1F
$GPGSV,4,1,16,01,00,281,,03,11,320,26,10,26,177,29,12,02,036,*7C
$GPGSV,4,2,16,14,69,013,30,16,12,208,32,20,03,164,,22,26,305,32*7D
$GPGSV,4,3,16,25,33,043,19,26,40,208,32,29,20,096,20,31,57,314,27*7D
$GPGSV,4,4,16,32,68,076,34,40,18,253,,41,41,230,38,50,41,130,*76
$GLGSV,2,1,08,66,03,151,,67,54,153,35,68,65,327,31,69,15,331,24*6C
$GLGSV,2,2,08,77,26,031,18,78,64,331,30,79,35,249,40,87,00,079,*6F
$GNGLL,3030.85341,N,11420.30123,E,061700.00,A,D*7C
$GNRMC,061701.00,A,3030.85294,N,11420.30114,E,1.753,178.29,220119,,,D*7B
$GNVTG,178.29,T,,M,1.753,N,3.247,K,D*21
$GNGGA,061701.00,3030.85294,N,11420.30114,E,2,12,0.65,13.2,M,-10.8,M,,0000*57
$GNGSA,A,3,14,22,26,31,32,03,10,25,41,29,,,1.24,0.65,1.05*15
$GNGSA,A,3,68,79,78,77,67,,,,,,,,1.24,0.65,1.05*12
$GPGSV,4,1,16,01,00,281,,03,11,320,28,10,26,177,29,12,02,036,*72
$GPGSV,4,2,16,14,69,013,29,16,12,208,26,20,03,164,,22,26,305,35*77
$GPGSV,4,3,16,25,33,043,19,26,40,208,33,29,20,096,28,31,57,314,26*75
$GPGSV,4,4,16,32,68,076,33,40,18,253,,41,41,230,38,50,41,130,*71
$GLGSV,2,1,08,66,03,151,,67,54,153,34,68,65,327,31,69,15,331,24*6D
$GLGSV,2,2,08,77,26,031,18,78,64,331,31,79,35,249,40,87,00,079,*6E
$GNGLL,3030.85294,N,11420.30114,E,061701.00,A,D*70
$GNRMC,061702.00,A,3030.85239,N,11420.30096,E,2.007,185.42,220119,,,D*7E
$GNVTG,185.42,T,,M,2.007,N,3.717,K,D*2B
$GNGGA,061702.00,3030.85239,N,11420.30096,E,2,12,0.65,13.4,M,-10.8,M,,0000*5E
$GNGSA,A,3,14,22,26,31,32,03,10,25,41,29,,,1.24,0.65,1.05*15
$GNGSA,A,3,68,79,78,77,67,,,,,,,,1.24,0.65,1.05*12
$GPGSV,4,1,16,01,00,281,16,03,11,320,26,10,26,177,32,12,02,036,*71
$GPGSV,4,2,16,14,69,013,30,16,12,208,27,20,03,164,,22,26,305,30*7B
$GPGSV,4,3,16,25,33,043,18,26,40,208,35,29,20,096,28,31,57,314,25*71
$GPGSV,4,4,16,32,68,076,32,40,18,253,,41,41,230,36,50,41,130,*7E
$GLGSV,2,1,08,66,03,151,,67,54,153,33,68,65,327,34,69,15,331,23*68
$GLGSV,2,2,08,77,26,031,18,78,64,331,35,79,35,249,41,87,00,079,*6B
$GNGLL,3030.85239,N,11420.30096,E,061702.00,A,D*7F
$GNRMC,061703.00,A,3030.85185,N,11420.30076,E,1.795,187.82,220119,,,D*74
$GNVTG,187.82,T,,M,1.795,N,3.325,K,D*2F
$GNGGA,061703.00,3030.85185,N,11420.30076,E,2,12,0.65,13.6,M,-10.8,M,,0000*57
$GNGSA,A,3,14,22,26,31,32,03,10,25,41,29,,,1.24,0.65,1.05*15
$GNGSA,A,3,68,79,78,77,67,,,,,,,,1.24,0.65,1.05*12
$GPGSV,4,1,16,01,00,281,12,03,11,320,25,10,26,177,27,12,02,036,*72
$GPGSV,4,2,16,14,69,013,29,16,12,208,24,20,03,164,,22,26,305,29*78
$GPGSV,4,3,16,25,33,043,18,26,40,208,32,29,20,096,33,31,57,314,26*7F
$GPGSV,4,4,16,32,68,076,27,40,18,253,,41,41,230,35,50,41,130,*79
$GLGSV,2,1,08,66,03,151,,67,54,153,37,68,65,327,32,69,15,331,22*6B
$GLGSV,2,2,08,77,26,031,17,78,64,331,32,79,35,249,39,87,00,079,*6C
$GNGLL,3030.85185,N,11420.30076,E,061703.00,A,D*74
$GNRMC,061704.00,A,3030.85143,N,11420.30068,E,1.214,186.38,220119,,,D*7A
$GNVTG,186.38,T,,M,1.214,N,2.247,K,D*27
$GNGGA,061704.00,3030.85143,N,11420.30068,E,2,12,0.65,13.8,M,-10.8,M,,0000*5B
$GNGSA,A,3,14,22,26,31,32,03,10,25,41,29,,,1.24,0.65,1.05*15
$GNGSA,A,3,68,79,78,77,67,,,,,,,,1.24,0.65,1.05*12
$GPGSV,4,1,16,01,00,281,09,03,11,320,23,10,26,177,25,12,02,036,*7C
$GPGSV,4,2,16,14,69,013,28,16,12,208,22,20,03,164,,22,26,305,30*77
$GPGSV,4,3,16,25,33,043,19,26,40,208,28,29,20,096,28,31,57,314,26*7F
$GPGSV,4,4,16,32,68,076,32,40,18,253,,41,41,230,34,50,41,130,*7C
$GLGSV,2,1,08,66,03,151,,67,54,153,33,68,65,327,33,69,15,331,22*6E
$GLGSV,2,2,08,77,26,031,17,78,64,331,32,79,35,249,42,87,00,079,*60
$GNGLL,3030.85143,N,11420.30068,E,061704.00,A,D*76
$GNRMC,061705.00,A,3030.85127,N,11420.30069,E,0.295,,220119,,,D*6A
$GNVTG,,T,,M,0.295,N,0.546,K,D*31
$GNGGA,061705.00,3030.85127,N,11420.30069,E,2,12,0.65,13.8,M,-10.8,M,,0000*59
$GNGSA,A,3,14,22,26,31,32,03,10,25,41,29,,,1.24,0.65,1.05*15
$GNGSA,A,3,68,79,78,77,67,,,,,,,,1.24,0.65,1.05*12
$GPGSV,4,1,16,01,00,281,08,03,11,320,24,10,26,177,27,12,02,036,*78
$GPGSV,4,2,16,14,69,013,28,16,12,208,22,20,03,164,,22,26,305,30*77
$GPGSV,4,3,16,25,33,043,19,26,40,208,33,29,20,096,28,31,57,314,32*70
$GPGSV,4,4,16,32,68,076,31,40,18,253,,41,41,230,36,50,41,130,*7D
$GLGSV,2,1,08,66,03,151,,67,54,153,28,68,65,327,34,69,15,331,23*62
$GLGSV,2,2,08,77,26,031,15,78,64,331,34,79,35,249,42,87,00,079,*64
$GNGLL,3030.85127,N,11420.30069,E,061705.00,A,D*74
$GNRMC,061706.00,A,3030.85129,N,11420.30062,E,0.436,,220119,,,D*63
$GNVTG,,T,,M,0.436,N,0.807,K,D*36
$GNGGA,061706.00,3030.85129,N,11420.30062,E,2,12,0.65,13.6,M,-10.8,M,,0000*51
$GNGSA,A,3,14,22,26,31,32,03,10,25,41,29,,,1.24,0.65,1.05*15
$GNGSA,A,3,68,79,78,77,67,,,,,,,,1.24,0.65,1.05*12
$GPGSV,4,1,16,01,00,281,09,03,11,320,30,10,26,177,27,12,02,036,*7C
$GPGSV,4,2,16,14,69,013,31,16,12,208,28,20,03,164,,22,26,305,33*76
$GPGSV,4,3,16,25,33,043,20,26,40,208,36,29,20,096,25,31,57,314,35*75
$GPGSV,4,4,16,32,68,076,31,40,18,253,,41,41,230,33,50,41,130,*78
$GLGSV,2,1,08,66,03,151,,67,54,153,28,68,65,327,29,69,15,331,33*6F
$GLGSV,2,2,08,77,26,031,15,78,64,331,22,79,35,249,39,87,00,079,*6F
$GNGLL,3030.85129,N,11420.30062,E,061706.00,A,D*72
$GNRMC,061707.00,A,3030.85132,N,11420.30028,E,1.443,237.46,220119,,,D*7F
$GNVTG,237.46,T,,M,1.443,N,2.672,K,D*21
$GNGGA,061707.00,3030.85132,N,11420.30028,E,2,12,0.65,13.9,M,-10.8,M,,0000*5B
$GNGSA,A,3,14,22,26,31,32,03,10,25,41,29,,,1.24,0.65,1.05*15
$GNGSA,A,3,68,79,78,77,67,,,,,,,,1.24,0.65,1.05*12
$GPGSV,4,1,16,01,00,281,08,03,11,320,30,10,26,177,31,12,02,036,*7A
$GPGSV,4,2,16,14,69,013,30,16,12,208,27,20,03,164,,22,26,305,33*78
$GPGSV,4,3,16,25,33,043,22,26,40,208,34,29,20,096,23,31,57,314,36*70
$GPGSV,4,4,16,32,68,076,36,40,18,253,,41,41,230,33,50,41,130,*7F
$GLGSV,2,1,08,66,03,151,,67,54,153,27,68,65,327,28,69,15,331,30*62
$GLGSV,2,2,08,77,26,031,23,78,64,331,30,79,35,249,40,87,00,079,*67
$GNGLL,3030.85132,N,11420.30028,E,061707.00,A,D*77
$GNRMC,061708.00,A,3030.85138,N,11420.29983,E,1.466,259.99,220119,,,D*77
$GNVTG,259.99,T,,M,1.466,N,2.716,K,D*2F
$GNGGA,061708.00,3030.85138,N,11420.29983,E,2,12,0.65,13.8,M,-10.8,M,,0000*5F
$GNGSA,A,3,14,22,26,31,32,03,10,25,41,29,,,1.24,0.65,1.05*15
$GNGSA,A,3,68,79,78,77,67,,,,,,,,1.24,0.65,1.05*12
$GPGSV,4,1,16,01,00,281,08,03,11,320,31,10,26,177,35,12,02,036,*7F
$GPGSV,4,2,16,14,69,013,30,16,12,208,26,20,03,164,,22,26,305,33*79
$GPGSV,4,3,16,25,33,043,22,26,40,208,36,29,20,096,19,31,57,314,35*78
$GPGSV,4,4,16,32,68,076,30,40,18,253,,41,41,230,32,50,41,130,*78
$GLGSV,2,1,08,66,03,151,,67,54,153,33,68,65,327,28,69,15,331,34*63
$GLGSV,2,2,08,77,26,031,24,78,64,331,29,79,35,249,40,87,00,079,*68
$GNGLL,3030.85138,N,11420.29983,E,061708.00,A,D*72
$GNRMC,061709.00,A,3030.85144,N,11420.29948,E,1.082,269.96,220119,,,D*78
$GNVTG,269.96,T,,M,1.082,N,2.005,K,D*28
$GNGGA,061709.00,3030.85144,N,11420.29948,E,2,12,0.65,14.1,M,-10.8,M,,0000*5C
$GNGSA,A,3,14,22,26,31,32,03,10,25,41,29,,,1.24,0.65,1.05*15
$GNGSA,A,3,68,79,78,77,67,,,,,,,,1.24,0.65,1.05*12
$GPGSV,4,1,16,01,00,281,08,03,11,320,31,10,26,177,35,12,02,036,*7F
$GPGSV,4,2,16,14,69,013,30,16,12,208,26,20,03,164,,22,26,305,34*7E
$GPGSV,4,3,16,25,33,043,21,26,40,208,36,29,20,096,18,31,57,314,35*7A
$GPGSV,4,4,16,32,68,076,34,40,18,253,,41,41,230,32,50,41,130,*7C
$GLGSV,2,1,08,66,03,151,,67,54,153,33,68,65,327,27,69,15,331,34*6C
$GLGSV,2,2,08,77,26,031,23,78,64,331,29,79,35,249,39,87,00,079,*61
$GNGLL,3030.85144,N,11420.29948,E,061709.00,A,D*7F
$GNRMC,061710.00,A,3030.85144,N,11420.29924,E,0.561,,220119,,,D*6F
$GNVTG,,T,,M,0.561,N,1.039,K,D*31
$GNGGA,061710.00,3030.85144,N,11420.29924,E,2,12,0.65,14.4,M,-10.8,M,,0000*5B
$GNGSA,A,3,14,22,26,31,32,03,10,25,41,29,,,1.24,0.65,1.05*15
$GNGSA,A,3,68,79,78,77,67,,,,,,,,1.24,0.65,1.05*12
$GPGSV,4,1,16,01,00,281,07,03,11,320,30,10,26,177,35,12,02,036,*71
$GPGSV,4,2,16,14,69,013,31,16,12,208,28,20,03,164,,22,26,305,34*71
$GPGSV,4,3,16,25,33,043,22,26,40,208,33,29,20,096,19,31,57,314,35*7D
$GPGSV,4,4,16,32,68,076,30,40,18,253,,41,41,230,35,50,41,130,*7F
$GLGSV,2,1,08,66,03,151,,67,54,153,33,68,65,327,27,69,15,331,36*6E
$GLGSV,2,2,08,77,26,031,24,78,64,331,27,79,35,249,40,87,00,079,*66
$GNGLL,3030.85144,N,11420.29924,E,061710.00,A,D*7D
$GNRMC,061711.00,A,3030.85141,N,11420.29930,E,0.452,,220119,,,D*6F
$GNVTG,,T,,M,0.452,N,0.837,K,D*37
$GNGGA,061711.00,3030.85141,N,11420.29930,E,2,12,0.65,14.5,M,-10.8,M,,0000*5B
$GNGSA,A,3,14,22,26,31,32,03,10,25,41,29,,,1.24,0.65,1.05*15
$GNGSA,A,3,68,79,78,77,67,,,,,,,,1.24,0.65,1.05*12
$GPGSV,4,1,16,01,00,281,08,03,11,320,26,10,26,177,34,12,02,036,*78
$GPGSV,4,2,16,14,69,013,25,16,12,208,18,20,03,164,,22,26,305,31*72
$GPGSV,4,3,16,25,33,043,22,26,40,208,35,29,20,096,21,31,57,314,26*72
$GPGSV,4,4,16,32,68,076,34,40,18,253,27,41,41,230,36,50,41,130,*7D
$GLGSV,2,1,08,66,03,151,,67,54,153,37,68,65,327,32,69,15,331,27*6E
$GLGSV,2,2,08,77,26,031,22,78,64,331,32,79,35,249,39,87,00,079,*6A
$GNGLL,3030.85141,N,11420.29930,E,061711.00,A,D*7C
$GNRMC,061712.00,A,3030.85113,N,11420.29928,E,1.323,219.70,220119,,,D*71
$GNVTG,219.70,T,,M,1.323,N,2.450,K,D*2B
$GNGGA,061712.00,3030.85113,N,11420.29928,E,2,12,0.65,14.9,M,-10.8,M,,0000*5A
$GNGSA,A,3,14,22,26,31,32,03,10,25,41,29,,,1.24,0.65,1.05*15
$GNGSA,A,3,68,79,78,77,67,,,,,,,,1.24,0.65,1.05*12
$GPGSV,4,1,16,01,00,281,08,03,11,320,27,10,26,177,30,12,02,036,*7D
$GPGSV,4,2,16,14,69,013,30,16,12,208,18,20,03,164,,22,26,305,32*75
$GPGSV,4,3,16,25,33,043,21,26,40,208,36,29,20,096,25,31,57,314,25*75
$GPGSV,4,4,16,32,68,076,35,40,18,253,29,41,41,230,37,50,41,130,*73
$GLGSV,2,1,08,66,03,151,,67,54,153,36,68,65,327,33,69,15,331,27*6E
$GLGSV,2,2,08,77,26,031,22,78,64,331,31,79,35,249,42,87,00,079,*65
$GNGLL,3030.85113,N,11420.29928,E,061712.00,A,D*71
$GNRMC,061713.00,A,3030.85065,N,11420.29916,E,1.784,201.40,220119,,,D*7E
$GNVTG,201.40,T,,M,1.784,N,3.303,K,D*28
$GNGGA,061713.00,3030.85065,N,11420.29916,E,2,12,0.65,15.0,M,-10.8,M,,0000*5E
$GNGSA,A,3,14,22,26,31,32,03,10,25,41,29,,,1.24,0.65,1.05*15
$GNGSA,A,3,68,79,78,77,67,,,,,,,,1.24,0.65,1.05*12
$GPGSV,4,1,16,01,00,281,,03,11,320,27,10,26,177,33,12,02,036,*76
$GPGSV,4,2,16,14,69,013,30,16,12,208,14,20,03,164,,22,26,305,32*79
$GPGSV,4,3,16,25,33,043,22,26,40,208,34,29,20,096,26,31,57,314,23*71
$GPGSV,4,4,16,32,68,076,35,40,18,253,29,41,41,230,38,50,41,130,*7C
$GLGSV,2,1,08,66,03,151,,67,54,153,36,68,65,327,33,69,15,331,28*61
$GLGSV,2,2,08,77,26,031,21,78,64,331,31,79,35,249,42,87,00,079,*66
$GNGLL,3030.85065,N,11420.29916,E,061713.00,A,D*7D
$GNRMC,061714.00,A,3030.85014,N,11420.29906,E,1.896,193.65,220119,,,D*7D
$GNVTG,193.65,T,,M,1.896,N,3.511,K,D*2E
$GNGGA,061714.00,3030.85014,N,11420.29906,E,2,12,0.65,15.1,M,-10.8,M,,0000*5F
$GNGSA,A,3,14,22,26,31,32,03,10,25,41,29,,,1.24,0.65,1.05*15
$GNGSA,A,3,68,79,78,77,67,,,,,,,,1.24,0.65,1.05*12
$GPGSV,4,1,16,01,00,281,,03,11,320,28,10,26,177,33,12,02,036,*79
$GPGSV,4,2,16,14,69,013,31,16,12,208,,20,03,164,,22,26,305,33*7C
$GPGSV,4,3,16,25,33,043,25,26,40,208,36,29,20,096,33,31,57,314,22*71
$GPGSV,4,4,16,32,68,076,35,40,18,253,32,41,41,230,38,50,41,130,*76
$GLGSV,2,1,08,66,03,151,,67,54,153,37,68,65,327,32,69,15,331,28*61
$GLGSV,2,2,08,77,26,031,20,78,64,331,34,79,35,249,42,87,00,079,*62
$GNGLL,3030.85014,N,11420.29906,E,061714.00,A,D*7D
$GNRMC,061715.00,A,3030.84961,N,11420.29895,E,2.041,192.97,220119,,,D*70
$GNVTG,192.97,T,,M,2.041,N,3.779,K,D*2F
$GNGGA,061715.00,3030.84961,N,11420.29895,E,2,12,0.65,14.9,M,-10.8,M,,0000*56
$GNGSA,A,3,14,22,26,31,32,03,10,25,41,29,,,1.24,0.65,1.05*15
$GNGSA,A,3,68,79,78,77,67,,,,,,,,1.24,0.65,1.05*12
$GPGSV,4,1,16,01,00,281,,03,11,320,28,10,26,177,28,12,02,036,*73
$GPGSV,4,2,16,14,69,013,31,16,12,208,,20,03,164,,22,26,305,32*7D
$GPGSV,4,3,16,25,33,043,25,26,40,208,38,29,20,096,27,31,57,314,29*71
$GPGSV,4,4,16,32,68,076,36,40,18,253,30,41,41,230,39,50,41,130,*76
$GLGSV,2,1,08,66,03,151,,67,54,153,37,68,65,327,33,69,15,331,28*60
$GLGSV,2,2,08,77,26,031,21,78,64,331,31,79,35,249,38,87,00,079,*6B
$GNGLL,3030.84961,N,11420.29895,E,061715.00,A,D*7D
$GNRMC,061716.00,A,3030.84916,N,11420.29876,E,1.653,193.34,220119,,,D*70
$GNVTG,193.34,T,,M,1.653,N,3.061,K,D*2F
$GNGGA,061716.00,3030.84916,N,11420.29876,E,2,12,0.65,14.8,M,-10.8,M,,0000*59
$GNGSA,A,3,14,22,26,31,32,03,10,25,41,29,,,1.24,0.65,1.05*15
$GNGSA,A,3,68,79,78,77,67,,,,,,,,1.24,0.65,1.05*12
$GPGSV,4,1,16,01,00,281,24,03,11,320,28,10,26,177,30,12,02,036,*7C
$GPGSV,4,2,16,14,69,013,30,16,12,208,20,20,03,164,,22,26,305,32*7E
$GPGSV,4,3,16,25,33,043,24,26,40,208,37,29,20,096,24,31,57,314,27*72
$GPGSV,4,4,16,32,68,076,33,40,18,253,30,41,41,230,36,50,41,130,*7C
$GLGSV,2,1,08,66,03,151,,67,54,153,39,68,65,327,33,69,15,331,28*6E
$GLGSV,2,2,08,77,26,031,20,78,64,331,31,79,35,249,41,87,00,079,*64
$GNGLL,3030.84916,N,11420.29876,E,061716.00,A,D*73
$GNRMC,061717.00,A,3030.84890,N,11420.29873,E,1.044,188.82,220119,,,D*7C
$GNVTG,188.82,T,,M,1.044,N,1.934,K,D*23
$GNGGA,061717.00,3030.84890,N,11420.29873,E,2,12,0.65,14.6,M,-10.8,M,,0000*5C
$GNGSA,A,3,14,22,26,31,32,03,10,25,41,29,,,1.24,0.65,1.05*15
$GNGSA,A,3,68,79,78,77,67,,,,,,,,1.24,0.65,1.05*12
$GPGSV,4,1,16,01,00,281,20,03,11,320,27,10,26,177,33,12,02,036,*74
$GPGSV,4,2,16,14,69,013,33,16,12,208,26,20,03,164,,22,26,305,27*7F
$GPGSV,4,3,16,25,33,043,31,26,40,208,41,29,20,096,22,31,57,314,28*7E
$GPGSV,4,4,16,32,68,076,36,40,18,253,29,41,41,230,36,50,41,130,*71
$GLGSV,2,1,08,66,03,151,,67,54,153,40,68,65,327,33,69,15,331,29*61
$GLGSV,2,2,08,77,26,031,21,78,64,331,31,79,35,249,36,87,00,079,*65
$GNGLL,3030.84890,N,11420.29873,E,061717.00,A,D*78
$GNRMC,061718.00,A,3030.84875,N,11420.29878,E,0.330,,220119,,,D*67
$GNVTG,,T,,M,0.330,N,0.610,K,D*3F
$GNGGA,061718.00,3030.84875,N,11420.29878,E,2,12,0.65,15.1,M,-10.8,M,,0000*55
$GNGSA,A,3,14,22,26,31,32,03,10,25,41,29,,,1.24,0.65,1.05*15
$GNGSA,A,3,68,79,78,77,67,,,,,,,,1.24,0.65,1.05*12
$GPGSV,4,1,16,01,00,281,17,03,11,320,27,10,26,177,35,12,02,036,*76
$GPGSV,4,2,16,14,69,013,34,16,12,208,27,20,03,164,,22,26,305,38*77
$GPGSV,4,3,16,25,33,043,30,26,40,208,34,29,20,096,20,31,57,314,34*72
$GPGSV,4,4,16,32,68,076,38,40,18,253,28,41,41,230,27,50,41,130,*7E
$GLGSV,2,1,08,66,03,151,,67,54,153,32,68,65,327,31,69,15,331,34*6A
$GLGSV,2,2,08,77,26,031,24,78,64,331,34,79,35,249,28,87,00,079,*6A
$GNGLL,3030.84875,N,11420.29878,E,061718.00,A,D*77
$GNRMC,061719.00,A,3030.84867,N,11420.29905,E,1.274,139.24,220119,,,D*7D
$GNVTG,139.24,T,,M,1.274,N,2.360,K,D*2C
$GNGGA,061719.00,3030.84867,N,11420.29905,E,2,12,0.65,15.1,M,-10.8,M,,0000*5C
$GNGSA,A,3,14,22,26,31,32,03,10,25,41,29,,,1.24,0.65,1.05*15
$GNGSA,A,3,68,79,78,77,67,,,,,,,,1.24,0.65,1.05*12
$GPGSV,4,1,16,01,00,281,,03,11,320,27,10,26,177,35,12,02,036,*70
$GPGSV,4,2,16,14,69,013,33,16,12,208,26,20,03,164,,22,26,305,31*78
$GPGSV,4,3,16,25,33,043,25,26,40,208,31,29,20,096,18,31,57,314,29*74
$GPGSV,4,4,16,32,68,076,32,40,18,253,,41,41,230,27,50,41,130,*7E
$GLGSV,2,1,08,66,03,151,,67,54,153,31,68,65,327,32,69,15,331,34*6A
$GLGSV,2,2,08,77,26,031,26,78,64,331,34,79,35,249,27,87,00,079,*67
$GNGLL,3030.84867,N,11420.29905,E,061719.00,A,D*7E
$GNRMC,061720.00,A,3030.84854,N,11420.29947,E,1.517,120.66,220119,,,D*7D
$GNVTG,120.66,T,,M,1.517,N,2.810,K,D*2C
$GNGGA,061720.00,3030.84854,N,11420.29947,E,2,12,0.68,15.3,M,-10.8,M,,0000*5F
$GNGSA,A,3,14,22,26,31,32,03,10,25,29,,,,1.25,0.68,1.05*1C
$GNGSA,A,3,68,79,78,77,67,,,,,,,,1.25,0.68,1.05*1E
$GPGSV,4,1,16,01,00,281,,03,11,320,27,10,26,177,31,12,02,036,*74
$GPGSV,4,2,16,14,69,013,31,16,12,208,26,20,03,164,,22,26,305,31*7A
$GPGSV,4,3,16,25,33,043,26,26,40,208,27,29,20,096,18,31,57,314,32*7A
$GPGSV,4,4,16,32,68,076,33,40,18,253,,41,41,230,,50,41,130,*7A
$GLGSV,2,1,08,66,02,151,,67,54,153,32,68,65,327,32,69,15,331,32*6E
$GLGSV,2,2,08,77,26,031,26,78,64,331,33,79,35,249,27,87,00,079,*60
$GNGLL,3030.84854,N,11420.29947,E,061720.00,A,D*72
$GNRMC,061721.00,A,3030.84849,N,11420.29985,E,1.153,112.12,220119,,,D*78
$GNVTG,112.12,T,,M,1.153,N,2.135,K,D*24
$GNGGA,061721.00,3030.84849,N,11420.29985,E,2,12,0.68,15.4,M,-10.8,M,,0000*5B
$GNGSA,A,3,14,22,26,31,32,03,10,25,29,,,,1.25,0.68,1.05*1C
$GNGSA,A,3,68,79,78,77,67,,,,,,,,1.25,0.68,1.05*1E
$GPGSV,4,1,16,01,00,281,,03,11,320,28,10,26,177,30,12,02,036,*7A
$GPGSV,4,2,16,14,69,013,31,16,12,208,26,20,03,164,,22,26,305,33*78
$GPGSV,4,3,16,25,33,043,24,26,40,208,26,29,20,096,17,31,57,314,32*76
$GPGSV,4,4,16,32,68,076,30,40,18,253,,41,41,230,,50,41,130,*79
$GLGSV,2,1,08,66,02,151,,67,53,153,31,68,65,327,30,69,15,331,34*6E
$GLGSV,2,2,08,77,26,031,24,78,64,331,27,79,35,249,27,87,00,079,*67
$GNGLL,3030.84849,N,11420.29985,E,061721.00,A,D*71
$GNRMC,061722.00,A,3030.84838,N,11420.30019,E,1.085,113.78,220119,,,D*7E
$GNVTG,113.78,T,,M,1.085,N,2.009,K,D*2D
$GNGGA,061722.00,3030.84838,N,11420.30019,E,2,12,0.68,15.2,M,-10.8,M,,0000*5C
$GNGSA,A,3,14,22,26,31,32,03,10,25,29,,,,1.25,0.68,1.05*1C
$GNGSA,A,3,68,79,78,77,67,,,,,,,,1.25,0.68,1.05*1E
$GPGSV,4,1,16,01,00,281,,03,11,320,32,10,26,177,29,12,02,036,*79
$GPGSV,4,2,16,14,69,013,27,16,12,208,31,20,03,164,,22,26,305,23*78
$GPGSV,4,3,16,25,33,043,22,26,40,208,34,29,20,096,17,31,57,314,32*73
$GPGSV,4,4,16,32,68,076,33,40,18,253,,41,41,230,,50,41,130,*7A
$GLGSV,2,1,08,66,02,151,,67,53,153,31,68,66,327,29,69,15,331,34*65
$GLGSV,2,2,08,77,26,031,21,78,64,331,24,79,35,249,27,87,00,079,*61
$GNGLL,3030.84838,N,11420.30019,E,061722.00,A,D*70
$GNRMC,061723.00,A,3030.84827,N,11420.30014,E,0.174,,220119,,,D*60
$GNVTG,,T,,M,0.174,N,0.322,K,D*39
$GNGGA,061723.00,3030.84827,N,11420.30014,E,2,12,0.65,15.4,M,-10.8,M,,0000*55
$GNGSA,A,3,14,22,26,31,32,03,10,25,41,29,,,1.24,0.65,1.05*15
$GNGSA,A,3,68,79,78,77,67,,,,,,,,1.24,0.65,1.05*12
$GPGSV,4,1,16,01,00,281,,03,11,320,25,10,26,177,27,12,02,036,*71
$GPGSV,4,2,16,14,69,013,33,16,12,208,19,20,03,164,,22,26,305,31*74
$GPGSV,4,3,16,25,33,043,20,26,40,208,35,29,20,096,20,31,57,314,26*71
$GPGSV,4,4,16,32,68,076,32,40,18,253,,41,41,230,37,50,41,130,*7F
$GLGSV,2,1,08,66,02,151,,67,53,153,36,68,66,327,36,69,15,331,30*68
$GLGSV,2,2,08,77,26,031,19,78,64,331,35,79,35,249,42,87,00,079,*69
$GNGLL,3030.84827,N,11420.30014,E,061723.00,A,D*72
$GNRMC,061724.00,A,3030.84800,N,11420.30005,E,1.346,176.96,220119,,,D*71
$GNVTG,176.96,T,,M,1.346,N,2.493,K,D*25
$GNGGA,061724.00,3030.84800,N,11420.30005,E,2,12,0.69,15.2,M,-10.8,M,,0000*5D
$GNGSA,A,3,14,22,26,31,32,03,10,25,41,29,,,1.29,0.69,1.09*18
$GNGSA,A,3,68,79,78,67,,,,,,,,,1.29,0.69,1.09*1F
$GPGSV,4,1,16,01,00,281,,03,11,320,25,10,26,177,27,12,02,036,*71
$GPGSV,4,2,16,14,69,013,34,16,12,208,22,20,03,164,,22,26,305,34*7E
$GPGSV,4,3,16,25,33,043,19,26,40,208,37,29,20,096,20,31,57,314,32*7C
$GPGSV,4,4,16,32,68,076,28,40,18,253,,41,41,230,37,50,41,130,*74
$GLGSV,2,1,08,66,02,151,,67,53,153,39,68,66,327,38,69,15,331,34*6D
$GLGSV,2,2,08,77,26,031,,78,64,331,37,79,35,249,44,87,00,079,*65
$GNGLL,3030.84800,N,11420.30005,E,061724.00,A,D*70
$GNRMC,061725.00,A,3030.84746,N,11420.29985,E,2.048,185.71,220119,,,D*7F
$GNVTG,185.71,T,,M,2.048,N,3.793,K,D*2C
$GNGGA,061725.00,3030.84746,N,11420.29985,E,2,12,0.69,15.1,M,-10.8,M,,0000*5B
$GNGSA,A,3,14,22,26,31,32,03,10,25,41,29,,,1.29,0.69,1.09*18
$GNGSA,A,3,68,79,78,67,,,,,,,,,1.29,0.69,1.09*1F
$GPGSV,4,1,16,01,00,281,,03,11,320,27,10,26,177,30,12,02,036,*75
$GPGSV,4,2,16,14,69,013,31,16,12,208,23,20,03,164,,22,26,305,32*7C
$GPGSV,4,3,16,25,33,043,19,26,40,208,35,29,20,096,19,31,57,314,31*77
$GPGSV,4,4,16,32,68,076,33,40,18,253,,41,41,230,38,50,41,130,*71
$GLGSV,2,1,08,66,02,151,,67,53,153,39,68,66,327,35,69,15,331,34*60
$GLGSV,2,2,08,77,26,031,,78,64,331,34,79,35,249,42,87,00,079,*60
$GNGLL,3030.84746,N,11420.29985,E,061725.00,A,D*75
$GNRMC,061726.00,A,3030.84693,N,11420.29965,E,1.931,188.44,220119,,,D*74
$GNVTG,188.44,T,,M,1.931,N,3.576,K,D*2A
$GNGGA,061726.00,3030.84693,N,11420.29965,E,2,12,0.69,15.1,M,-10.8,M,,0000*5F
$GNGSA,A,3,14,22,26,31,32,03,10,25,41,29,,,1.29,0.69,1.09*18
$GNGSA,A,3,68,79,78,67,,,,,,,,,1.29,0.69,1.09*1F
$GPGSV,4,1,16,01,00,281,,03,11,320,27,10,26,177,22,12,02,036,*76
$GPGSV,4,2,16,14,69,013,31,16,12,208,23,20,03,164,,22,26,305,32*7C
$GPGSV,4,3,16,25,33,043,20,26,40,208,33,29,20,096,19,31,57,314,25*7E
$GPGSV,4,4,16,32,68,076,28,40,18,253,,41,41,230,33,50,41,130,*70
$GLGSV,2,1,08,66,02,151,,67,53,153,37,68,66,327,32,69,15,331,24*68
$GLGSV,2,2,08,77,26,031,,78,64,331,34,79,35,249,40,87,00,079,*62
$GNGLL,3030.84693,N,11420.29965,E,061726.00,A,D*71
$GNRMC,061727.00,A,3030.84639,N,11420.29956,E,1.920,185.95,220119,,,D*74
$GNVTG,185.95,T,,M,1.920,N,3.557,K,D*28
$GNGGA,061727.00,3030.84639,N,11420.29956,E,2,12,0.69,15.3,M,-10.8,M,,0000*5C
$GNGSA,A,3,14,22,26,31,32,03,10,25,41,29,,,1.29,0.69,1.09*18
$GNGSA,A,3,68,79,78,67,,,,,,,,,1.29,0.69,1.09*1F
$GPGSV,4,1,16,01,00,281,,03,11,320,27,10,26,177,22,12,02,036,*76
$GPGSV,4,2,16,14,69,013,30,16,12,208,23,20,03,164,,22,26,305,32*7D
$GPGSV,4,3,16,25,33,043,19,26,40,208,36,29,20,096,19,31,57,314,26*72
$GPGSV,4,4,16,32,68,076,33,40,18,253,,41,41,230,36,50,41,130,*7F
$GLGSV,2,1,08,66,02,151,,67,53,153,36,68,66,327,33,69,15,331,23*6F
$GLGSV,2,2,08,77,26,031,,78,64,331,32,79,35,249,40,87,00,079,*64
$GNGLL,3030.84639,N,11420.29956,E,061727.00,A,D*70
$GNRMC,061728.00,A,3030.84589,N,11420.29943,E,1.570,185.86,220119,,,D*7C
$GNVTG,185.86,T,,M,1.570,N,2.908,K,D*24
$GNGGA,061728.00,3030.84589,N,11420.29943,E,2,12,0.69,15.5,M,-10.8,M,,0000*59
$GNGSA,A,3,14,22,26,31,32,03,10,25,41,29,,,1.29,0.69,1.09*18
$GNGSA,A,3,68,79,78,67,,,,,,,,,1.29,0.69,1.09*1F
$GPGSV,4,1,16,01,00,281,,03,11,320,27,10,26,177,22,12,02,036,*76
$GPGSV,4,2,16,14,69,013,31,16,12,208,23,20,03,164,,22,26,305,31*7F
$GPGSV,4,3,16,25,33,043,20,26,40,208,36,29,20,096,18,31,57,314,29*76
$GPGSV,4,4,16,32,68,076,33,40,18,253,,41,41,230,36,50,41,130,*7F
$GLGSV,2,1,08,66,02,151,,67,53,153,29,68,66,327,34,69,15,331,23*66
$GLGSV,2,2,08,77,26,031,,78,64,331,33,79,35,249,39,87,00,079,*6B
$GNGLL,3030.84589,N,11420.29943,E,061728.00,A,D*73
$GNRMC,061729.00,A,3030.84562,N,11420.29929,E,0.578,,220119,,,D*61
$GNVTG,,T,,M,0.578,N,1.070,K,D*34
$GNGGA,061729.00,3030.84562,N,11420.29929,E,2,12,0.69,15.7,M,-10.8,M,,0000*53
$GNGSA,A,3,14,22,26,31,32,03,10,25,41,29,,,1.29,0.69,1.09*18
$GNGSA,A,3,68,79,78,67,,,,,,,,,1.29,0.69,1.09*1F
$GPGSV,4,1,16,01,00,281,,03,11,320,29,10,26,177,23,12,02,036,*79
$GPGSV,4,2,16,14,69,013,30,16,12,208,24,20,03,164,,22,26,305,33*7B
$GPGSV,4,3,16,25,33,043,19,26,40,208,32,29,20,096,18,31,57,314,29*78
$GPGSV,4,4,16,32,68,076,36,40,18,253,,41,41,230,37,50,41,130,*7B
$GLGSV,2,1,08,66,02,151,,67,53,153,36,68,66,327,35,69,15,331,31*6A
$GLGSV,2,2,08,77,26,031,,78,64,331,36,79,35,249,43,87,00,079,*63
$GNGLL,3030.84562,N,11420.29929,E,061729.00,A,D*7B
$GNRMC,061730.00,A,3030.84564,N,11420.29922,E,0.400,,220119,,,D*6A
$GNVTG,,T,,M,0.400,N,0.740,K,D*3F
$GNGGA,061730.00,3030.84564,N,11420.29922,E,2,12,0.69,15.4,M,-10.8,M,,0000*55
$GNGSA,A,3,14,22,26,31,32,03,10,25,41,29,,,1.29,0.69,1.09*18
$GNGSA,A,3,68,79,78,67,,,,,,,,,1.29,0.69,1.09*1F
$GPGSV,4,1,16,01,00,281,,03,11,320,29,10,26,177,25,12,02,036,*7F
$GPGSV,4,2,16,14,69,013,31,16,12,208,24,20,03,164,,22,26,305,35*7C
$GPGSV,4,3,16,25,33,043,18,26,40,208,35,29,20,096,16,31,57,314,36*7E
$GPGSV,4,4,16,32,68,076,28,40,18,253,,41,41,230,33,50,41,130,*70
$GLGSV,2,1,08,66,02,151,,67,53,153,27,68,66,327,24,69,15,331,32*69
$GLGSV,2,2,08,77,26,031,19,78,64,331,28,79,35,249,41,87,00,079,*66
$GNGLL,3030.84564,N,11420.29922,E,061730.00,A,D*7E
$GNRMC,061731.00,A,3030.84564,N,11420.29886,E,1.367,230.19,220119,,,D*74
$GNVTG,230.19,T,,M,1.367,N,2.531,K,D*29
$GNGGA,061731.00,3030.84564,N,11420.29886,E,2,12,0.69,15.6,M,-10.8,M,,0000*59
$GNGSA,A,3,14,22,26,31,32,03,10,25,41,29,,,1.29,0.69,1.09*18
$GNGSA,A,3,68,79,78,67,,,,,,,,,1.29,0.69,1.09*1F
$GPGSV,4,1,16,01,00,281,,03,11,320,29,10,26,177,26,12,02,036,*7C
$GPGSV,4,2,16,14,69,013,31,16,12,208,23,20,03,164,,22,26,305,35*7B
$GPGSV,4,3,16,25,33,043,19,26,40,208,35,29,20,096,12,31,57,314,36*7B
$GPGSV,4,4,16,32,68,076,23,40,18,253,,41,41,230,33,50,41,130,*7B
$GLGSV,2,1,08,66,02,151,,67,53,153,27,68,66,327,25,69,15,331,36*6C
$GLGSV,2,2,08,77,26,031,18,78,64,331,28,79,35,249,41,87,00,079,*67
$GNGLL,3030.84564,N,11420.29886,E,061731.00,A,D*70
$GNRMC,061732.00,A,3030.84569,N,11420.29846,E,1.333,256.17,220119,,,D*79
$GNVTG,256.17,T,,M,1.333,N,2.468,K,D*2B
$GNGGA,061732.00,3030.84569,N,11420.29846,E,2,12,0.77,15.6,M,-10.8,M,,0000*54
$GNGSA,A,3,14,22,26,31,32,03,10,25,41,,,,1.45,0.77,1.23*1E
$GNGSA,A,3,68,79,78,77,67,,,,,,,,1.45,0.77,1.23*12
$GPGSV,4,1,16,01,00,281,,03,11,320,30,10,26,177,27,12,02,036,*75
$GPGSV,4,2,16,14,69,013,31,16,12,208,25,20,03,164,,22,26,305,35*7D
$GPGSV,4,3,16,25,33,043,20,26,40,208,35,29,20,096,09,31,57,314,36*7B
$GPGSV,4,4,16,32,68,076,30,40,18,253,,41,41,230,33,50,41,130,*79
$GLGSV,2,1,08,66,02,151,,67,53,153,27,68,66,327,25,69,15,331,39*63
$GLGSV,2,2,08,77,26,031,22,78,63,332,28,79,35,249,41,87,00,079,*6A
$GNGLL,3030.84569,N,11420.29846,E,061732.00,A,D*72
$GNRMC,061733.00,A,3030.84580,N,11420.29803,E,1.422,277.00,220119,,,D*7C
$GNVTG,277.00,T,,M,1.422,N,2.634,K,D*22
$GNGGA,061733.00,3030.84580,N,11420.29803,E,2,12,0.76,15.8,M,-10.8,M,,0000*5C
$GNGSA,A,3,14,22,26,31,32,03,10,25,41,,,,1.42,0.76,1.20*1B
$GNGSA,A,3,68,79,78,77,67,,,,,,,,1.42,0.76,1.20*17
$GPGSV,4,1,16,01,00,281,,03,11,320,30,10,26,177,33,12,02,036,*70
$GPGSV,4,2,16,14,69,013,32,16,12,208,25,20,03,164,,22,26,305,35*7E
$GPGSV,4,3,16,25,33,043,29,26,40,208,35,29,20,096,09,31,57,314,35*71
$GPGSV,4,4,16,32,68,076,30,40,18,253,,41,41,230,33,50,41,130,*79
$GLGSV,2,1,08,66,02,151,,67,53,153,32,68,66,327,26,69,15,331,36*6B
$GLGSV,2,2,08,77,26,031,25,78,63,332,29,79,35,250,41,87,00,079,*64
$GNGLL,3030.84580,N,11420.29803,E,061733.00,A,D*75
$GNRMC,061734.00,A,3030.84578,N,11420.29775,E,0.702,269.21,220119,,,D*7E
$GNVTG,269.21,T,,M,0.702,N,1.300,K,D*2F
$GNGGA,061734.00,3030.84578,N,11420.29775,E,2,12,0.76,16.0,M,-10.8,M,,0000*59
$GNGSA,A,3,14,22,26,31,32,03,10,25,41,,,,1.42,0.76,1.20*1B
$GNGSA,A,3,68,79,78,77,67,,,,,,,,1.42,0.76,1.20*17
$GPGSV,4,1,16,01,00,281,,03,11,320,30,10,26,177,32,12,02,036,*71
$GPGSV,4,2,16,14,69,013,31,16,12,208,24,20,03,164,,22,26,305,35*7C
$GPGSV,4,3,16,25,33,043,16,26,40,208,37,29,20,096,08,31,57,314,35*7E
$GPGSV,4,4,16,32,68,076,35,40,18,253,,41,41,230,33,50,41,130,*7C
$GLGSV,2,1,08,66,02,151,,67,53,153,36,68,66,327,31,69,15,331,33*6C
$GLGSV,2,2,08,77,26,031,26,78,63,332,33,79,35,250,38,87,00,079,*62
$GNGLL,3030.84578,N,11420.29775,E,061734.00,A,D*7B
$GNRMC,061735.00,A,3030.84565,N,11420.29761,E,0.565,,220119,,,D*65
$GNVTG,,T,,M,0.565,N,1.047,K,D*3C
$GNGGA,061735.00,3030.84565,N,11420.29761,E,2,12,0.71,16.2,M,-10.8,M,,0000*54
$GNGSA,A,3,14,22,26,31,32,03,10,25,41,,,,1.34,0.71,1.14*1A
$GNGSA,A,3,68,79,78,77,67,,,,,,,,1.34,0.71,1.14*16
$GPGSV,4,1,16,01,00,281,,03,11,320,29,10,26,177,32,12,02,036,*79
$GPGSV,4,2,16,14,69,013,31,16,12,208,30,20,03,164,,22,26,305,31*7D
$GPGSV,4,3,16,25,33,043,20,26,40,208,38,29,20,096,,31,57,314,12*79
$GPGSV,4,4,16,32,68,076,37,40,18,253,,41,41,230,39,50,41,130,*74
$GLGSV,2,1,08,66,02,151,,67,53,153,39,68,66,327,34,69,15,331,30*65
$GLGSV,2,2,08,77,26,031,24,78,63,332,32,79,35,250,42,87,00,079,*6C
$GNGLL,3030.84565,N,11420.29761,E,061735.00,A,D*73
$GNRMC,061736.00,A,3030.84535,N,11420.29755,E,1.438,212.75,220119,,,D*71
$GNVTG,212.75,T,,M,1.438,N,2.664,K,D*2D
$GNGGA,061736.00,3030.84535,N,11420.29755,E,2,12,0.71,16.0,M,-10.8,M,,0000*57
$GNGSA,A,3,14,22,26,31,32,03,10,25,41,,,,1.34,0.71,1.14*1A
$GNGSA,A,3,68,79,78,77,67,,,,,,,,1.34,0.71,1.14*16
$GPGSV,4,1,16,01,00,281,,03,11,320,28,10,26,177,33,12,02,036,*79
$GPGSV,4,2,16,14,69,013,31,16,12,208,29,20,03,164,,22,26,305,32*76
$GPGSV,4,3,16,25,33,043,23,26,40,208,38,29,20,096,17,31,57,314,21*7C
$GPGSV,4,4,16,32,68,076,33,40,18,253,,41,41,230,39,50,41,130,*70
$GLGSV,2,1,08,66,02,151,,67,53,153,40,68,66,327,35,69,15,331,30*6A
$GLGSV,2,2,08,77,26,031,23,78,63,332,32,79,35,250,42,87,00,079,*6B
$GNGLL,3030.84535,N,11420.29755,E,061736.00,A,D*72
$GNRMC,061737.00,A,3030.84491,N,11420.29737,E,1.829,202.63,220119,,,D*71
$GNVTG,202.63,T,,M,1.829,N,3.388,K,D*21
$GNGGA,061737.00,3030.84491,N,11420.29737,E,2,12,0.71,16.0,M,-10.8,M,,0000*5D
$GNGSA,A,3,14,22,26,31,32,03,10,25,41,,,,1.34,0.71,1.14*1A
$GNGSA,A,3,68,79,78,77,67,,,,,,,,1.34,0.71,1.14*16
$GPGSV,4,1,16,01,00,281,,03,11,320,28,10,26,177,30,12,02,036,*7A
$GPGSV,4,2,16,14,69,013,31,16,12,208,20,20,03,164,,22,26,305,28*74
$GPGSV,4,3,16,25,33,043,23,26,40,208,36,29,20,096,17,31,57,314,21*72
$GPGSV,4,4,16,32,68,076,35,40,18,253,,41,41,230,37,50,41,130,*78
$GLGSV,2,1,08,66,02,151,,67,53,153,39,68,66,327,35,69,15,331,27*62
$GLGSV,2,2,08,77,26,031,21,78,63,332,31,79,35,250,39,87,00,079,*66
$GNGLL,3030.84491,N,11420.29737,E,061737.00,A,D*78
$GNRMC,061738.00,A,3030.84440,N,11420.29726,E,1.949,195.26,220119,,,D*79
$GNVTG,195.26,T,,M,1.949,N,3.609,K,D*26
$GNGGA,061738.00,3030.84440,N,11420.29726,E,2,12,0.71,15.8,M,-10.8,M,,0000*55
$GNGSA,A,3,14,22,26,31,32,03,10,25,41,,,,1.34,0.71,1.14*1A
$GNGSA,A,3,68,79,78,77,67,,,,,,,,1.34,0.71,1.14*16
$GPGSV,4,1,16,01,00,281,,03,11,320,27,10,26,177,30,12,02,036,*75
$GPGSV,4,2,16,14,69,013,30,16,12,208,20,20,03,164,,22,26,305,30*7C
$GPGSV,4,3,16,25,33,043,24,26,40,208,36,29,20,096,16,31,57,314,22*77
$GPGSV,4,4,16,32,68,076,35,40,18,253,,41,41,230,37,50,41,130,*78
$GLGSV,2,1,08,66,02,151,,67,53,153,38,68,66,327,35,69,15,331,27*63
$GLGSV,2,2,08,77,26,031,22,78,63,332,32,79,35,250,40,87,00,079,*68
$GNGLL,3030.84440,N,11420.29726,E,061738.00,A,D*7B
$GNRMC,061739.00,A,3030.84395,N,11420.29706,E,1.684,191.73,220119,,,D*7F
$GNVTG,191.73,T,,M,1.684,N,3.119,K,D*2A
$GNGGA,061739.00,3030.84395,N,11420.29706,E,2,12,0.71,15.9,M,-10.8,M,,0000*58
$GNGSA,A,3,14,22,26,31,32,03,10,25,41,,,,1.34,0.71,1.14*1A
$GNGSA,A,3,68,79,78,77,67,,,,,,,,1.34,0.71,1.14*16
$GPGSV,4,1,16,01,00,281,,03,11,320,25,10,26,177,31,12,02,036,*76
$GPGSV,4,2,16,14,69,013,29,16,12,208,21,20,03,164,,22,26,305,31*74
$GPGSV,4,3,16,25,33,043,25,26,40,208,36,29,20,096,14,31,57,314,22*74
$GPGSV,4,4,16,32,68,076,35,40,18,253,,41,41,230,37,50,41,130,*78
$GLGSV,2,1,08,66,02,151,,67,53,153,39,68,66,327,34,69,15,331,28*6C
$GLGSV,2,2,08,77,26,031,22,78,63,332,33,79,35,250,41,87,00,079,*68
$GNGLL,3030.84395,N,11420.29706,E,061739.00,A,D*77
$GNRMC,061740.00,A,3030.84352,N,11420.29702,E,1.429,187.75,220119,,,D*7A
$GNVTG,187.75,T,,M,1.429,N,2.646,K,D*22
$GNGGA,061740.00,3030.84352,N,11420.29702,E,2,12,0.71,15.9,M,-10.8,M,,0000*59
$GNGSA,A,3,14,22,26,31,32,03,10,25,41,,,,1.34,0.71,1.14*1A
$GNGSA,A,3,68,79,78,77,67,,,,,,,,1.34,0.71,1.14*16
$GPGSV,4,1,16,01,00,281,,03,11,320,24,10,26,177,27,12,02,036,*70
$GPGSV,4,2,16,14,69,013,28,16,12,208,19,20,03,164,,22,26,305,31*7E
$GPGSV,4,3,16,25,33,043,24,26,40,208,36,29,20,096,12,31,57,314,24*75
$GPGSV,4,4,16,32,68,076,36,40,18,253,,41,41,230,37,50,41,130,*7B
$GLGSV,2,1,08,66,02,151,,67,53,153,37,68,66,327,33,69,15,331,29*64
$GLGSV,2,2,08,77,26,031,22,78,63,332,26,79,35,250,40,87,00,079,*6D
$GNGLL,3030.84352,N,11420.29702,E,061740.00,A,D*76
$GNRMC,061741.00,A,3030.84329,N,11420.29702,E,0.491,,220119,,,D*67
$GNVTG,,T,,M,0.491,N,0.909,K,D*34
$GNGGA,061741.00,3030.84329,N,11420.29702,E,2,12,0.71,15.9,M,-10.8,M,,0000*54
$GNGSA,A,3,14,22,26,31,32,03,10,25,41,,,,1.34,0.71,1.14*1A
$GNGSA,A,3,68,79,78,77,67,,,,,,,,1.34,0.71,1.14*16
$GPGSV,4,1,16,01,00,281,,03,11,320,22,10,26,177,31,12,02,036,*71
$GPGSV,4,2,16,14,69,013,29,16,12,208,20,20,03,164,,22,26,305,24*71
$GPGSV,4,3,16,25,33,043,25,26,40,208,37,29,20,096,10,31,57,314,27*74
$GPGSV,4,4,16,32,68,076,35,40,18,253,,41,41,230,37,50,41,130,*78
$GLGSV,2,1,08,66,02,151,,67,53,153,36,68,66,327,27,69,15,331,28*61
$GLGSV,2,2,08,77,26,031,21,78,63,332,27,79,35,250,36,87,00,078,*6F
$GNGLL,3030.84329,N,11420.29702,E,061741.00,A,D*7B
$GNRMC,061742.00,A,3030.84326,N,11420.29715,E,0.458,,220119,,,D*68
$GNVTG,,T,,M,0.458,N,0.848,K,D*35
$GNGGA,061742.00,3030.84326,N,11420.29715,E,2,12,0.65,15.9,M,-10.8,M,,0000*5B
$GNGSA,A,3,14,22,26,31,32,03,10,25,41,29,,,1.24,0.65,1.05*15
$GNGSA,A,3,68,79,78,77,67,,,,,,,,1.24,0.65,1.05*12
$GPGSV,4,1,16,01,00,281,,03,11,320,29,10,26,177,37,12,02,036,*7C
$GPGSV,4,2,16,14,69,013,29,16,12,208,31,20,03,164,,22,26,305,31*75
$GPGSV,4,3,16,25,33,043,26,26,40,208,36,29,20,096,11,31,57,314,27*77
$GPGSV,4,4,16,32,68,076,35,40,18,253,,41,41,230,27,50,41,130,*79
$GLGSV,2,1,08,66,02,151,,67,53,153,29,68,66,327,29,69,15,331,35*6D
$GLGSV,2,2,08,77,26,031,25,78,63,332,33,79,35,250,30,87,00,078,*68
$GNGLL,3030.84326,N,11420.29715,E,061742.00,A,D*71
$GNRMC,061743.00,A,3030.84322,N,11420.29760,E,1.654,132.55,220119,,,D*7E
$GNVTG,132.55,T,,M,1.654,N,3.063,K,D*26
$GNGGA,061743.00,3030.84322,N,11420.29760,E,2,12,0.65,15.8,M,-10.8,M,,0000*5D
$GNGSA,A,3,14,22,26,31,32,03,10,25,41,29,,,1.24,0.65,1.05*15
$GNGSA,A,3,68,79,78,77,67,,,,,,,,1.24,0.65,1.05*12
$GPGSV,4,1,15,03,11,320,29,10,26,177,35,12,02,036,,14,69,013,32*7E
$GPGSV,4,2,15,16,12,208,31,20,03,164,,22,26,305,31,25,33,043,25*72
$GPGSV,4,3,15,26,40,208,34,29,20,096,11,31,57,314,31,32,68,076,33*7B
$GPGSV,4,4,15,40,18,253,,41,41,230,27,50,41,130,*42
$GLGSV,2,1,08,66,02,151,,67,53,153,36,68,66,327,29,69,15,331,34*62
$GLGSV,2,2,08,77,26,031,26,78,63,332,27,79,35,250,30,87,00,078,*6E
$GNGLL,3030.84322,N,11420.29760,E,061743.00,A,D*76
$GNRMC,061744.00,A,3030.84316,N,11420.29807,E,1.269,122.04,220119,,,D*7F
$GNVTG,122.04,T,,M,1.269,N,2.350,K,D*2B
$GNGGA,061744.00,3030.84316,N,11420.29807,E,2,12,0.68,15.7,M,-10.8,M,,0000*51
$GNGSA,A,3,14,22,26,31,32,03,10,25,29,,,,1.25,0.68,1.05*1C
$GNGSA,A,3,68,79,78,77,67,,,,,,,,1.25,0.68,1.05*1E
$GPGSV,4,1,15,03,11,320,29,10,26,177,32,12,02,036,,14,69,013,29*73
$GPGSV,4,2,15,16,12,208,30,20,03,164,,22,26,305,30,25,33,043,23*74
$GPGSV,4,3,15,26,40,208,34,29,20,096,11,31,57,314,32,32,68,076,36*7D
$GPGSV,4,4,15,40,18,253,,41,41,230,27,50,41,130,*42
$GLGSV,2,1,08,66,02,151,,67,53,153,30,68,66,327,29,69,15,331,31*61
$GLGSV,2,2,08,77,26,031,24,78,63,332,28,79,35,250,29,87,00,078,*6B
$GNGLL,3030.84316,N,11420.29807,E,061744.00,A,D*78
$GNRMC,061745.00,A,3030.84302,N,11420.29832,E,0.915,122.81,220119,,,D*71
$GNVTG,122.81,T,,M,0.915,N,1.695,K,D*28
$GNGGA,061745.00,3030.84302,N,11420.29832,E,2,12,0.65,15.9,M,-10.8,M,,0000*50
$GNGSA,A,3,14,22,26,31,32,03,10,25,41,29,,,1.24,0.65,1.05*15
$GNGSA,A,3,68,79,78,77,67,,,,,,,,1.24,0.65,1.05*12
$GPGSV,4,1,15,03,11,320,29,10,26,177,31,12,02,036,,14,69,013,28*71
$GPGSV,4,2,15,16,12,208,29,20,03,164,,22,26,305,23,25,33,043,24*79
$GPGSV,4,3,15,26,40,208,37,29,20,096,11,31,57,314,32,32,68,076,35*7D
$GPGSV,4,4,15,40,18,253,,41,41,230,32,50,41,130,*46
$GLGSV,2,1,08,66,02,151,,67,53,153,36,68,66,327,29,69,15,331,30*66
$GLGSV,2,2,08,77,26,031,22,78,63,332,29,79,35,250,30,87,00,078,*64
$GNGLL,3030.84302,N,11420.29832,E,061745.00,A,D*7A
$GNRMC,061746.00,A,3030.84294,N,11420.29835,E,0.351,,220119,,,D*67
$GNVTG,,T,,M,0.351,N,0.650,K,D*3C
$GNGGA,061746.00,3030.84294,N,11420.29835,E,2,12,0.65,15.5,M,-10.8,M,,0000*56
$GNGSA,A,3,14,22,26,31,32,03,10,25,41,29,,,1.24,0.65,1.05*15
$GNGSA,A,3,68,79,78,77,67,,,,,,,,1.24,0.65,1.05*12
$GPGSV,4,1,15,03,11,320,28,10,26,177,28,12,02,036,,14,69,013,36*77
$GPGSV,4,2,15,16,12,208,23,20,03,164,,22,26,305,34,25,33,043,25*74
$GPGSV,4,3,15,26,40,208,37,29,20,096,13,31,57,314,33,32,68,076,32*79
$GPGSV,4,4,15,40,18,253,,41,41,230,39,50,41,130,*4D
$GLGSV,2,1,08,66,02,151,,67,53,153,36,68,66,327,36,69,15,331,26*6F
$GLGSV,2,2,08,77,26,031,20,78,63,332,36,79,35,250,42,87,00,078,*6D
$GNGLL,3030.84294,N,11420.29835,E,061746.00,A,D*70
$GNRMC,061747.00,A,3030.84278,N,11420.29839,E,1.130,153.20,220119,,,D*77
$GNVTG,153.20,T,,M,1.130,N,2.093,K,D*28
$GNGGA,061747.00,3030.84278,N,11420.29839,E,2,12,0.65,15.0,M,-10.8,M,,0000*5C
$GNGSA,A,3,14,22,26,31,32,03,10,25,41,29,,,1.24,0.65,1.05*15
$GNGSA,A,3,68,79,78,77,67,,,,,,,,1.24,0.65,1.05*12
$GPGSV,4,1,15,03,11,320,26,10,26,177,27,12,02,036,,14,69,013,32*72
$GPGSV,4,2,15,16,12,208,30,20,03,164,,22,26,305,34,25,33,043,24*77
$GPGSV,4,3,15,26,40,208,38,29,20,096,13,31,57,314,26,32,68,076,35*75
$GPGSV,4,4,15,40,18,253,,41,41,230,40,50,41,130,*43
$GLGSV,2,1,08,66,02,151,,67,53,153,38,68,66,327,36,69,15,331,32*64
$GLGSV,2,2,08,77,26,031,19,78,63,332,33,79,35,250,40,87,00,078,*60
$GNGLL,3030.84278,N,11420.29839,E,061747.00,A,D*7F
$GNRMC,061748.00,A,3030.84239,N,11420.29836,E,1.483,166.56,220119,,,D*78
$GNVTG,166.56,T,,M,1.483,N,2.747,K,D*2C
$GNGGA,061748.00,3030.84239,N,11420.29836,E,2,12,0.65,14.9,M,-10.8,M,,0000*51
$GNGSA,A,3,14,22,26,31,32,03,10,25,41,29,,,1.24,0.65,1.05*15
$GNGSA,A,3,68,79,78,77,67,,,,,,,,1.24,0.65,1.05*12
$GPGSV,4,1,15,03,11,320,32,10,26,177,31,12,02,036,,14,69,013,32*70
$GPGSV,4,2,15,16,12,208,22,20,03,164,,22,26,305,35,25,33,043,21*70
$GPGSV,4,3,15,26,40,208,43,29,20,096,12,31,57,314,35,32,68,076,26*78
$GPGSV,4,4,15,40,18,253,,41,41,230,41,50,41,130,*42
$GLGSV,2,1,08,66,02,151,,67,53,153,33,68,66,327,33,69,15,331,27*6E
$GLGSV,2,2,08,77,26,031,18,78,63,332,33,79,35,250,39,87,00,078,*6F
$GNGLL,3030.84239,N,11420.29836,E,061748.00,A,D*7A
$GNRMC,061749.00,A,3030.84189,N,11420.29823,E,1.752,176.37,220119,,,D*7C
$GNVTG,176.37,T,,M,1.752,N,3.246,K,D*20
$GNGGA,061749.00,3030.84189,N,11420.29823,E,2,12,0.69,14.9,M,-10.8,M,,0000*50
$GNGSA,A,3,14,22,26,31,32,03,10,41,29,,,,1.26,0.69,1.06*1F
$GNGSA,A,3,68,79,78,77,67,,,,,,,,1.26,0.69,1.06*1F
$GPGSV,4,1,15,03,11,320,27,10,26,177,25,12,02,036,,14,69,013,32*71
$GPGSV,4,2,15,16,12,208,22,20,03,164,,22,26,305,33,25,33,043,23*74
$GPGSV,4,3,15,26,40,208,34,29,20,096,13,31,57,314,32,32,68,076,31*78
$GPGSV,4,4,15,40,18,253,,41,41,230,38,50,41,130,*4C
$GLGSV,2,1,08,66,02,151,,67,53,153,29,68,66,327,34,69,15,331,31*65
$GLGSV,2,2,08,77,26,031,17,78,63,332,30,79,35,250,39,87,00,078,*63
$GNGLL,3030.84189,N,11420.29823,E,061749.00,A,D*77
$GNRMC,061750.00,A,3030.84140,N,11420.29810,E,1.811,185.40,220119,,,D*75
$GNVTG,185.40,T,,M,1.811,N,3.354,K,D*26
$GNGGA,061750.00,3030.84140,N,11420.29810,E,2,12,0.69,14.9,M,-10.8,M,,0000*5D
$GNGSA,A,3,14,22,26,31,32,03,10,41,29,,,,1.26,0.69,1.06*1F
$GNGSA,A,3,68,79,78,77,67,,,,,,,,1.26,0.69,1.06*1F
$GPGSV,4,1,15,03,11,320,26,10,26,177,25,12,02,036,,14,69,013,30*72
$GPGSV,4,2,15,16,12,208,22,20,03,164,,22,26,305,29,25,33,043,20*7C
$GPGSV,4,3,15,26,40,208,30,29,20,096,11,31,57,314,26,32,68,076,31*7B
$GPGSV,4,4,15,40,18,253,,41,41,230,34,50,41,130,*40
$GLGSV,2,1,08,66,02,151,,67,53,153,29,68,66,327,32,69,15,331,24*67
$GLGSV,2,2,08,77,26,031,15,78,63,332,31,79,35,250,37,87,00,078,*6E
$GNGLL,3030.84140,N,11420.29810,E,061750.00,A,D*7A
$GNRMC,061751.00,A,3030.84096,N,11420.29807,E,1.505,185.02,220119,,,D*76
$GNVTG,185.02,T,,M,1.505,N,2.787,K,D*23
$GNGGA,061751.00,3030.84096,N,11420.29807,E,2,12,0.69,14.6,M,-10.8,M,,0000*5F
$GNGSA,A,3,14,22,26,31,32,03,10,41,29,,,,1.26,0.69,1.06*1F
$GNGSA,A,3,68,79,78,77,67,,,,,,,,1.26,0.69,1.06*1F
$GPGSV,4,1,15,03,11,320,25,10,26,177,22,12,02,036,,14,69,013,29*7E
$GPGSV,4,2,15,16,12,208,20,20,03,164,,22,26,305,29,25,33,043,18*75
$GPGSV,4,3,15,26,40,208,34,29,20,096,10,31,57,314,26,32,68,076,28*76
$GPGSV,4,4,15,40,18,253,,41,41,230,35,50,41,130,*41
$GLGSV,2,1,08,66,02,151,,67,53,153,29,68,66,327,35,69,15,331,26*62
$GLGSV,2,2,08,77,26,031,15,78,63,332,31,79,35,250,39,87,00,078,*60
$GNGLL,3030.84096,N,11420.29807,E,061751.00,A,D*77
$GNRMC,061752.00,A,3030.84068,N,11420.29812,E,0.693,,220119,,,D*6D
$GNVTG,,T,,M,0.693,N,1.284,K,D*3B
$GNGGA,061752.00,3030.84068,N,11420.29812,E,2,12,0.65,14.5,M,-10.8,M,,0000*56
$GNGSA,A,3,14,22,26,31,32,03,10,25,41,29,,,1.24,0.65,1.05*15
$GNGSA,A,3,68,79,78,77,67,,,,,,,,1.24,0.65,1.05*12
$GPGSV,4,1,15,03,11,320,26,10,26,177,26,12,02,036,,14,69,013,29*79
$GPGSV,4,2,15,16,12,208,30,20,03,164,,22,26,305,33,25,33,043,18*7F
$GPGSV,4,3,15,26,40,208,35,29,20,096,13,31,57,314,31,32,68,076,31*7A
$GPGSV,4,4,15,40,18,253,,41,41,230,35,50,41,130,*41
$GLGSV,2,1,08,66,02,151,,67,53,153,30,68,66,327,34,69,15,331,32*6E
$GLGSV,2,2,08,77,26,031,13,78,63,332,33,79,35,250,40,87,00,078,*6A
$GNGLL,3030.84068,N,11420.29812,E,061752.00,A,D*71
$GNRMC,061753.00,A,3030.84067,N,11420.29804,E,0.533,,220119,,,D*6D
$GNVTG,,T,,M,0.533,N,0.986,K,D*3A
$GNGGA,061753.00,3030.84067,N,11420.29804,E,2,12,0.71,14.4,M,-10.8,M,,0000*5B
$GNGSA,A,3,14,22,26,31,32,03,10,25,41,,,,1.34,0.71,1.14*1A
$GNGSA,A,3,68,79,78,77,67,,,,,,,,1.34,0.71,1.14*16
$GPGSV,4,1,15,03,11,320,32,10,26,177,27,12,02,036,,14,69,013,31*74
$GPGSV,4,2,15,16,12,208,26,20,03,164,,22,26,305,35,25,33,043,17*71
$GPGSV,4,3,15,26,40,208,34,29,20,096,,31,57,314,36,32,68,076,33*7C
$GPGSV,4,4,15,40,18,253,,41,41,230,32,50,41,130,*46
$GLGSV,2,1,08,66,02,151,,67,53,153,29,68,66,327,29,69,15,331,35*6D
$GLGSV,2,2,08,77,26,031,12,78,63,332,27,79,35,250,39,87,00,078,*60
$GNGLL,3030.84067,N,11420.29804,E,061753.00,A,D*78
$GNRMC,061754.00,A,3030.84076,N,11420.29781,E,1.030,227.47,220119,,,D*75
$GNVTG,227.47,T,,M,1.030,N,1.907,K,D*2F
$GNGGA,061754.00,3030.84076,N,11420.29781,E,2,12,0.71,14.3,M,-10.8,M,,0000*59
$GNGSA,A,3,14,22,26,31,32,03,10,25,41,,,,1.34,0.71,1.14*1A
$GNGSA,A,3,68,79,78,77,67,,,,,,,,1.34,0.71,1.14*16
$GPGSV,4,1,15,03,11,320,25,10,26,177,27,12,02,036,,14,69,013,30*73
$GPGSV,4,2,15,16,12,208,27,20,03,164,,22,26,305,34,25,33,043,16*70
$GPGSV,4,3,15,26,40,208,36,29,20,096,,31,57,314,36,32,68,076,30*7D
$GPGSV,4,4,15,40,18,253,,41,41,230,32,50,41,130,*46
$GLGSV,2,1,08,66,02,151,,67,53,153,28,68,66,327,28,69,15,331,31*69
$GLGSV,2,2,08,77,26,031,11,78,63,332,27,79,35,250,40,87,00,078,*6D
$GNGLL,3030.84076,N,11420.29781,E,061754.00,A,D*7D
$GNRMC,061755.00,A,3030.84083,N,11420.29735,E,1.580,266.66,220119,,,D*79
$GNVTG,266.66,T,,M,1.580,N,2.926,K,D*27
$GNGGA,061755.00,3030.84083,N,11420.29735,E,2,12,0.71,14.5,M,-10.8,M,,0000*5B
$GNGSA,A,3,14,22,26,31,32,03,10,25,41,,,,1.34,0.71,1.14*1A
$GNGSA,A,3,68,79,78,77,67,,,,,,,,1.34,0.71,1.14*16
$GPGSV,4,1,15,03,11,320,27,10,26,177,33,12,02,036,,14,69,014,30*73
$GPGSV,4,2,15,16,12,208,27,20,03,164,,22,26,305,34,25,33,043,18*7E
$GPGSV,4,3,15,26,40,208,34,29,20,096,,31,57,314,36,32,68,076,30*7F
$GPGSV,4,4,15,40,18,253,,41,41,230,35,50,41,130,*41
$GLGSV,2,1,08,66,02,151,,67,53,153,27,68,66,327,27,69,15,331,38*60
$GLGSV,2,2,08,77,26,031,16,78,63,332,28,79,35,250,39,87,00,078,*6B
$GNGLL,3030.84083,N,11420.29735,E,061755.00,A,D*79
$GNRMC,061756.00,A,3030.84087,N,11420.29694,E,1.142,270.18,220119,,,D*70
$GNVTG,270.18,T,,M,1.142,N,2.114,K,D*2A
$GNGGA,061756.00,3030.84087,N,11420.29694,E,2,12,0.71,14.6,M,-10.8,M,,0000*55
$GNGSA,A,3,14,22,26,31,32,03,10,25,41,,,,1.34,0.71,1.14*1A
$GNGSA,A,3,68,79,78,77,67,,,,,,,,1.34,0.71,1.14*16
$GPGSV,4,1,15,03,11,320,32,10,26,177,29,12,02,036,,14,69,014,32*7E
$GPGSV,4,2,15,16,12,208,28,20,03,164,,22,26,305,34,25,33,043,20*7A
$GPGSV,4,3,15,26,40,208,31,29,20,096,,31,57,314,32,32,68,076,22*7D
$GPGSV,4,4,15,40,18,253,,41,41,230,33,50,41,130,*47
$GLGSV,2,1,08,66,02,151,,67,53,153,32,68,66,327,28,69,15,331,34*67
$GLGSV,2,2,08,77,26,031,19,78,63,332,28,79,35,250,38,87,00,078,*65
$GNGLL,3030.84087,N,11420.29694,E,061756.00,A,D*74
$GNRMC,061757.00,A,3030.84089,N,11420.29689,E,0.153,,220119,,,D*60
$GNVTG,,T,,M,0.153,N,0.284,K,D*31
$GNGGA,061757.00,3030.84089,N,11420.29689,E,2,12,0.71,14.5,M,-10.8,M,,0000*55
$GNGSA,A,3,14,22,26,31,32,03,10,25,41,,,,1.34,0.71,1.14*1A
$GNGSA,A,3,68,79,78,77,67,,,,,,,,1.34,0.71,1.14*16
$GPGSV,4,1,15,03,11,320,27,10,26,177,30,12,02,036,,14,69,014,26*77
$GPGSV,4,2,15,16,12,208,15,20,03,164,,22,26,305,33,25,33,043,20*73
$GPGSV,4,3,15,26,40,208,34,29,20,096,,31,57,314,27,32,68,076,33*7C
$GPGSV,4,4,15,40,18,253,,41,41,230,33,50,41,130,*47
$GLGSV,2,1,08,66,02,151,,67,53,153,34,68,66,327,32,69,15,331,34*6A
$GLGSV,2,2,08,77,26,031,20,78,63,332,34,79,35,250,40,87,00,078,*6D
$GNGLL,3030.84089,N,11420.29689,E,061757.00,A,D*77
$GNRMC,061758.00,A,3030.84072,N,11420.29684,E,0.823,239.85,220119,,,D*73
$GNVTG,239.85,T,,M,0.823,N,1.524,K,D*28
$GNGGA,061758.00,3030.84072,N,11420.29684,E,2,12,0.71,14.7,M,-10.8,M,,0000*51
$GNGSA,A,3,14,22,26,31,32,03,10,25,41,,,,1.34,0.71,1.14*1A
$GNGSA,A,3,68,79,78,77,67,,,,,,,,1.34,0.71,1.14*16
$GPGSV,4,1,15,03,11,320,27,10,26,177,33,12,02,036,,14,69,014,27*75
$GPGSV,4,2,15,16,12,208,24,20,03,164,,22,26,305,33,25,33,043,21*70
$GPGSV,4,3,15,26,40,208,34,29,20,096,15,31,57,314,24,32,68,076,36*7E
$GPGSV,4,4,15,40,18,253,,41,41,230,36,50,41,130,*42
$GLGSV,2,1,08,66,02,151,,67,53,153,38,68,66,327,30,69,15,331,30*60
$GLGSV,2,2,08,77,26,031,20,78,63,332,29,79,35,250,39,87,00,078,*6F
$GNGLL,3030.84072,N,11420.29684,E,061758.00,A,D*71
$GNRMC,061759.00,A,3030.84029,N,11420.29679,E,1.849,197.83,220119,,,D*72
$GNVTG,197.83,T,,M,1.849,N,3.425,K,D*26
$GNGGA,061759.00,3030.84029,N,11420.29679,E,2,12,0.71,14.5,M,-10.8,M,,0000*5E
$GNGSA,A,3,14,22,26,31,32,03,10,25,41,,,,1.34,0.71,1.14*1A
$GNGSA,A,3,68,79,78,77,67,,,,,,,,1.34,0.71,1.14*16
$GPGSV,4,1,15,03,11,320,26,10,26,177,32,12,02,036,,14,69,014,27*75
$GPGSV,4,2,15,16,12,208,25,20,03,164,,22,26,305,32,25,33,043,24*75
$GPGSV,4,3,15,26,40,208,37,29,20,096,13,31,57,314,25,32,68,076,34*78
$GPGSV,4,4,15,40,18,253,,41,41,230,37,50,41,130,*43
$GLGSV,2,1,08,66,02,151,,67,53,153,38,68,66,327,29,69,15,331,29*60
$GLGSV,2,2,08,77,26,031,21,78,63,332,30,79,35,250,37,87,00,078,*68
$GNGLL,3030.84029,N,11420.29679,E,061759.00,A,D*7C
$GNRMC,061800.00,A,3030.83979,N,11420.29672,E,1.831,194.58,220119,,,D*7B
$GNVTG,194.58,T,,M,1.831,N,3.390,K,D*25
$GNGGA,061800.00,3030.83979,N,11420.29672,E,2,12,0.71,14.4,M,-10.8,M,,0000*5C
$GNGSA,A,3,14,22,26,31,32,03,10,25,41,,,,1.34,0.71,1.14*1A
$GNGSA,A,3,68,79,78,77,67,,,,,,,,1.34,0.71,1.14*16
$GPGSV,4,1,15,03,11,320,25,10,26,177,27,12,02,036,,14,69,014,29*7C
$GPGSV,4,2,15,16,12,208,22,20,03,164,,22,26,305,31,25,33,043,25*70
$GPGSV,4,3,15,26,40,208,36,29,20,096,11,31,57,314,25,32,68,076,33*7C
$GPGSV,4,4,15,40,18,253,,41,41,230,37,50,41,130,*43
$GLGSV,2,1,08,66,02,151,,67,53,153,38,68,66,327,31,69,15,331,28*68
$GLGSV,2,2,08,77,26,031,21,78,63,332,30,79,35,250,39,87,00,078,*66
$GNGLL,3030.83979,N,11420.29672,E,061800.00,A,D*7F
$GNRMC,061801.00,A,3030.83928,N,11420.29666,E,1.796,193.02,220119,,,D*71
$GNVTG,193.02,T,,M,1.796,N,3.327,K,D*23
$GNGGA,061801.00,3030.83928,N,11420.29666,E,2,12,0.71,14.2,M,-10.8,M,,0000*5A
$GNGSA,A,3,14,22,26,31,32,03,10,25,41,,,,1.34,0.71,1.14*1A
$GNGSA,A,3,68,79,78,77,67,,,,,,,,1.34,0.71,1.14*16
$GPGSV,4,1,15,03,11,320,26,10,26,177,28,12,02,036,,14,69,014,33*7B
$GPGSV,4,2,15,16,12,208,20,20,03,164,,22,26,305,35,25,33,043,23*70
$GPGSV,4,3,15,26,40,208,36,29,20,096,09,31,57,314,24,32,68,076,33*74
$GPGSV,4,4,15,40,18,253,,41,41,230,37,50,41,130,*43
$GLGSV,2,1,08,66,02,151,,67,53,153,38,68,66,327,33,69,15,331,29*6B
$GLGSV,2,2,08,77,26,031,21,78,63,332,31,79,35,250,34,87,00,078,*6A
$GNGLL,3030.83928,N,11420.29666,E,061801.00,A,D*7F
$GNRMC,061802.00,A,3030.83884,N,11420.29671,E,1.734,193.66,220119,,,D*79
$GNVTG,193.66,T,,M,1.734,N,3.211,K,D*2D
$GNGGA,061802.00,3030.83884,N,11420.29671,E,2,12,0.71,14.1,M,-10.8,M,,0000*5B
$GNGSA,A,3,14,22,26,31,32,03,10,25,41,,,,1.34,0.71,1.14*1A
$GNGSA,A,3,68,79,78,77,67,,,,,,,,1.34,0.71,1.14*16
$GPGSV,4,1,15,03,11,320,32,10,26,177,31,12,02,036,,14,69,014,31*74
$GPGSV,4,2,15,16,12,208,20,20,03,164,,22,26,305,35,25,33,043,22*71
$GPGSV,4,3,15,26,40,208,38,29,20,096,11,31,57,314,23,32,68,076,38*7F
$GPGSV,4,4,15,40,18,253,,41,41,230,40,50,41,130,*43
$GLGSV,2,1,08,66,02,151,,67,53,153,39,68,66,327,34,69,15,331,29*6D
$GLGSV,2,2,08,77,26,031,21,78,63,332,31,79,35,250,39,87,00,078,*67
$GNGLL,3030.83884,N,11420.29671,E,061802.00,A,D*7D
$GNRMC,061803.00,A,3030.83843,N,11420.29671,E,1.118,191.79,220119,,,D*77
$GNVTG,191.79,T,,M,1.118,N,2.070,K,D*2D
$GNGGA,061803.00,3030.83843,N,11420.29671,E,2,12,0.71,14.0,M,-10.8,M,,0000*50
$GNGSA,A,3,14,22,26,31,32,03,10,25,41,29,,,1.34,0.71,1.14*11
$GNGSA,A,3,68,79,78,77,67,,,,,,,,1.34,0.71,1.14*16
$GPGSV,4,1,15,03,11,320,26,10,26,177,30,12,02,036,,14,69,014,31*70
$GPGSV,4,2,15,16,12,208,21,20,03,164,,22,26,305,35,25,33,043,22*70
$GPGSV,4,3,15,26,40,208,39,29,20,096,12,31,57,314,29,32,68,076,36*79
$GPGSV,4,4,15,40,18,253,,41,41,230,40,50,41,130,*43
$GLGSV,2,1,08,66,02,151,,67,53,153,39,68,66,327,30,69,15,331,29*69
$GLGSV,2,2,08,77,26,031,21,78,63,332,33,79,35,250,37,87,00,078,*6B
$GNGLL,3030.83843,N,11420.29671,E,061803.00,A,D*77
$GNRMC,061804.00,A,3030.83836,N,11420.29675,E,0.254,,220119,,,D*65
$GNVTG,,T,,M,0.254,N,0.470,K,D*38
$GNGGA,061804.00,3030.83836,N,11420.29675,E,2,12,0.71,14.1,M,-10.8,M,,0000*50
$GNGSA,A,3,14,22,26,31,32,03,10,25,41,29,,,1.34,0.71,1.14*11
$GNGSA,A,3,68,79,78,77,67,,,,,,,,1.34,0.71,1.14*16
$GPGSV,4,1,15,03,11,320,27,10,26,177,36,12,02,036,,14,69,014,32*74
$GPGSV,4,2,15,16,12,208,30,20,03,164,,22,26,305,25,25,33,043,26*75
$GPGSV,4,3,15,26,40,208,40,29,20,096,15,31,57,314,30,32,68,076,37*79
$GPGSV,4,4,15,40,18,253,,41,41,230,36,50,41,130,*42
$GLGSV,2,1,08,66,02,151,,67,53,153,35,68,66,327,31,69,15,331,23*6E
$GLGSV,2,2,08,77,26,031,25,78,63,332,29,79,35,250,28,87,00,078,*6A
$GNGLL,3030.83836,N,11420.29675,E,061804.00,A,D*76
$GNRMC,061805.00,A,3030.83830,N,11420.29712,E,1.444,137.51,220119,,,D*7B
$GNVTG,137.51,T,,M,1.444,N,2.674,K,D*25
$GNGGA,061805.00,3030.83830,N,11420.29712,E,2,12,0.65,13.9,M,-10.8,M,,0000*5D
$GNGSA,A,3,14,22,26,31,32,03,10,25,41,29,,,1.24,0.65,1.05*15
$GNGSA,A,3,68,79,78,77,67,,,,,,,,1.24,0.65,1.05*12
$GPGSV,4,1,15,03,11,320,26,10,26,177,32,12,02,036,,14,69,014,32*71
$GPGSV,4,2,15,16,12,208,28,20,03,164,,22,26,305,26,25,33,043,25*7C
$GPGSV,4,3,15,26,40,208,34,29,20,096,16,31,57,314,22,32,68,076,33*7E
$GPGSV,4,4,15,40,18,253,,41,41,230,29,50,41,130,*4C
$GLGSV,2,1,08,66,02,151,,67,53,153,35,68,66,327,31,69,15,331,30*6C
$GLGSV,2,2,08,77,26,031,24,78,63,332,29,79,35,250,28,87,00,078,*6B
$GNGLL,3030.83830,N,11420.29712,E,061805.00,A,D*71
$GNRMC,061806.00,A,3030.83821,N,11420.29762,E,1.580,115.84,220119,,,D*7E
$GNVTG,115.84,T,,M,1.580,N,2.926,K,D*2C
$GNGGA,061806.00,3030.83821,N,11420.29762,E,2,12,0.68,13.8,M,-10.8,M,,0000*55
$GNGSA,A,3,14,22,26,31,32,03,10,25,29,,,,1.25,0.68,1.05*1C
$GNGSA,A,3,68,79,78,77,67,,,,,,,,1.25,0.68,1.05*1E
$GPGSV,4,1,15,03,11,320,28,10,26,177,31,12,02,036,,14,69,014,34*7A
$GPGSV,4,2,15,16,12,208,28,20,03,164,,22,26,305,29,25,33,043,25*73
$GPGSV,4,3,15,26,41,209,34,29,20,096,15,31,57,314,25,32,68,076,32*7B
$GPGSV,4,4,15,40,18,253,,41,41,230,,50,41,130,*47
$GLGSV,2,1,08,66,02,151,,67,53,153,34,68,66,327,30,69,15,331,31*6D
$GLGSV,2,2,08,77,26,031,22,78,63,332,29,79,35,250,25,87,00,078,*60
$GNGLL,3030.83821,N,11420.29762,E,061806.00,A,D*75
$GNRMC,061807.00,A,3030.83817,N,11420.29806,E,1.168,109.05,220119,,,D*71
