C
$GNRMC,134814.00,A,3030.86468,N,11420.30909,E,0.221,,200119,,,A*6E
$GNVTG,,T,,M,0.221,N,0.410,K,A*39
$GNGGA,134814.00,3030.86468,N,11420.30909,E,1,11,1.86,18.1,M,-10.8,M,,*5B
$GNGSA,A,3,07,01,17,22,30,28,11,,,,,,2.52,1.86,1.71*18
$GNGSA,A,3,82,79,83,78,,,,,,,,,2.52,1.86,1.71*11
$GPGSV,3,1,11,01,70,146,36,04,,,27,07,63,218,34,11,81,039,17*41
$GPGSV,3,2,11,17,19,258,24,18,,,30,22,17,133,31,27,08,058,*40
$GPGSV,3,3,11,28,30,315,22,30,54,291,35,41,41,230,32*49
$GLGSV,2,1,05,78,18,143,31,79,70,124,37,82,70,297,37,83,29,233,27*69
$GLGSV,2,2,05,,,,27*65
$GNGLL,3030.86468,N,11420.30909,E,134814.00,A,A*7D
$GNRMC,134815.00,A,3030.86476,N,11420.30916,E,0.130,,200119,,,A*6D
$GNVTG,,T,,M,0.130,N,0.241,K,A*38
$GNGGA,134815.00,3030.86476,N,11420.30916,E,1,11,1.86,18.2,M,-10.8,M,,*58
$GNGSA,A,3,07,01,17,22,30,28,11,,,,,,2.52,1.86,1.71*18
$GNGSA,A,3,82,79,83,78,,,,,,,,,2.52,1.86,1.71*11
$GPGSV,3,1,11,01,70,146,38,04,,,35,07,63,218,35,11,81,039,18*42
$GPGSV,3,2,11,17,19,258,26,18,,,31,22,17,133,35,27,08,058,*47
$GPGSV,3,3,11,28,30,315,30,30,54,291,39,41,41,230,36*42
$GLGSV,2,1,05,78,18,143,31,79,70,124,39,82,70,297,35,83,29,233,31*62
$GLGSV,2,2,05,,,,24*66
$GNGLL,3030.86476,N,11420.30916,E,134815.00,A,A*7D
$GNRMC,134816.00,A,3030.86472,N,11420.30916,E,0.033,,200119,,,A*68
$GNVTG,,T,,M,0.033,N,0.061,K,A*3A
$GNGGA,134816.00,3030.86472,N,11420.30916,E,1,11,1.25,18.2,M,-10.8,M,,*56
$GNGSA,A,3,07,01,17,22,30,28,11,,,,,,1.76,1.25,1.25*15
$GNGSA,A,3,82,79,83,78,,,,,,,,,1.76,1.25,1.25*1C
$GPGSV,3,1,11,01,70,146,36,04,,,35,07,63,218,35,11,81,039,18*4C
$GPGSV,3,2,11,17,19,258,32,18,,,31,22,17,133,35,27,08,058,*42
$GPGSV,3,3,11,28,30,315,30,30,54,291,37,41,41,230,33*49
$GLGSV,2,1,05,78,18,143,32,79,70,124,39,82,70,297,36,83,29,233,33*60
$GLGSV,2,2,05,,,,21*63
$GNGLL,3030.86472,N,11420.30916,E,134816.00,A,A*7A
$GNRMC,134817.00,A,3030.86460,N,11420.30916,E,0.117,,200119,,,A*6D
$GNVTG,,T,,M,0.117,N,0.216,K,A*3F
$GNGGA,134817.00,3030.86460,N,11420.30916,E,1,11,1.25,18.5,M,-10.8,M,,*53
$GNGSA,A,3,07,01,17,22,30,28,11,,,,,,1.76,1.25,1.25*15
$GNGSA,A,3,82,79,83,78,,,,,,,,,1.76,1.25,1.25*1C
$GPGSV,3,1,11,01,70,146,35,04,,,34,07,63,218,34,11,81,039,18*4F
$GPGSV,3,2,11,17,19,258,31,18,,,30,22,17,133,34,27,08,058,*41
$GPGSV,3,3,11,28,30,315,28,30,54,291,34,41,41,230,30*40
$GLGSV,2,1,05,78,18,143,33,79,70,124,40,82,70,297,33,83,29,233,34*6D
$GLGSV,2,2,05,,,,17*66
$GNGLL,3030.86460,N,11420.30916,E,134817.00,A,A*78
$GNRMC,134818.00,A,3030.86452,N,11420.30914,E,0.123,,200119,,,A*66
$GNVTG,,T,,M,0.123,N,0.228,K,A*35
$GNGGA,134818.00,3030.86452,N,11420.30914,E,1,11,1.25,18.8,M,-10.8,M,,*52
$GNGSA,A,3,07,01,17,22,30,28,11,,,,,,1.76,1.25,1.25*15
$GNGSA,A,3,82,79,83,78,,,,,,,,,1.76,1.25,1.25*1C
$GPGSV,3,1,11,01,70,146,35,04,,,22,07,63,218,31,11,81,039,17*42
$GPGSV,3,2,11,17,19,258,25,18,,,29,22,17,133,33,27,08,058,*4B
$GPGSV,3,3,11,28,30,315,27,30,54,291,34,41,41,230,31*4E
$GLGSV,2,1,05,78,18,143,33,79,70,124,40,82,70,297,37,83,29,233,24*68
$GLGSV,2,2,05,,,,16*67
$GNGLL,3030.86452,N,11420.30914,E,134818.00,A,A*74
$GNRMC,134819.00,A,3030.86451,N,11420.30915,E,0.094,,200119,,,A*68
$GNVTG,,T,,M,0.094,N,0.173,K,A*35
$GNGGA,134819.00,3030.86451,N,11420.30915,E,1,11,1.25,19.1,M,-10.8,M,,*59
$GNGSA,A,3,07,01,17,22,30,28,11,,,,,,1.76,1.25,1.25*15
$GNGSA,A,3,82,79,83,78,,,,,,,,,1.76,1.25,1.25*1C
$GPGSV,3,1,11,01,70,146,34,04,,,21,07,63,218,30,11,81,039,14*42
$GPGSV,3,2,11,17,19,258,25,18,,,27,22,17,133,32,27,08,058,*44
$GPGSV,3,3,11,28,30,315,26,30,54,291,34,41,41,230,33*4D
$GLGSV,2,1,05,78,18,143,34,79,70,124,41,82,70,297,39,83,29,233,26*62
$GLGSV,2,2,05,,,,15*64
$GNGLL,3030.86451,N,11420.30915,E,134819.00,A,A*77
$GNRMC,134820.00,A,3030.86456,N,11420.30919,E,0.336,,200119,,,A*62
$GNVTG,,T,,M,0.336,N,0.623,K,A*3C
$GNGGA,134820.00,3030.86456,N,11420.30919,E,1,11,1.50,19.3,M,-10.8,M,,*58
$GNGSA,A,3,07,01,17,22,30,28,11,,,,,,1.95,1.50,1.25*1A
$GNGSA,A,3,82,79,83,78,,,,,,,,,1.95,1.50,1.25*13
$GPGSV,3,1,11,01,70,146,35,04,,,29,07,63,218,32,11,81,039,14*49
$GPGSV,3,2,11,17,19,258,24,18,,,27,22,17,133,33,27,08,058,*44
$GPGSV,3,3,11,28,30,315,26,30,54,291,35,41,41,230,29*47
$GLGSV,2,1,05,78,18,143,33,79,70,124,39,82,70,297,34,83,29,233,31*61
$GLGSV,2,2,05,,,,16*67
$GNGLL,3030.86456,N,11420.30919,E,134820.00,A,A*76
$GNRMC,134821.00,A,3030.86475,N,11420.30922,E,0.162,,200119,,,A*69
$GNVTG,,T,,M,0.162,N,0.300,K,A*3B
$GNGGA,134821.00,3030.86475,N,11420.30922,E,1,11,1.25,19.1,M,-10.8,M,,*50
$GNGSA,A,3,07,01,17,22,30,28,11,,,,,,1.76,1.25,1.25*15
$GNGSA,A,3,82,79,83,78,,,,,,,,,1.76,1.25,1.25*1C
$GPGSV,3,1,11,01,70,146,37,04,,,36,07,63,218,40,11,81,039,19*4D
$GPGSV,3,2,11,17,19,258,34,18,,,28,22,17,133,36,27,08,058,*4F
$GPGSV,3,3,11,28,30,315,28,30,54,291,36,41,41,230,39*4B
$GLGSV,2,1,05,78,18,143,32,79,70,124,39,82,70,297,34,83,29,233,35*64
$GLGSV,2,2,05,,,,17*66
$GNGLL,3030.86475,N,11420.30922,E,134821.00,A,A*7E
$GNRMC,134822.00,A,3030.86453,N,11420.30907,E,0.225,,200119,,,A*69
$GNVTG,,T,,M,0.225,N,0.417,K,A*3A
$GNGGA,134822.00,3030.86453,N,11420.30907,E,1,11,1.25,19.3,M,-10.8,M,,*52
$GNGSA,A,3,07,01,17,22,30,28,11,,,,,,1.76,1.25,1.25*15
$GNGSA,A,3,82,79,83,78,,,,,,,,,1.76,1.25,1.25*1C
$GPGSV,3,1,11,01,70,146,37,04,,,35,07,63,218,39,11,81,039,20*4A
$GPGSV,3,2,11,17,19,258,36,18,,,28,22,17,133,34,27,08,058,*4F
$GPGSV,3,3,11,28,30,315,28,30,54,290,38,41,41,230,34*49
$GLGSV,2,1,05,78,18,143,30,79,70,124,37,82,70,297,36,83,29,233,28*66
$GLGSV,2,2,05,,,,20*62
$GNGLL,3030.86453,N,11420.30907,E,134822.00,A,A*7E
$GNRMC,134823.00,A,3030.86434,N,11420.30892,E,0.075,,200119,,,A*63
$GNVTG,,T,,M,0.075,N,0.139,K,A*34
$GNGGA,134823.00,3030.86434,N,11420.30892,E,1,11,1.25,19.4,M,-10.8,M,,*58
$GNGSA,A,3,07,01,17,22,30,28,11,,,,,,1.76,1.25,1.25*15
$GNGSA,A,3,82,79,83,78,,,,,,,,,1.76,1.25,1.25*1C
$GPGSV,3,1,11,01,70,146,38,04,,,37,07,63,218,41,11,81,039,21*49
$GPGSV,3,2,11,17,19,258,39,18,,,28,22,17,133,33,27,08,058,*47
$GPGSV,3,3,11,28,30,315,27,30,54,290,36,41,41,230,42*49
$GLGSV,2,1,05,78,18,143,29,79,70,124,37,82,70,297,35,83,29,233,36*62
$GLGSV,2,2,05,,,,21*63
$GNGLL,3030.86434,N,11420.30892,E,134823.00,A,A*73
$GNRMC,134824.00,A,3030.86426,N,11420.30884,E,0.031,,200119,,,A*60
$GNVTG,,T,,M,0.031,N,0.058,K,A*32
$GNGGA,134824.00,3030.86426,N,11420.30884,E,1,11,1.24,19.5,M,-10.8,M,,*5B
$GNGSA,A,3,07,01,17,22,30,28,11,,,,,,1.76,1.24,1.25*14
$GNGSA,A,3,82,79,83,78,,,,,,,,,1.76,1.24,1.25*1D
$GPGSV,3,1,11,01,70,146,37,04,,,32,07,63,218,39,11,81,039,20*4D
$GPGSV,3,2,11,17,19,258,38,18,,,27,22,17,133,33,27,08,058,*49
$GPGSV,3,3,11,28,30,315,28,30,54,290,34,41,41,230,38*49
$GLGSV,2,1,05,78,18,143,28,79,70,124,37,82,70,297,35,83,29,233,35*60
$GLGSV,2,2,05,,,,22*60
$GNGLL,3030.86426,N,11420.30884,E,134824.00,A,A*70
$GNRMC,134825.00,A,3030.86417,N,11420.30874,E,0.154,,200119,,,A*6E
$GNVTG,,T,,M,0.154,N,0.284,K,A*33
$GNGGA,134825.00,3030.86417,N,11420.30874,E,1,11,1.24,19.6,M,-10.8,M,,*54
$GNGSA,A,3,07,01,17,22,30,28,11,,,,,,1.76,1.24,1.25*14
$GNGSA,A,3,82,79,83,78,,,,,,,,,1.76,1.24,1.25*1D
$GPGSV,3,1,11,01,70,146,37,04,,,32,07,63,218,38,11,81,039,20*4C
$GPGSV,3,2,11,17,19,258,39,18,,,27,22,17,133,33,27,08,058,*48
$GPGSV,3,3,11,28,30,315,28,30,54,290,36,41,41,230,40*44
$GLGSV,2,1,05,78,18,143,28,79,70,124,37,82,70,297,37,83,29,233,36*61
$GLGSV,2,2,05,,,,23*61
$GNGLL,3030.86417,N,11420.30874,E,134825.00,A,A*7C
$GNRMC,134826.00,A,3030.86412,N,11420.30862,E,0.308,,200119,,,A*64
$GNVTG,,T,,M,0.308,N,0.571,K,A*35
$GNGGA,134826.00,3030.86412,N,11420.30862,E,1,11,1.24,19.6,M,-10.8,M,,*55
$GNGSA,A,3,07,01,17,22,30,28,11,,,,,,1.76,1.24,1.25*14
$GNGSA,A,3,82,79,83,78,,,,,,,,,1.76,1.24,1.25*1D
$GPGSV,3,1,11,01,70,146,37,04,,,26,07,63,218,36,11,81,039,20*47
$GPGSV,3,2,11,17,19,258,38,18,,,28,22,17,133,33,27,08,058,*46
$GPGSV,3,3,11,28,30,315,28,30,54,290,34,41,41,230,36*47
$GLGSV,2,1,05,78,18,143,30,79,70,124,37,82,70,297,37,83,29,233,29*66
$GLGSV,2,2,05,,,,21*63
$GNGLL,3030.86412,N,11420.30862,E,134826.00,A,A*7D
$GNRMC,134827.00,A,3030.86414,N,11420.30860,E,0.099,,200119,,,A*6A
$GNVTG,,T,,M,0.099,N,0.184,K,A*30
$GNGGA,134827.00,3030.86414,N,11420.30860,E,1,11,1.24,19.8,M,-10.8,M,,*5E
$GNGSA,A,3,07,01,17,22,30,28,11,,,,,,1.76,1.24,1.25*14
$GNGSA,A,3,82,79,83,78,,,,,,,,,1.76,1.24,1.25*1D
$GPGSV,3,1,11,01,70,146,36,04,,,35,07,63,218,38,11,81,039,20*4A
$GPGSV,3,2,11,17,19,258,33,18,,,28,22,17,133,34,27,08,058,*4A
$GPGSV,3,3,11,28,30,315,27,30,54,290,36,41,41,230,38*44
$GLGSV,2,1,05,78,18,143,30,79,70,124,37,82,70,297,35,83,29,233,38*64
$GLGSV,2,2,05,,,,21*63
$GNGLL,3030.86414,N,11420.30860,E,134827.00,A,A*78
$GNRMC,134828.00,A,3030.86412,N,11420.30851,E,0.119,,200119,,,A*68
$GNVTG,,T,,M,0.119,N,0.221,K,A*35
$GNGGA,134828.00,3030.86412,N,11420.30851,E,1,11,1.24,19.9,M,-10.8,M,,*54
$GNGSA,A,3,07,01,17,22,30,28,11,,,,,,1.76,1.24,1.25*14
$GNGSA,A,3,82,79,83,78,,,,,,,,,1.76,1.24,1.25*1D
$GPGSV,3,1,11,01,70,146,36,04,,,32,07,63,218,38,11,81,039,20*4D
$GPGSV,3,2,11,17,19,258,38,18,,,28,22,17,133,33,27,08,058,*46
$GPGSV,3,3,11,28,30,315,28,30,54,290,34,41,41,230,38*49
$GLGSV,2,1,05,78,18,143,30,79,70,124,37,82,70,297,35,83,29,233,36*6A
$GLGSV,2,2,05,,,,19*68
$GNGLL,3030.86412,N,11420.30851,E,134828.00,A,A*73
$GNRMC,134829.00,A,3030.86411,N,11420.30839,E,0.068,,200119,,,A*63
$GNVTG,,T,,M,0.068,N,0.125,K,A*35
$GNGGA,134829.00,3030.86411,N,11420.30839,E,1,11,1.24,19.8,M,-10.8,M,,*59
$GNGSA,A,3,07,01,17,22,30,28,11,,,,,,1.76,1.24,1.25*14
$GNGSA,A,3,82,79,83,78,,,,,,,,,1.76,1.24,1.25*1D
$GPGSV,3,1,11,01,70,146,36,04,,,33,07,63,218,38,11,81,039,20*4C
$GPGSV,3,2,11,17,19,258,39,18,,,28,22,17,133,33,27,08,058,*47
$GPGSV,3,3,11,28,30,315,17,30,54,290,34,41,41,230,39*44
$GLGSV,2,1,05,78,18,143,30,79,70,124,37,82,70,297,35,83,29,233,36*6A
$GLGSV,2,2,05,,,,20*62
$GNGLL,3030.86411,N,11420.30839,E,134829.00,A,A*7F
$GNRMC,134830.00,A,3030.86415,N,11420.30828,E,0.033,,200119,,,A*61
$GNVTG,,T,,M,0.033,N,0.061,K,A*3A
$GNGGA,134830.00,3030.86415,N,11420.30828,E,1,11,1.24,19.7,M,-10.8,M,,*5A
$GNGSA,A,3,07,01,17,22,30,28,11,,,,,,1.76,1.24,1.25*14
$GNGSA,A,3,82,79,83,78,,,,,,,,,1.76,1.24,1.25*1D
$GPGSV,3,1,11,01,70,146,36,04,,,33,07,63,218,38,11,81,039,21*4D
$GPGSV,3,2,11,17,19,258,39,18,,,28,22,17,133,33,27,08,058,*47
$GPGSV,3,3,11,28,30,315,29,30,54,290,35,41,41,230,39*48
$GLGSV,2,1,05,78,18,143,30,79,70,124,37,82,70,297,35,83,29,233,36*6A
$GLGSV,2,2,05,,,,21*63
$GNGLL,3030.86415,N,11420.30828,E,134830.00,A,A*73
$GNRMC,134831.00,A,3030.86416,N,11420.30816,E,0.197,,200119,,,A*61
$GNVTG,,T,,M,0.197,N,0.365,K,A*32
$GNGGA,134831.00,3030.86416,N,11420.30816,E,1,11,1.28,19.6,M,-10.8,M,,*58
$GNGSA,A,3,07,01,17,22,30,28,11,,,,,,1.81,1.28,1.28*1D
$GNGSA,A,3,82,79,83,78,,,,,,,,,1.81,1.28,1.28*14
$GPGSV,3,1,11,01,70,146,36,04,,,32,07,63,218,38,11,81,039,20*4D
$GPGSV,3,2,11,17,19,258,40,18,,,27,22,17,133,33,27,08,058,*46
$GPGSV,3,3,11,28,30,315,28,30,54,290,36,41,41,230,39*4A
$GLGSV,2,1,05,78,18,143,31,79,70,124,37,82,70,297,35,83,29,233,35*68
$GLGSV,2,2,05,,,,20*62
$GNGLL,3030.86416,N,11420.30816,E,134831.00,A,A*7C
$GNRMC,134832.00,A,3030.86415,N,11420.30809,E,0.093,,200119,,,A*6A
$GNVTG,,T,,M,0.093,N,0.172,K,A*33
$GNGGA,134832.00,3030.86415,N,11420.30809,E,1,11,1.24,19.7,M,-10.8,M,,*5B
$GNGSA,A,3,07,01,17,22,30,28,11,,,,,,1.76,1.24,1.25*14
$GNGSA,A,3,82,79,83,78,,,,,,,,,1.76,1.24,1.25*1D
$GPGSV,3,1,11,01,70,146,36,04,,,32,07,63,218,37,11,81,039,20*42
$GPGSV,3,2,11,17,19,258,34,18,,,27,22,17,133,32,27,08,058,*44
$GPGSV,3,3,11,28,30,315,28,30,54,290,33,41,41,230,38*4E
$GLGSV,2,1,05,78,18,143,31,79,70,124,37,82,70,297,36,83,29,233,34*6A
$GLGSV,2,2,05,,,,19*68
$GNGLL,3030.86415,N,11420.30809,E,134832.00,A,A*72
$GNRMC,134833.00,A,3030.86406,N,11420.30799,E,0.032,,200119,,,A*64
$GNVTG,,T,,M,0.032,N,0.059,K,A*30
$GNGGA,134833.00,3030.86406,N,11420.30799,E,1,11,1.28,19.9,M,-10.8,M,,*5C
$GNGSA,A,3,07,01,17,22,30,28,11,,,,,,1.81,1.28,1.28*1D
$GNGSA,A,3,82,79,83,78,,,,,,,,,1.81,1.28,1.28*14
$GPGSV,3,1,11,01,70,146,37,04,,,32,07,63,218,38,11,81,039,20*4C
$GPGSV,3,2,11,17,19,258,33,18,,,26,22,17,133,32,27,08,058,*42
$GPGSV,3,3,11,28,30,315,28,30,54,290,36,41,41,230,39*4A
$GLGSV,2,1,05,78,18,143,30,79,70,124,38,82,70,297,36,83,29,233,33*63
$GLGSV,2,2,05,,,,19*68
$GNGLL,3030.86406,N,11420.30799,E,134833.00,A,A*77
$GNRMC,134834.00,A,3030.86403,N,11420.30788,E,0.057,,200119,,,A*65
$GNVTG,,T,,M,0.057,N,0.106,K,A*38
$GNGGA,134834.00,3030.86403,N,11420.30788,E,1,11,1.24,19.9,M,-10.8,M,,*52
$GNGSA,A,3,07,01,17,22,30,28,11,,,,,,1.76,1.24,1.25*14
$GNGSA,A,3,82,79,83,78,,,,,,,,,1.76,1.24,1.25*1D
$GPGSV,3,1,11,01,70,146,37,04,,,34,07,63,218,37,11,81,039,20*45
$GPGSV,3,2,11,17,19,258,38,18,,,27,22,17,133,32,27,08,058,*48
$GPGSV,3,3,11,28,30,315,28,30,54,290,34,41,41,230,37*46
$GLGSV,2,1,05,78,18,143,30,79,70,124,37,82,70,297,36,83,29,233,29*67
$GLGSV,2,2,05,,,,17*66
$GNGLL,3030.86403,N,11420.30788,E,134834.00,A,A*75
$GNRMC,134835.00,A,3030.86405,N,11420.30782,E,0.043,,200119,,,A*6D
$GNVTG,,T,,M,0.043,N,0.080,K,A*32
$GNGGA,134835.00,3030.86405,N,11420.30782,E,1,11,1.24,19.9,M,-10.8,M,,*5F
$GNGSA,A,3,07,01,17,22,30,28,11,,,,,,1.76,1.24,1.25*14
$GNGSA,A,3,82,79,83,78,,,,,,,,,1.76,1.24,1.25*1D
$GPGSV,3,1,11,01,70,146,37,04,,,34,07,63,218,37,11,81,039,20*45
$GPGSV,3,2,11,17,19,258,33,18,,,27,22,17,133,32,27,08,058,*43
$GPGSV,3,3,11,28,30,315,28,30,54,290,34,41,41,230,36*47
$GLGSV,2,1,05,78,18,143,28,79,70,124,38,82,70,297,35,83,29,233,27*6C
$GLGSV,2,2,05,,,,17*66
$GNGLL,3030.86405,N,11420.30782,E,134835.00,A,A*78
$GNRMC,134836.00,A,3030.86401,N,11420.30778,E,0.084,,200119,,,A*64
$GNVTG,,T,,M,0.084,N,0.155,K,A*30
$GNGGA,134836.00,3030.86401,N,11420.30778,E,1,11,1.28,19.9,M,-10.8,M,,*51
$GNGSA,A,3,07,01,17,22,30,28,11,,,,,,1.86,1.28,1.35*16
$GNGSA,A,3,82,79,83,78,,,,,,,,,1.86,1.28,1.35*1F
$GPGSV,3,1,11,01,70,146,37,04,,,34,07,63,218,38,11,81,039,19*40
$GPGSV,3,2,11,17,19,258,32,18,,,27,22,17,133,32,27,08,058,*42
$GPGSV,3,3,11,28,30,315,28,30,54,290,33,41,41,230,35*43
$GLGSV,2,1,05,78,18,143,27,79,70,124,38,82,70,297,36,83,29,233,26*61
$GLGSV,2,2,05,,,,16*67
$GNGLL,3030.86401,N,11420.30778,E,134836.00,A,A*7A
$GNRMC,134837.00,A,3030.86392,N,11420.30771,E,0.064,,200119,,,A*6F
$GNVTG,,T,,M,0.064,N,0.118,K,A*37
$GNGGA,134837.00,3030.86392,N,11420.30771,E,1,11,1.24,19.9,M,-10.8,M,,*58
$GNGSA,A,3,07,01,17,22,30,28,11,,,,,,1.76,1.24,1.25*14
$GNGSA,A,3,82,79,83,78,,,,,,,,,1.76,1.24,1.25*1D
$GPGSV,3,1,11,01,70,146,36,04,,,35,07,63,218,38,11,81,039,17*4E
$GPGSV,3,2,11,17,19,258,33,18,,,27,22,17,133,32,27,08,058,*43
$GPGSV,3,3,11,28,30,315,29,30,54,290,36,41,41,230,38*4A
$GLGSV,2,1,05,78,18,143,25,79,70,124,38,82,70,297,35,83,29,233,33*64
$GLGSV,2,2,05,,,,17*66
$GNGLL,3030.86392,N,11420.30771,E,134837.00,A,A*7F
$GNRMC,134838.00,A,3030.86384,N,11420.30764,E,0.189,,200119,,,A*61
$GNVTG,,T,,M,0.189,N,0.350,K,A*3B
$GNGGA,134838.00,3030.86384,N,11420.30764,E,1,11,1.24,19.9,M,-10.8,M,,*54
$GNGSA,A,3,07,01,17,22,30,28,11,,,,,,1.76,1.24,1.25*14
$GNGSA,A,3,82,79,83,78,,,,,,,,,1.76,1.24,1.25*1D
$GPGSV,3,1,11,01,70,146,37,04,,,34,07,63,218,38,11,81,039,19*40
$GPGSV,3,2,11,17,19,258,33,18,,,27,22,17,133,33,27,08,058,*42
$GPGSV,3,3,11,28,30,315,28,30,54,290,36,41,41,230,35*46
$GLGSV,2,1,05,78,18,143,23,79,70,124,37,82,70,297,36,83,29,233,31*6C
$GLGSV,2,2,05,,,,20*62
$GNGLL,3030.86384,N,11420.30764,E,134838.00,A,A*73
$GNRMC,134839.00,A,3030.86376,N,11420.30760,E,0.052,,200119,,,A*6E
$GNVTG,,T,,M,0.052,N,0.097,K,A*34
$GNGGA,134839.00,3030.86376,N,11420.30760,E,1,11,1.24,19.9,M,-10.8,M,,*5C
$GNGSA,A,3,07,01,17,22,30,28,11,,,,,,1.76,1.24,1.25*14
$GNGSA,A,3,82,79,83,78,,,,,,,,,1.76,1.24,1.25*1D
$GPGSV,3,1,11,01,70,146,37,04,,,34,07,63,218,38,11,81,039,20*4A
$GPGSV,3,2,11,17,19,258,33,18,,,28,22,17,133,34,27,08,058,*4A
$GPGSV,3,3,11,28,30,315,26,30,54,290,37,41,41,230,35*49
$GLGSV,2,1,05,78,18,143,22,79,70,124,36,82,70,297,36,83,29,233,30*6D
$GLGSV,2,2,05,,,,22*60
$GNGLL,3030.86376,N,11420.30760,E,134839.00,A,A*7B
$GNRMC,134840.00,A,3030.86370,N,11420.30758,E,0.027,,200119,,,A*6F
$GNVTG,,T,,M,0.027,N,0.050,K,A*3D
$GNGGA,134840.00,3030.86370,N,11420.30758,E,1,11,1.24,20.0,M,-10.8,M,,*5C
$GNGSA,A,3,07,01,17,22,30,28,11,,,,,,1.76,1.24,1.25*14
$GNGSA,A,3,82,79,83,78,,,,,,,,,1.76,1.24,1.25*1D
$GPGSV,3,1,11,01,70,146,37,04,,,33,07,63,218,38,11,81,039,18*46
$GPGSV,3,2,11,17,19,258,33,18,,,28,22,17,133,34,27,08,058,*4A
$GPGSV,3,3,11,28,30,315,25,30,54,290,37,41,41,230,35*4A
$GLGSV,2,1,05,78,18,143,22,79,70,124,37,82,70,297,36,83,29,233,30*6C
$GLGSV,2,2,05,,,,23*61
$GNGLL,3030.86370,N,11420.30758,E,134840.00,A,A*78
$GNRMC,134841.00,A,3030.86371,N,11420.30760,E,0.229,,200119,,,A*68
$GNVTG,,T,,M,0.229,N,0.425,K,A*37
$GNGGA,134841.00,3030.86371,N,11420.30760,E,1,11,1.85,19.9,M,-10.8,M,,*5F
$GNGSA,A,3,07,01,17,22,30,28,11,,,,,,2.52,1.85,1.71*1B
$GNGSA,A,3,82,79,83,78,,,,,,,,,2.52,1.85,1.71*12
$GPGSV,3,1,11,01,70,146,37,04,,,33,07,63,218,38,11,81,039,18*46
$GPGSV,3,2,11,17,19,258,33,18,,,28,22,17,133,34,27,08,058,*4A
$GPGSV,3,3,11,28,30,315,26,30,54,290,37,41,41,230,35*49
$GLGSV,2,1,05,78,18,143,23,79,70,124,37,82,70,297,36,83,29,233,30*6D
$GLGSV,2,2,05,,,,23*61
$GNGLL,3030.86371,N,11420.30760,E,134841.00,A,A*73
$GNRMC,134842.00,A,3030.86369,N,11420.30758,E,0.227,,200119,,,A*67
$GNVTG,,T,,M,0.227,N,0.420,K,A*3C
$GNGGA,134842.00,3030.86369,N,11420.30758,E,1,11,1.85,19.8,M,-10.8,M,,*5F
$GNGSA,A,3,07,01,17,22,30,28,11,,,,,,2.52,1.85,1.71*1B
$GNGSA,A,3,82,79,83,78,,,,,,,,,2.52,1.85,1.71*12
$GPGSV,3,1,11,01,70,146,37,04,,,33,07,63,218,38,11,81,039,19*47
$GPGSV,3,2,11,17,19,258,32,18,,,28,22,17,133,33,27,08,058,*4C
$GPGSV,3,3,11,28,30,315,27,30,54,290,37,41,41,230,36*4B
$GLGSV,2,1,05,78,18,143,26,79,70,124,38,82,70,297,36,83,29,233,29*6F
$GLGSV,2,2,05,,,,24*66
$GNGLL,3030.86369,N,11420.30758,E,134842.00,A,A*72
$GNRMC,134843.00,A,3030.86356,N,11420.30754,E,0.017,,200119,,,A*67
$GNVTG,,T,,M,0.017,N,0.031,K,A*39
$GNGGA,134843.00,3030.86356,N,11420.30754,E,1,11,1.24,19.9,M,-10.8,M,,*54
$GNGSA,A,3,07,01,17,22,30,28,11,,,,,,1.76,1.24,1.25*14
$GNGSA,A,3,82,79,83,78,,,,,,,,,1.76,1.24,1.25*1D
$GPGSV,3,1,12,01,70,146,37,04,,,33,07,63,218,38,08,35,045,*40
$GPGSV,3,2,12,11,81,039,20,17,19,258,32,18,,,27,22,17,133,32*40
$GPGSV,3,3,12,27,08,058,,28,30,315,27,30,54,290,37,41,41,230,36*78
$GLGSV,2,1,05,78,18,143,28,79,70,124,37,82,70,297,36,83,29,233,29*6E
$GLGSV,2,2,05,,,,22*60
$GNGLL,3030.86356,N,11420.30754,E,134843.00,A,A*73
$GNRMC,134844.00,A,3030.86343,N,11420.30749,E,0.025,,200119,,,A*69
$GNVTG,,T,,M,0.025,N,0.046,K,A*38
$GNGGA,134844.00,3030.86343,N,11420.30749,E,1,11,1.24,20.0,M,-10.8,M,,*58
$GNGSA,A,3,07,01,17,22,30,28,11,,,,,,1.76,1.24,1.25*14
$GNGSA,A,3,82,79,83,78,,,,,,,,,1.76,1.24,1.25*1D
$GPGSV,3,1,12,01,70,146,37,04,,,33,07,63,218,38,08,35,045,31*42
$GPGSV,3,2,12,11,81,039,21,17,19,258,32,18,,,26,22,17,133,32*40
$GPGSV,3,3,12,27,08,058,,28,30,315,27,30,54,290,37,41,41,230,36*78
$GLGSV,2,1,05,78,18,143,28,79,70,124,37,82,70,297,36,83,29,233,28*6F
$GLGSV,2,2,05,,,,20*62
$GNGLL,3030.86343,N,11420.30749,E,134844.00,A,A*7C
$GNRMC,134845.00,A,3030.86333,N,11420.30742,E,0.034,,200119,,,A*64
$GNVTG,,T,,M,0.034,N,0.063,K,A*3F
$GNGGA,134845.00,3030.86333,N,11420.30742,E,1,11,1.24,20.0,M,-10.8,M,,*55
$GNGSA,A,3,07,01,17,22,30,28,11,,,,,,1.76,1.24,1.25*14
$GNGSA,A,3,82,79,83,78,,,,,,,,,1.76,1.24,1.25*1D
$GPGSV,3,1,12,01,70,146,37,04,,,33,07,63,218,37,08,35,045,31*4D
$GPGSV,3,2,12,11,81,039,22,17,19,258,31,18,,,26,22,17,133,31*43
$GPGSV,3,3,12,27,08,058,,28,30,315,27,30,54,290,37,41,41,230,35*7B
$GLGSV,2,1,05,78,18,143,28,79,70,124,37,82,70,297,35,83,29,233,27*63
$GLGSV,2,2,05,,,,18*69
$GNGLL,3030.86333,N,11420.30742,E,134845.00,A,A*71
$GNRMC,134846.00,A,3030.86322,N,11420.30734,E,0.059,,200119,,,A*6D
$GNVTG,,T,,M,0.059,N,0.109,K,A*39
$GNGGA,134846.00,3030.86322,N,11420.30734,E,1,11,1.24,20.0,M,-10.8,M,,*57
$GNGSA,A,3,07,01,17,22,30,28,11,,,,,,1.76,1.24,1.25*14
$GNGSA,A,3,82,79,83,78,,,,,,,,,1.76,1.24,1.25*1D
$GPGSV,3,1,12,01,70,146,37,04,,,33,07,63,218,37,08,35,045,31*4D
$GPGSV,3,2,12,11,81,039,22,17,19,258,31,18,,,26,22,17,133,32*40
$GPGSV,3,3,12,27,08,058,,28,30,315,27,30,54,290,38,41,41,230,35*74
$GLGSV,1,1,04,78,18,143,28,79,70,124,37,82,70,297,34,83,29,233,26*61
$GNGLL,3030.86322,N,11420.30734,E,134846.00,A,A*73
$GNRMC,134847.00,A,3030.86319,N,11420.30728,E,0.169,,200119,,,A*6B
$GNVTG,,T,,M,0.169,N,0.313,K,A*32
$GNGGA,134847.00,3030.86319,N,11420.30728,E,1,11,2.25,19.9,M,-10.8,M,,*52
$GNGSA,A,3,07,01,17,22,30,28,11,,,,,,2.86,2.25,1.78*12
$GNGSA,A,3,82,79,83,78,,,,,,,,,2.86,2.25,1.78*1B
$GPGSV,3,1,12,01,70,146,37,04,,,33,07,63,218,37,08,35,045,31*4D
$GPGSV,3,2,12,11,81,039,22,17,19,258,32,18,,,27,22,17,133,32*42
$GPGSV,3,3,12,27,08,058,,28,30,315,27,30,54,290,38,41,41,230,35*74
$GLGSV,1,1,04,78,18,143,28,79,70,124,37,82,70,297,35,83,29,233,25*63
$GNGLL,3030.86319,N,11420.30728,E,134847.00,A,A*77
$GNRMC,134848.00,A,3030.86313,N,11420.30722,E,0.025,,200119,,,A*6D
$GNVTG,,T,,M,0.025,N,0.046,K,A*38
$GNGGA,134848.00,3030.86313,N,11420.30722,E,1,11,1.50,19.9,M,-10.8,M,,*5C
$GNGSA,A,3,07,01,17,22,30,28,11,,,,,,1.95,1.50,1.25*1A
$GNGSA,A,3,82,79,83,78,,,,,,,,,1.95,1.50,1.25*13
$GPGSV,3,1,12,01,70,146,37,04,,,33,07,63,218,37,08,35,045,31*4D
$GPGSV,3,2,12,11,81,039,21,17,19,258,32,18,,,27,22,17,133,33*40
$GPGSV,3,3,12,27,08,058,,28,30,315,27,30,54,290,38,41,41,230,35*74
$GLGSV,1,1,04,78,18,143,28,79,70,124,37,82,70,297,35,83,29,233,26*60
$GNGLL,3030.86313,N,11420.30722,E,134848.00,A,A*78
$GNRMC,134849.00,A,3030.86303,N,11420.30713,E,0.040,,200119,,,A*6C
$GNVTG,,T,,M,0.040,N,0.075,K,A*3B
$GNGGA,134849.00,3030.86303,N,11420.30713,E,1,11,1.24,19.8,M,-10.8,M,,*5C
$GNGSA,A,3,07,01,17,22,30,28,11,,,,,,1.76,1.24,1.25*14
$GNGSA,A,3,82,79,83,78,,,,,,,,,1.76,1.24,1.25*1D
$GPGSV,3,1,12,01,70,146,36,04,,,33,07,63,218,37,08,35,045,30*4D
$GPGSV,3,2,12,11,81,039,21,17,19,258,33,18,,,27,22,17,133,33*41
$GPGSV,3,3,12,27,08,058,,28,30,315,27,30,54,290,38,41,41,230,35*74
$GLGSV,1,1,04,78,18,143,27,79,70,124,38,82,70,297,35,83,29,233,27*61
$GNGLL,3030.86303,N,11420.30713,E,134849.00,A,A*7A
$GNRMC,134850.00,A,3030.86293,N,11420.30704,E,0.076,,200119,,,A*6F
$GNVTG,,T,,M,0.076,N,0.142,K,A*3B
$GNGGA,134850.00,3030.86293,N,11420.30704,E,1,11,1.24,19.8,M,-10.8,M,,*5A
$GNGSA,A,3,07,01,17,22,30,28,11,,,,,,1.76,1.24,1.25*14
$GNGSA,A,3,82,79,83,78,,,,,,,,,1.76,1.24,1.25*1D
$GPGSV,3,1,12,01,70,146,36,04,,,33,07,63,218,37,08,35,045,30*4D
$GPGSV,3,2,12,11,81,039,21,17,19,258,33,18,,,27,22,17,133,33*41
$GPGSV,3,3,12,27,08,058,,28,30,315,27,30,54,290,38,41,41,230,35*74
$GLGSV,1,1,04,78,18,143,27,79,70,124,38,82,70,297,36,83,29,233,28*6D
$GNGLL,3030.86293,N,11420.30704,E,134850.00,A,A*7C
$GNRMC,134851.00,A,3030.86279,N,11420.30690,E,0.173,,200119,,,A*62
$GNVTG,,T,,M,0.173,N,0.321,K,A*38
$GNGGA,134851.00,3030.86279,N,11420.30690,E,1,11,1.24,19.7,M,-10.8,M,,*5C
$GNGSA,A,3,07,01,17,22,30,28,11,,,,,,1.76,1.24,1.25*14
$GNGSA,A,3,82,79,83,78,,,,,,,,,1.76,1.24,1.25*1D
$GPGSV,3,1,12,01,70,146,36,04,,,33,07,63,218,37,08,35,045,30*4D
$GPGSV,3,2,12,11,81,039,20,17,19,258,33,18,,,26,22,17,133,32*40
$GPGSV,3,3,12,27,08,058,,28,30,315,27,30,54,290,38,41,41,230,35*74
$GLGSV,1,1,04,78,18,143,26,79,70,124,39,82,70,297,37,83,29,233,32*67
$GNGLL,3030.86279,N,11420.30690,E,134851.00,A,A*75
$GNRMC,134852.00,A,3030.86270,N,11420.30682,E,0.169,,200119,,,A*60
$GNVTG,,T,,M,0.169,N,0.314,K,A*35
$GNGGA,134852.00,3030.86270,N,11420.30682,E,1,11,1.24,19.7,M,-10.8,M,,*55
$GNGSA,A,3,07,01,17,22,30,28,11,,,,,,1.76,1.24,1.25*14
$GNGSA,A,3,82,79,83,78,,,,,,,,,1.76,1.24,1.25*1D
$GPGSV,3,1,12,01,70,146,35,04,,,34,07,63,218,38,08,35,045,30*46
$GPGSV,3,2,12,11,81,039,20,17,19,258,33,18,,,26,22,17,133,31*43
$GPGSV,3,3,12,27,08,058,,28,30,315,31,30,54,290,32,41,41,230,38*74
$GLGSV,1,1,04,78,18,143,25,79,70,125,37,82,70,297,37,83,29,233,33*6A
$GNGLL,3030.86270,N,11420.30682,E,134852.00,A,A*7C
$GNRMC,134853.00,A,3030.86267,N,11420.30676,E,0.084,,200119,,,A*6E
$GNVTG,,T,,M,0.084,N,0.156,K,A*33
$GNGGA,134853.00,3030.86267,N,11420.30676,E,1,11,1.24,19.7,M,-10.8,M,,*59
$GNGSA,A,3,07,01,17,22,30,28,11,,,,,,1.76,1.24,1.25*14
$GNGSA,A,3,82,79,83,78,,,,,,,,,1.76,1.24,1.25*1D
$GPGSV,3,1,12,01,70,146,36,04,,,28,07,63,218,35,08,35,045,29*4D
$GPGSV,3,2,12,11,81,039,19,17,19,258,30,18,,,25,22,17,133,31*49
$GPGSV,3,3,12,27,08,058,,28,30,315,30,30,54,290,36,41,41,230,28*70
$GLGSV,1,1,04,78,18,143,26,79,70,125,38,82,70,298,37,83,29,233,27*6C
$GNGLL,3030.86267,N,11420.30676,E,134853.00,A,A*70
$GNRMC,134854.00,A,3030.86258,N,11420.30665,E,0.203,,200119,,,A*6A
$GNVTG,,T,,M,0.203,N,0.376,K,A*3E
$GNGGA,134854.00,3030.86258,N,11420.30665,E,1,11,1.24,19.6,M,-10.8,M,,*51
$GNGSA,A,3,07,01,17,22,30,28,11,,,,,,1.76,1.24,1.25*14
$GNGSA,A,3,82,79,83,78,,,,,,,,,1.76,1.24,1.25*1D
$GPGSV,3,1,12,01,70,146,37,04,,,25,07,63,218,37,08,35,045,30*4B
$GPGSV,3,2,12,11,81,039,19,17,19,258,25,18,,,32,22,17,133,29*42
$GPGSV,3,3,12,27,08,058,,28,30,315,31,30,54,290,36,41,41,230,33*7B
$GLGSV,1,1,04,78,18,143,27,79,70,125,40,82,70,298,39,83,30,233,24*67
$GNGLL,3030.86258,N,11420.30665,E,134854.00,A,A*79
$GNRMC,134855.00,A,3030.86257,N,11420.30666,E,0.046,,200119,,,A*64
$GNVTG,,T,,M,0.046,N,0.085,K,A*32
$GNGGA,134855.00,3030.86257,N,11420.30666,E,1,11,1.33,19.6,M,-10.8,M,,*5A
$GNGSA,A,3,07,01,17,22,30,28,11,,,,,,1.88,1.33,1.33*14
$GNGSA,A,3,82,79,83,78,,,,,,,,,1.88,1.33,1.33*1D
$GPGSV,3,1,12,01,70,146,38,04,,,26,07,63,218,36,08,35,045,31*47
$GPGSV,3,2,12,11,81,039,18,17,19,258,23,18,,,31,22,17,133,27*48
$GPGSV,3,3,12,27,08,058,,28,30,315,30,30,54,290,35,41,41,230,33*79
$GLGSV,1,1,04,78,18,143,27,79,70,125,38,82,70,298,37,83,30,233,22*60
$GNGLL,3030.86257,N,11420.30666,E,134855.00,A,A*74
$GNRMC,134856.00,A,3030.86258,N,11420.30665,E,0.086,,200119,,,A*67
$GNVTG,,T,,M,0.086,N,0.160,K,A*34
$GNGGA,134856.00,3030.86258,N,11420.30665,E,1,11,1.33,19.5,M,-10.8,M,,*56
$GNGSA,A,3,07,01,17,22,30,28,11,,,,,,1.88,1.33,1.33*14
$GNGSA,A,3,82,79,83,78,,,,,,,,,1.88,1.33,1.33*1D
$GPGSV,3,1,12,01,70,146,39,04,,,26,07,63,218,35,08,35,045,30*44
$GPGSV,3,2,12,11,81,039,19,17,19,258,23,18,,,31,22,17,133,24*4A
$GPGSV,3,3,12,27,08,058,,28,30,315,29,30,54,290,35,41,41,230,34*76
$GLGSV,1,1,04,78,18,143,27,79,70,125,38,82,70,298,37,83,30,233,21*63
$GNGLL,3030.86258,N,11420.30665,E,134856.00,A,A*7B
$GNRMC,134857.00,A,3030.86259,N,11420.30667,E,0.258,,200119,,,A*64
$GNVTG,,T,,M,0.258,N,0.478,K,A*39
$GNGGA,134857.00,3030.86259,N,11420.30667,E,1,11,1.33,19.5,M,-10.8,M,,*54
$GNGSA,A,3,07,01,17,22,30,28,11,,,,,,1.88,1.33,1.33*14
$GNGSA,A,3,82,79,83,78,,,,,,,,,1.88,1.33,1.33*1D
$GPGSV,3,1,12,01,70,146,38,04,,,25,07,63,218,35,08,35,045,30*46
$GPGSV,3,2,12,11,81,039,19,17,19,258,23,18,,,30,22,17,133,23*4C
$GPGSV,3,3,12,27,08,058,,28,30,315,29,30,54,290,35,41,41,230,33*71
$GLGSV,1,1,04,78,18,143,28,79,70,125,38,82,70,298,36,83,30,233,22*6E
$GNGLL,3030.86259,N,11420.30667,E,134857.00,A,A*79
$GNRMC,134858.00,A,3030.86264,N,11420.30668,E,0.284,,200119,,,A*6B
$GNVTG,,T,,M,0.284,N,0.525,K,A*31
$GNGGA,134858.00,3030.86264,N,11420.30668,E,1,11,1.24,19.3,M,-10.8,M,,*5A
$GNGSA,A,3,07,01,17,22,30,28,11,,,,,,1.76,1.24,1.25*14
$GNGSA,A,3,82,79,83,78,,,,,,,,,1.76,1.24,1.25*1D
$GPGSV,3,1,12,01,70,146,39,04,,,25,07,63,218,34,08,35,045,30*46
$GPGSV,3,2,12,11,81,039,19,17,19,258,24,18,,,30,22,17,133,21*49
$GPGSV,3,3,12,27,08,058,,28,30,315,29,30,54,290,35,41,41,230,33*71
$GLGSV,1,1,04,78,18,143,29,79,70,125,37,82,70,298,36,83,30,233,22*60
$GNGLL,3030.86264,N,11420.30668,E,134858.00,A,A*77
$GNRMC,134859.00,A,3030.86271,N,11420.30667,E,0.104,,200119,,,A*6A
$GNVTG,,T,,M,0.104,N,0.192,K,A*32
$GNGGA,134859.00,3030.86271,N,11420.30667,E,1,11,1.24,19.0,M,-10.8,M,,*53
$GNGSA,A,3,07,01,17,22,30,28,11,,,,,,1.76,1.24,1.25*14
$GNGSA,A,3,82,79,83,78,,,,,,,,,1.76,1.24,1.25*1D
$GPGSV,3,1,12,01,70,146,39,04,,,25,07,63,218,34,08,35,045,31*47
$GPGSV,3,2,12,11,81,039,21,17,19,258,25,18,,,30,22,17,133,22*40
$GPGSV,3,3,12,27,08,058,,28,30,315,28,30,54,290,35,41,41,230,33*70
$GLGSV,1,1,04,78,18,143,29,79,70,125,37,82,70,298,36,83,30,233,23*61
$GNGLL,3030.86271,N,11420.30667,E,134859.00,A,A*7D
$GNRMC,134900.00,A,3030.86276,N,11420.30661,E,0.045,,200119,,,A*62
$GNVTG,,T,,M,0.045,N,0.084,K,A*30
$GNGGA,134900.00,3030.86276,N,11420.30661,E,1,11,1.24,18.8,M,-10.8,M,,*56
$GNGSA,A,3,07,01,17,22,30,28,11,,,,,,1.76,1.24,1.25*14
$GNGSA,A,3,82,79,83,78,,,,,,,,,1.76,1.24,1.25*1D
$GPGSV,3,1,12,01,70,146,39,04,,,26,07,63,218,34,08,35,045,30*45
$GPGSV,3,2,12,11,81,039,21,17,19,258,26,18,,,30,22,17,133,23*42
$GPGSV,3,3,12,27,08,058,,28,30,315,27,30,54,290,35,41,41,230,33*7F
$GLGSV,1,1,04,78,18,143,28,79,70,125,37,82,70,298,36,83,30,233,23*60
$GNGLL,3030.86276,N,11420.30661,E,134900.00,A,A*71
$GNRMC,134901.00,A,3030.86283,N,11420.30659,E,0.158,,200119,,,A*6F
$GNVTG,,T,,M,0.158,N,0.293,K,A*39
$GNGGA,134901.00,3030.86283,N,11420.30659,E,1,11,1.24,18.6,M,-10.8,M,,*58
$GNGSA,A,3,07,01,17,22,30,28,11,,,,,,1.76,1.24,1.25*14
$GNGSA,A,3,82,79,83,78,,,,,,,,,1.76,1.24,1.25*1D
$GPGSV,3,1,12,01,70,146,39,04,,,25,07,63,218,33,08,35,045,30*41
$GPGSV,3,2,12,11,81,039,21,17,19,258,25,18,,,30,22,17,133,25*47
$GPGSV,3,3,12,27,08,058,,28,30,315,28,30,54,290,34,41,41,230,33*71
$GLGSV,1,1,04,78,18,143,29,79,70,126,39,82,70,298,38,83,30,233,25*64
$GNGLL,3030.86283,N,11420.30659,E,134901.00,A,A*71
$GNRMC,134902.00,A,3030.86291,N,11420.30664,E,0.164,,200119,,,A*6E
$GNVTG,,T,,M,0.164,N,0.305,K,A*38
$GNGGA,134902.00,3030.86291,N,11420.30664,E,1,11,1.24,18.4,M,-10.8,M,,*54
$GNGSA,A,3,07,01,17,22,30,28,11,,,,,,1.76,1.24,1.25*14
$GNGSA,A,3,82,79,83,78,,,,,,,,,1.76,1.24,1.25*1D
$GPGSV,3,1,12,01,70,146,38,04,,,25,07,63,218,33,08,35,045,30*40
$GPGSV,3,2,12,11,81,039,19,17,19,258,25,18,,,30,22,17,133,25*4C
$GPGSV,3,3,12,27,08,058,,28,30,315,28,30,54,290,34,41,41,230,33*71
$GLGSV,1,1,04,78,18,143,30,79,70,126,40,82,70,298,39,83,30,233,26*60
$GNGLL,3030.86291,N,11420.30664,E,134902.00,A,A*7F
$GNRMC,134903.00,A,3030.86295,N,11420.30664,E,0.032,,200119,,,A*69
$GNVTG,,T,,M,0.032,N,0.059,K,A*30
$GNGGA,134903.00,3030.86295,N,11420.30664,E,1,11,1.24,18.4,M,-10.8,M,,*51
$GNGSA,A,3,07,01,17,22,30,28,11,,,,,,1.76,1.24,1.25*14
$GNGSA,A,3,82,79,83,78,,,,,,,,,1.76,1.24,1.25*1D
$GPGSV,3,1,12,01,70,146,37,04,,,25,07,63,218,33,08,35,045,30*4F
$GPGSV,3,2,12,11,81,038,20,17,19,258,26,18,,,31,22,17,133,24*44
$GPGSV,3,3,12,27,08,058,,28,30,315,28,30,54,290,35,41,41,230,34*77
$GLGSV,1,1,04,78,18,143,28,79,70,126,36,82,70,298,36,83,30,233,26*67
$GNGLL,3030.86295,N,11420.30664,E,134903.00,A,A*7A
$GNRMC,134904.00,A,3030.86302,N,11420.30672,E,0.165,,200119,,,A*65
$GNVTG,,T,,M,0.165,N,0.306,K,A*3A
$GNGGA,134904.00,3030.86302,N,11420.30672,E,1,11,1.24,18.5,M,-10.8,M,,*5F
$GNGSA,A,3,07,01,17,22,30,28,11,,,,,,1.76,1.24,1.25*14
$GNGSA,A,3,82,79,83,78,,,,,,,,,1.76,1.24,1.25*1D
$GPGSV,3,1,12,01,70,146,38,04,,,24,07,63,218,33,08,35,045,30*41
$GPGSV,3,2,12,11,81,038,20,17,19,258,27,18,,,32,22,17,133,24*46
$GPGSV,3,3,12,27,08,058,,28,30,315,30,30,54,290,35,41,41,230,34*7E
$GLGSV,1,1,04,78,18,143,29,79,70,126,39,82,70,298,39,83,30,233,26*66
$GNGLL,3030.86302,N,11420.30672,E,134904.00,A,A*75
$GNRMC,134905.00,A,3030.86314,N,11420.30680,E,0.110,,200119,,,A*6C
$GNVTG,,T,,M,0.110,N,0.203,K,A*3C
$GNGGA,134905.00,3030.86314,N,11420.30680,E,1,11,1.24,18.8,M,-10.8,M,,*59
$GNGSA,A,3,07,01,17,22,30,28,11,,,,,,1.76,1.24,1.25*14
$GNGSA,A,3,82,79,83,78,,,,,,,,,1.76,1.24,1.25*1D
$GPGSV,3,1,12,01,70,146,38,04,,,23,07,63,218,36,08,35,045,30*43
$GPGSV,3,2,12,11,81,038,21,17,19,258,28,18,,,31,22,17,133,24*4B
$GPGSV,3,3,12,27,08,058,,28,30,315,30,30,54,290,35,41,41,230,34*7E
$GLGSV,1,1,04,78,18,143,32,79,70,126,39,82,70,298,38,83,30,233,25*6E
$GNGLL,3030.86314,N,11420.30680,E,134905.00,A,A*7E
$GNRMC,134906.00,A,3030.86334,N,11420.30691,E,0.047,,200119,,,A*6E
$GNVTG,,T,,M,0.047,N,0.087,K,A*31
$GNGGA,134906.00,3030.86334,N,11420.30691,E,1,11,1.24,19.3,M,-10.8,M,,*52
$GNGSA,A,3,07,01,17,22,30,28,11,,,,,,1.76,1.24,1.25*14
$GNGSA,A,3,82,79,83,78,,,,,,,,,1.76,1.24,1.25*1D
$GPGSV,3,1,12,01,70,146,38,04,,,26,07,63,218,36,08,35,045,30*46
$GPGSV,3,2,12,11,81,038,23,17,19,258,34,18,,,29,22,17,133,31*49
$GPGSV,3,3,12,27,08,058,,28,30,315,31,30,54,290,39,41,41,230,37*70
$GLGSV,1,1,04,78,18,143,33,79,70,126,38,82,70,298,40,83,30,233,27*63
$GNGLL,3030.86334,N,11420.30691,E,134906.00,A,A*7F
$GNRMC,134907.00,A,3030.86343,N,11420.30685,E,0.070,,200119,,,A*6E
$GNVTG,,T,,M,0.070,N,0.130,K,A*38
$GNGGA,134907.00,3030.86343,N,11420.30685,E,1,11,1.33,19.5,M,-10.8,M,,*56
$GNGSA,A,3,07,01,17,22,30,28,11,,,,,,1.88,1.33,1.33*14
$GNGSA,A,3,82,79,83,78,,,,,,,,,1.88,1.33,1.33*1D
$GPGSV,3,1,12,01,70,146,39,04,,,30,07,63,218,37,08,35,045,31*40
$GPGSV,3,2,12,11,81,038,25,17,19,258,35,18,,,30,22,17,133,31*46
$GPGSV,3,3,12,27,08,058,,28,30,315,31,30,54,290,39,41,41,230,37*70
$GLGSV,1,1,04,78,18,143,32,79,70,126,40,82,70,298,40,83,30,233,27*6D
$GNGLL,3030.86343,N,11420.30685,E,134907.00,A,A*7B
$GNRMC,134908.00,A,3030.86351,N,11420.30685,E,0.022,,200119,,,A*65
$GNVTG,,T,,M,0.022,N,0.041,K,A*38
$GNGGA,134908.00,3030.86351,N,11420.30685,E,1,11,1.24,19.6,M,-10.8,M,,*5F
$GNGSA,A,3,07,01,17,22,30,28,11,,,,,,1.76,1.24,1.25*14
$GNGSA,A,3,82,79,83,78,,,,,,,,,1.76,1.24,1.25*1D
$GPGSV,3,1,12,01,70,146,38,04,,,29,07,63,218,37,08,35,045,29*40
$GPGSV,3,2,12,11,81,038,25,17,19,258,34,18,,,31,22,17,133,29*4F
$GPGSV,3,3,12,27,08,058,,28,30,315,30,30,54,290,36,41,41,230,36*7F
$GLGSV,1,1,04,78,18,143,30,79,70,126,40,82,70,298,40,83,30,233,28*60
$GNGLL,3030.86351,N,11420.30685,E,134908.00,A,A*77
$GNRMC,134909.00,A,3030.86354,N,11420.30686,E,0.034,,200119,,,A*65
$GNVTG,,T,,M,0.034,N,0.063,K,A*3F
$GNGGA,134909.00,3030.86354,N,11420.30686,E,1,11,1.24,19.6,M,-10.8,M,,*58
$GNGSA,A,3,07,01,17,22,30,28,11,,,,,,1.76,1.24,1.25*14
$GNGSA,A,3,82,79,83,78,,,,,,,,,1.76,1.24,1.25*1D
$GPGSV,3,1,12,01,70,146,38,04,,,29,07,63,218,37,08,35,045,29*40
$GPGSV,3,2,12,11,81,038,25,17,19,258,33,18,,,30,22,17,133,27*47
$GPGSV,3,3,12,27,08,058,,28,30,315,30,30,54,290,37,41,41,230,36*7E
$GLGSV,1,1,04,78,18,143,29,79,70,126,39,82,70,298,39,83,30,233,27*67
$GNGLL,3030.86354,N,11420.30686,E,134909.00,A,A*70
$GNRMC,134910.00,A,3030.86354,N,11420.30685,E,0.073,,200119,,,A*6D
$GNVTG,,T,,M,0.073,N,0.135,K,A*3E
$GNGGA,134910.00,3030.86354,N,11420.30685,E,1,11,1.24,19.6,M,-10.8,M,,*53
$GNGSA,A,3,07,01,17,22,30,28,11,,,,,,1.76,1.24,1.25*14
$GNGSA,A,3,82,79,83,78,,,,,,,,,1.76,1.24,1.25*1D
$GPGSV,3,1,12,01,70,146,39,04,,,30,07,63,218,37,08,35,045,30*41
$GPGSV,3,2,12,11,81,038,26,17,19,258,33,18,,,31,22,17,133,25*47
$GPGSV,3,3,12,27,08,058,,28,31,315,30,30,54,290,37,41,41,230,37*7E
$GLGSV,1,1,04,78,18,143,27,79,70,126,39,82,70,298,37,83,30,233,25*65
$GNGLL,3030.86354,N,11420.30685,E,134910.00,A,A*7B
$GNRMC,134911.00,A,3030.86352,N,11420.30683,E,0.112,,200119,,,A*6A
$GNVTG,,T,,M,0.112,N,0.207,K,A*3A
$GNGGA,134911.00,3030.86352,N,11420.30683,E,1,11,1.33,19.7,M,-10.8,M,,*55
$GNGSA,A,3,07,01,17,22,30,28,11,,,,,,1.97,1.33,1.45*1B
$GNGSA,A,3,82,79,83,78,,,,,,,,,1.97,1.33,1.45*12
$GPGSV,3,1,12,01,70,146,39,04,,,30,07,63,218,37,08,35,045,30*41
$GPGSV,3,2,12,11,81,038,26,17,19,258,32,18,,,30,22,17,133,23*41
$GPGSV,3,3,12,27,08,058,,28,31,315,31,30,54,290,38,41,41,230,37*70
$GLGSV,1,1,04,78,18,143,27,79,70,126,38,82,70,298,37,83,30,233,24*65
$GNGLL,3030.86352,N,11420.30683,E,134911.00,A,A*7A
$GNRMC,134912.00,A,3030.86358,N,11420.30689,E,0.056,,200119,,,A*68
$GNVTG,,T,,M,0.056,N,0.104,K,A*3B
$GNGGA,134912.00,3030.86358,N,11420.30689,E,1,11,1.33,20.0,M,-10.8,M,,*5B
$GNGSA,A,3,07,01,17,22,30,28,11,,,,,,1.97,1.33,1.45*1B
$GNGSA,A,3,82,79,83,78,,,,,,,,,1.97,1.33,1.45*12
$GPGSV,3,1,12,01,70,146,39,04,,,31,07,63,218,36,08,35,045,31*40
$GPGSV,3,2,12,11,81,038,26,17,19,258,31,18,,,31,22,17,133,20*40
$GPGSV,3,3,12,27,08,058,,28,31,315,31,30,54,289,38,41,41,230,37*78
$GLGSV,1,1,04,78,18,143,26,79,70,126,38,82,70,298,37,83,30,233,24*64
$GNGLL,3030.86358,N,11420.30689,E,134912.00,A,A*79
$GNRMC,134913.00,A,3030.86353,N,11420.30681,E,0.048,,200119,,,A*65
$GNVTG,,T,,M,0.048,N,0.089,K,A*30
$GNGGA,134913.00,3030.86353,N,11420.30681,E,1,11,1.41,20.0,M,-10.8,M,,*5C
$GNGSA,A,3,07,01,17,22,30,28,11,,,,,,2.08,1.41,1.53*1C
$GNGSA,A,3,82,79,83,78,,,,,,,,,2.08,1.41,1.53*15
$GPGSV,4,1,13,01,70,146,38,04,,,31,07,63,218,35,08,35,045,31*44
$GPGSV,4,2,13,09,02,207,,11,81,038,24,17,19,258,30,18,,,30*4F
$GPGSV,4,3,13,22,17,133,20,27,08,058,,28,31,315,31,30,54,289,37*71
$GPGSV,4,4,13,41,41,230,37*4E
$GLGSV,1,1,04,78,18,143,27,79,70,126,39,82,70,298,37,83,30,233,23*63
$GNGLL,3030.86353,N,11420.30681,E,134913.00,A,A*7B
$GNRMC,134914.00,A,3030.86353,N,11420.30680,E,0.167,,200119,,,A*6F
$GNVTG,,T,,M,0.167,N,0.309,K,A*37
$GNGGA,134914.00,3030.86353,N,11420.30680,E,1,11,1.41,20.1,M,-10.8,M,,*5B
$GNGSA,A,3,07,01,17,22,30,28,11,,,,,,2.08,1.41,1.53*1C
$GNGSA,A,3,82,79,83,78,,,,,,,,,2.08,1.41,1.53*15
$GPGSV,4,1,13,01,70,146,35,04,,,22,07,63,218,32,08,35,045,30*4D
$GPGSV,4,2,13,09,02,207,,11,81,038,24,17,19,258,28,18,,,29*4E
$GPGSV,4,3,13,22,17,133,21,27,08,058,,28,31,315,30,30,54,289,36*70
$GPGSV,4,4,13,41,41,230,33*4A
$GLGSV,1,1,04,78,18,143,26,79,70,126,36,82,70,298,34,83,30,233,21*6C
$GNGLL,3030.86353,N,11420.30680,E,134914.00,A,A*7D
$GNRMC,134915.00,A,3030.86342,N,11420.30666,E,0.305,,200119,,,A*60
$GNVTG,,T,,M,0.305,N,0.565,K,A*3D
$GNGGA,134915.00,3030.86342,N,11420.30666,E,1,11,1.41,20.1,M,-10.8,M,,*52
$GNGSA,A,3,07,01,17,22,30,28,11,,,,,,2.08,1.41,1.53*1C
$GNGSA,A,3,82,79,83,78,,,,,,,,,2.08,1.41,1.53*15
$GPGSV,4,1,13,01,70,146,32,04,,,29,07,63,218,27,08,35,045,28*4C
$GPGSV,4,2,13,09,02,207,,11,81,038,22,17,19,258,22,18,,,28*43
$GPGSV,4,3,13,22,17,133,22,27,08,058,,28,31,315,30,30,54,289,33*76
$GPGSV,4,4,13,41,41,230,29*41
$GLGSV,2,1,05,78,18,143,23,79,70,126,37,80,50,334,,82,70,298,34*6A
$GLGSV,2,2,05,83,30,233,28*50
$GNGLL,3030.86342,N,11420.30666,E,134915.00,A,A*74
$GNRMC,134916.00,A,3030.86336,N,11420.30661,E,0.263,,200119,,,A*66
$GNVTG,,T,,M,0.263,N,0.487,K,A*31
$GNGGA,134916.00,3030.86336,N,11420.30661,E,1,11,1.33,19.8,M,-10.8,M,,*53
$GNGSA,A,3,07,01,17,22,30,28,11,,,,,,1.88,1.33,1.33*14
$GNGSA,A,3,82,79,83,78,,,,,,,,,1.88,1.33,1.33*1D
$GPGSV,4,1,13,01,70,146,36,04,,,30,07,63,218,35,08,35,045,27*4C
$GPGSV,4,2,13,09,02,207,,11,81,038,22,17,19,258,31,18,,,27*4E
$GPGSV,4,3,13,22,17,133,22,27,08,058,,28,31,315,30,30,54,289,36*73
$GPGSV,4,4,13,41,41,230,34*4D
$GLGSV,2,1,05,78,18,143,20,79,70,126,36,80,50,334,,82,70,298,34*68
$GLGSV,2,2,05,83,30,233,19*52
$GNGLL,3030.86336,N,11420.30661,E,134916.00,A,A*73
$GNRMC,134917.00,A,3030.86333,N,11420.30653,E,0.049,,200119,,,A*69
$GNVTG,,T,,M,0.049,N,0.091,K,A*38
$GNGGA,134917.00,3030.86333,N,11420.30653,E,1,11,1.33,19.6,M,-10.8,M,,*58
$GNGSA,A,3,07,01,17,22,30,28,11,,,,,,1.88,1.33,1.33*14
$GNGSA,A,3,82,79,83,78,,,,,,,,,1.88,1.33,1.33*1D
$GPGSV,4,1,13,01,70,146,35,04,,,30,07,63,218,32,08,35,045,28*47
$GPGSV,4,2,13,09,02,207,,11,81,038,23,17,19,258,31,18,,,27*4F
$GPGSV,4,3,13,22,17,133,23,27,08,058,,28,31,315,30,30,54,289,35*71
$GPGSV,4,4,13,41,41,230,32*4B
$GLGSV,2,1,05,78,18,143,18,79,70,126,39,80,50,334,,82,70,298,34*6C
$GLGSV,2,2,05,83,30,233,22*5A
$GNGLL,3030.86333,N,11420.30653,E,134917.00,A,A*76
$GNRMC,134918.00,A,3030.86334,N,11420.30650,E,0.058,,200119,,,A*62
$GNVTG,,T,,M,0.058,N,0.107,K,A*36
$GNGGA,134918.00,3030.86334,N,11420.30650,E,1,11,1.49,19.4,M,-10.8,M,,*5C
$GNGSA,A,3,07,01,17,22,30,28,11,,,,,,1.95,1.49,1.25*12
$GNGSA,A,3,82,79,83,78,,,,,,,,,1.95,1.49,1.25*1B
$GPGSV,4,1,13,01,70,146,35,04,,,31,07,63,218,33,08,35,045,28*47
$GPGSV,4,2,13,09,02,207,,11,81,038,23,17,19,258,31,18,,,27*4F
$GPGSV,4,3,13,22,17,133,24,27,08,058,,28,31,315,31,30,54,289,35*77
$GPGSV,4,4,13,41,41,230,32*4B
$GLGSV,2,1,05,78,18,143,22,79,70,126,40,80,50,334,,82,70,298,36*69
$GLGSV,2,2,05,83,30,233,29*51
$GNGLL,3030.86334,N,11420.30650,E,134918.00,A,A*7D
$GNRMC,134919.00,A,3030.86333,N,11420.30645,E,0.104,,200119,,,A*68
$GNVTG,,T,,M,0.104,N,0.193,K,A*33
$GNGGA,134919.00,3030.86333,N,11420.30645,E,1,11,1.33,19.2,M,-10.8,M,,*55
$GNGSA,A,3,07,01,17,22,30,28,11,,,,,,1.88,1.33,1.33*14
$GNGSA,A,3,82,79,83,78,,,,,,,,,1.88,1.33,1.33*1D
$GPGSV,4,1,13,01,70,146,35,04,,,22,07,63,218,37,08,35,045,28*41
$GPGSV,4,2,13,09,02,207,,11,81,038,22,17,19,258,26,18,,,30*4E
$GPGSV,4,3,13,22,17,133,26,27,08,058,,28,31,315,31,30,54,289,34*74
$GPGSV,4,4,13,41,41,230,31*48
$GLGSV,2,1,06,78,18,143,31,79,70,126,39,80,50,334,,81,37,024,*66
$GLGSV,2,2,06,82,70,298,36,83,30,233,24*64
$GNGLL,3030.86333,N,11420.30645,E,134919.00,A,A*7F
$GNRMC,134920.00,A,3030.86332,N,11420.30642,E,0.084,,200119,,,A*6D
$GNVTG,,T,,M,0.084,N,0.156,K,A*33
$GNGGA,134920.00,3030.86332,N,11420.30642,E,1,11,1.33,19.3,M,-10.8,M,,*58
$GNGSA,A,3,07,01,17,22,30,28,11,,,,,,1.88,1.33,1.33*14
$GNGSA,A,3,82,79,83,78,,,,,,,,,1.88,1.33,1.33*1D
$GPGSV,4,1,13,01,70,146,35,04,,,19,07,63,218,36,08,35,045,30*41
$GPGSV,4,2,13,09,02,207,,11,81,038,22,17,19,258,27,18,,,30*4F
$GPGSV,4,3,13,22,17,133,25,27,08,058,,28,31,315,30,30,54,289,34*76
$GPGSV,4,4,13,41,41,230,31*48
$GLGSV,2,1,06,78,18,143,32,79,70,126,38,80,50,334,,81,37,024,30*67
$GLGSV,2,2,06,82,70,298,35,83,30,233,24*67
$GNGLL,3030.86332,N,11420.30642,E,134920.00,A,A*73
$GNRMC,134921.00,A,3030.86335,N,11420.30645,E,0.058,,200119,,,A*6D
$GNVTG,,T,,M,0.058,N,0.107,K,A*36
$GNGGA,134921.00,3030.86335,N,11420.30645,E,1,11,1.33,19.5,M,-10.8,M,,*5F
$GNGSA,A,3,07,01,17,22,30,28,11,,,,,,1.88,1.33,1.33*14
$GNGSA,A,3,82,79,83,78,,,,,,,,,1.88,1.33,1.33*1D
$GPGSV,4,1,13,01,70,146,35,04,,,15,07,63,218,35,08,35,045,30*4E
$GPGSV,4,2,13,09,02,207,,11,81,038,20,17,19,258,29,18,,,30*43
$GPGSV,4,3,13,22,17,133,25,27,08,058,,28,31,315,29,30,54,289,34*7E
$GPGSV,4,4,13,41,41,230,31*48
$GLGSV,2,1,06,78,18,143,31,79,70,126,36,80,50,334,,81,37,024,30*6A
$GLGSV,2,2,06,82,70,298,34,83,30,233,25*67
$GNGLL,3030.86335,N,11420.30645,E,134921.00,A,A*72
$GNRMC,134922.00,A,3030.86338,N,11420.30647,E,0.033,,200119,,,A*6C
$GNVTG,,T,,M,0.033,N,0.061,K,A*3A
$GNGGA,134922.00,3030.86338,N,11420.30647,E,1,10,1.33,19.6,M,-10.8,M,,*51
$GNGSA,A,3,07,01,22,30,28,11,,,,,,,1.88,1.33,1.33*12
$GNGSA,A,3,82,79,83,78,,,,,,,,,1.88,1.33,1.33*1D
$GPGSV,4,1,13,01,70,146,35,04,,,14,07,63,218,35,08,35,045,30*4F
$GPGSV,4,2,13,09,02,207,,11,81,038,20,17,19,258,,18,,,30*48
$GPGSV,4,3,13,22,17,133,25,27,08,058,,28,31,315,29,30,54,289,34*7E
$GPGSV,4,4,13,41,41,230,30*49
$GLGSV,2,1,06,78,18,143,29,79,70,126,36,80,50,334,,81,37,024,29*6B
$GLGSV,2,2,06,82,70,298,34,83,30,233,24*66
$GNGLL,3030.86338,N,11420.30647,E,134922.00,A,A*7E
$GNRMC,134923.00,A,3030.86335,N,11420.30644,E,0.168,,200119,,,A*6C
$GNVTG,,T,,M,0.168,N,0.311,K,A*31
$GNGGA,134923.00,3030.86335,N,11420.30644,E,1,11,1.33,19.7,M,-10.8,M,,*5E
$GNGSA,A,3,07,01,17,22,30,28,11,,,,,,1.88,1.33,1.33*14
$GNGSA,A,3,82,79,83,78,,,,,,,,,1.88,1.33,1.33*1D
$GPGSV,4,1,13,01,70,146,36,04,,,14,07,63,218,35,08,35,045,31*4D
$GPGSV,4,2,13,09,02,207,,11,81,038,20,17,19,258,31,18,,,30*4A
$GPGSV,4,3,13,22,17,133,25,27,08,058,,28,31,315,29,30,54,289,34*7E
$GPGSV,4,4,13,41,41,230,30*49
$GLGSV,2,1,06,78,18,143,28,79,70,126,36,80,50,334,,81,37,024,29*6A
$GLGSV,2,2,06,82,70,299,34,83,30,233,23*60
$GNGLL,3030.86335,N,11420.30644,E,134923.00,A,A*71
$GNRMC,134924.00,A,3030.86336,N,11420.30644,E,0.049,,200119,,,A*6A
$GNVTG,,T,,M,0.049,N,0.090,K,A*39
$GNGGA,134924.00,3030.86336,N,11420.30644,E,1,11,1.33,19.9,M,-10.8,M,,*54
$GNGSA,A,3,07,01,17,22,30,28,11,,,,,,1.88,1.33,1.33*14
$GNGSA,A,3,82,79,83,78,,,,,,,,,1.88,1.33,1.33*1D
$GPGSV,4,1,13,01,70,146,35,04,,,15,07,63,218,35,08,35,045,30*4E
$GPGSV,4,2,13,09,02,207,,11,81,038,21,17,19,258,29,18,,,30*42
$GPGSV,4,3,13,22,17,133,26,27,08,058,,28,31,315,29,30,54,289,34*7D
$GPGSV,4,4,13,41,41,230,30*49
$GLGSV,2,1,06,78,18,143,29,79,70,126,36,80,50,334,,81,37,024,29*6B
$GLGSV,2,2,06,82,70,299,34,83,30,233,22*61
$GNGLL,3030.86336,N,11420.30644,E,134924.00,A,A*75
$GNRMC,134925.00,A,3030.86343,N,11420.30649,E,0.154,,200119,,,A*69
$GNVTG,,T,,M,0.154,N,0.285,K,A*32
$GNGGA,134925.00,3030.86343,N,11420.30649,E,1,12,1.18,20.0,M,-10.8,M,,*53
$GNGSA,A,3,07,01,17,22,30,28,18,11,,,,,1.78,1.18,1.33*1B
$GNGSA,A,3,82,79,83,78,,,,,,,,,1.78,1.18,1.33*1B
$GPGSV,4,1,13,01,70,146,36,04,,,17,07,63,218,34,08,35,045,31*4F
$GPGSV,4,2,13,09,02,207,,11,81,038,20,17,19,258,30,18,60,065,30*7E
$GPGSV,4,3,13,22,17,133,26,27,08,058,,28,31,315,29,30,54,289,34*7D
$GPGSV,4,4,13,41,41,230,31*48
$GLGSV,2,1,06,78,18,143,29,79,70,126,36,80,50,334,,81,37,024,30*63
$GLGSV,2,2,06,82,70,299,34,83,30,233,22*61
$GNGLL,3030.86343,N,11420.30649,E,134925.00,A,A*7B
$GNRMC,134926.00,A,3030.86347,N,11420.30648,E,0.060,,200119,,,A*69
$GNVTG,,T,,M,0.060,N,0.112,K,A*39
$GNGGA,134926.00,3030.86347,N,11420.30648,E,1,11,1.18,20.1,M,-10.8,M,,*57
$GNGSA,A,3,07,01,22,30,28,18,11,,,,,,1.78,1.18,1.33*1D
$GNGSA,A,3,82,79,83,78,,,,,,,,,1.78,1.18,1.33*1B
$GPGSV,4,1,13,01,70,146,36,04,,,17,07,63,218,33,08,35,045,31*48
$GPGSV,4,2,13,09,02,207,,11,81,038,20,17,19,258,,18,60,065,30*7D
$GPGSV,4,3,13,22,17,133,27,27,08,058,,28,31,315,29,30,54,289,34*7C
$GPGSV,4,4,13,41,41,230,30*49
$GLGSV,2,1,06,78,18,143,30,79,70,126,36,80,50,334,,81,37,024,30*6B
$GLGSV,2,2,06,82,70,299,34,83,30,233,21*62
$GNGLL,3030.86347,N,11420.30648,E,134926.00,A,A*7D
$GNRMC,134927.00,A,3030.86346,N,11420.30647,E,0.197,,200119,,,A*6F
$GNVTG,,T,,M,0.197,N,0.366,K,A*31
$GNGGA,134927.00,3030.86346,N,11420.30647,E,1,11,1.18,20.1,M,-10.8,M,,*58
$GNGSA,A,3,07,01,22,30,28,18,11,,,,,,1.78,1.18,1.33*1D
$GNGSA,A,3,82,79,83,78,,,,,,,,,1.78,1.18,1.33*1B
$GPGSV,4,1,13,01,70,146,36,04,,,15,07,63,218,32,08,35,045,30*4A
$GPGSV,4,2,13,09,02,207,,11,81,038,21,17,19,258,27,18,60,065,30*79
$GPGSV,4,3,13,22,17,133,27,27,08,058,,28,31,315,29,30,54,289,34*7C
$GPGSV,4,4,13,41,41,230,30*49
$GLGSV,2,1,06,78,18,143,29,79,70,126,36,80,50,334,,81,37,024,30*63
$GLGSV,2,2,06,82,70,299,34,83,30,233,22*61
$GNGLL,3030.86346,N,11420.30647,E,134927.00,A,A*72
$GNRMC,134928.00,A,3030.86347,N,11420.30651,E,0.022,,200119,,,A*69
$GNVTG,,T,,M,0.022,N,0.040,K,A*39
$GNGGA,134928.00,3030.86347,N,11420.30651,E,1,12,1.18,19.9,M,-10.8,M,,*50
$GNGSA,A,3,07,01,17,22,30,28,18,11,,,,,1.78,1.18,1.33*1B
$GNGSA,A,3,82,79,83,78,,,,,,,,,1.78,1.18,1.33*1B
$GPGSV,4,1,13,01,70,146,35,04,,,14,07,63,218,32,08,35,045,30*48
$GPGSV,4,2,13,09,02,207,,11,81,038,21,17,19,258,27,18,60,065,31*78
$GPGSV,4,3,13,22,17,133,28,27,08,058,,28,31,315,29,30,54,289,34*73
$GPGSV,4,4,13,41,41,230,31*48
$GLGSV,2,1,06,78,18,143,27,79,70,126,35,80,50,334,,81,37,024,30*6E
$GLGSV,2,2,06,82,70,299,34,83,30,233,21*62
$GNGLL,3030.86347,N,11420.30651,E,134928.00,A,A*7B
$GNRMC,134929.00,A,3030.86346,N,11420.30654,E,0.051,,200119,,,A*68
$GNVTG,,T,,M,0.051,N,0.095,K,A*35
$GNGGA,134929.00,3030.86346,N,11420.30654,E,1,11,1.18,19.7,M,-10.8,M,,*58
$GNGSA,A,3,07,01,22,30,28,18,11,,,,,,1.78,1.18,1.33*1D
$GNGSA,A,3,82,79,83,78,,,,,,,,,1.78,1.18,1.33*1B
$GPGSV,4,1,13,01,70,146,35,04,,,15,07,63,218,33,08,35,045,31*49
$GPGSV,4,2,13,09,02,207,,11,81,038,22,17,19,258,,18,60,065,31*7E
$GPGSV,4,3,13,22,17,133,28,27,08,058,,28,31,315,29,30,54,289,34*73
$GPGSV,4,4,13,41,41,230,31*48
$GLGSV,2,1,06,78,18,143,26,79,70,126,36,80,50,334,,81,37,024,31*6D
$GLGSV,2,2,06,82,70,299,34,83,30,233,22*61
$GNGLL,3030.86346,N,11420.30654,E,134929.00,A,A*7E
$GNRMC,134930.00,A,3030.86346,N,11420.30658,E,0.012,,200119,,,A*6B
$GNVTG,,T,,M,0.012,N,0.023,K,A*3F
$GNGGA,134930.00,3030.86346,N,11420.30658,E,1,11,1.18,19.5,M,-10.8,M,,*5E
$GNGSA,A,3,07,01,22,30,28,18,11,,,,,,1.78,1.18,1.33*1D
$GNGSA,A,3,82,79,83,78,,,,,,,,,1.78,1.18,1.33*1B
$GPGSV,4,1,13,01,70,146,35,04,,,15,07,63,218,33,08,35,045,30*48
$GPGSV,4,2,13,09,02,207,,11,81,038,22,17,19,258,25,18,60,065,31*79
$GPGSV,4,3,13,22,17,133,29,27,08,058,,28,31,315,29,30,54,289,34*72
$GPGSV,4,4,13,41,41,230,30*49
$GLGSV,2,1,06,78,18,143,25,79,70,126,36,80,50,334,,81,37,024,32*6D
$GLGSV,2,2,06,82,70,299,33,83,30,233,22*66
$GNGLL,3030.86346,N,11420.30658,E,134930.00,A,A*7A
$GNRMC,134931.00,A,3030.86348,N,11420.30662,E,0.038,,200119,,,A*65
$GNVTG,,T,,M,0.038,N,0.070,K,A*31
$GNGGA,134931.00,3030.86348,N,11420.30662,E,1,12,1.18,19.4,M,-10.8,M,,*5A
$GNGSA,A,3,07,01,17,22,30,28,18,11,,,,,1.78,1.18,1.33*1B
$GNGSA,A,3,82,79,83,78,,,,,,,,,1.78,1.18,1.33*1B
$GPGSV,4,1,13,01,70,146,35,04,,,16,07,63,218,34,08,35,045,30*4C
$GPGSV,4,2,13,09,02,207,,11,81,038,22,17,19,258,25,18,60,065,31*79
$GPGSV,4,3,13,22,17,133,29,27,08,058,,28,31,315,29,30,54,289,33*75
$GPGSV,4,4,13,41,41,230,31*48
$GLGSV,2,1,06,78,18,143,26,79,70,126,35,80,50,334,,81,37,024,32*6D
$GLGSV,2,2,06,82,70,299,33,83,30,233,23*67
$GNGLL,3030.86348,N,11420.30662,E,134931.00,A,A*7C
$GNRMC,134932.00,A,3030.86347,N,11420.30662,E,0.207,,200119,,,A*67
$GNVTG,,T,,M,0.207,N,0.383,K,A*30
$GNGGA,134932.00,3030.86347,N,11420.30662,E,1,12,1.18,19.3,M,-10.8,M,,*51
$GNGSA,A,3,07,01,17,22,30,28,18,11,,,,,1.78,1.18,1.33*1B
$GNGSA,A,3,82,79,83,78,,,,,,,,,1.78,1.18,1.33*1B
$GPGSV,4,1,13,01,70,146,35,04,,,16,07,63,218,35,08,35,045,30*4D
$GPGSV,4,2,13,09,02,207,,11,81,038,21,17,19,258,23,18,60,065,31*7C
$GPGSV,4,3,13,22,17,133,29,27,08,058,,28,31,315,29,30,54,289,34*72
$GPGSV,4,4,13,41,41,230,31*48
$GLGSV,2,1,06,78,18,143,28,79,70,126,35,80,50,334,,81,37,024,32*63
$GLGSV,2,2,06,82,70,299,33,83,30,233,24*60
$GNGLL,3030.86347,N,11420.30662,E,134932.00,A,A*70
$GNRMC,134933.00,A,3030.86344,N,11420.30662,E,0.066,,200119,,,A*60
$GNVTG,,T,,M,0.066,N,0.121,K,A*3F
$GNGGA,134933.00,3030.86344,N,11420.30662,E,1,12,1.18,19.4,M,-10.8,M,,*54
$GNGSA,A,3,07,01,17,22,30,28,18,11,,,,,1.78,1.18,1.33*1B
$GNGSA,A,3,82,79,83,78,,,,,,,,,1.78,1.18,1.33*1B
$GPGSV,4,1,13,01,70,146,35,04,,,17,07,63,218,35,08,35,045,30*4C
$GPGSV,4,2,13,09,02,207,,11,81,038,21,17,19,258,22,18,60,065,31*7D
$GPGSV,4,3,13,22,17,133,29,27,08,058,,28,31,315,29,30,54,289,34*72
$GPGSV,4,4,13,41,41,230,31*48
$GLGSV,2,1,06,78,18,143,30,79,70,126,35,80,50,334,,81,37,024,31*69
$GLGSV,2,2,06,82,70,299,32,83,30,233,25*60
$GNGLL,3030.86344,N,11420.30662,E,134933.00,A,A*72
$GNRMC,134934.00,A,3030.86348,N,11420.30663,E,0.019,,200119,,,A*62
$GNVTG,,T,,M,0.019,N,0.035,K,A*33
$GNGGA,134934.00,3030.86348,N,11420.30663,E,1,12,1.18,19.6,M,-10.8,M,,*5C
$GNGSA,A,3,07,01,17,22,30,28,18,11,,,,,1.78,1.18,1.33*1B
$GNGSA,A,3,82,79,83,78,,,,,,,,,1.78,1.18,1.33*1B
$GPGSV,4,1,13,01,70,146,35,04,,,18,07,63,218,34,08,35,045,30*42
$GPGSV,4,2,13,09,02,207,,11,81,038,21,17,19,258,21,18,60,065,31*7E
$GPGSV,4,3,13,22,17,133,29,27,08,058,,28,31,315,29,30,54,289,34*72
$GPGSV,4,4,13,41,41,230,31*48
$GLGSV,2,1,06,78,18,143,30,79,70,126,35,80,50,334,,81,37,024,32*6A
$GLGSV,2,2,06,82,70,299,32,83,30,233,26*63
$GNGLL,3030.86348,N,11420.30663,E,134934.00,A,A*78
$GNRMC,134935.00,A,3030.86357,N,11420.30673,E,0.041,,200119,,,A*61
$GNVTG,,T,,M,0.041,N,0.076,K,A*39
$GNGGA,134935.00,3030.86357,N,11420.30673,E,1,11,1.18,19.7,M,-10.8,M,,*50
$GNGSA,A,3,07,01,22,30,28,18,11,,,,,,1.78,1.18,1.33*1D
$GNGSA,A,3,82,79,83,78,,,,,,,,,1.78,1.18,1.33*1B
$GPGSV,4,1,13,01,70,146,35,04,,,18,07,63,218,35,08,35,045,29*4B
$GPGSV,4,2,13,09,02,207,,11,81,038,22,17,19,258,19,18,60,065,32*75
$GPGSV,4,3,13,22,17,133,28,27,08,058,,28,31,315,30,30,54,289,33*7C
$GPGSV,4,4,13,41,41,230,32*4B
$GLGSV,2,1,06,78,18,143,29,79,70,126,35,80,50,334,,81,37,024,32*62
$GLGSV,2,2,06,82,70,299,32,83,30,233,26*63
$GNGLL,3030.86357,N,11420.30673,E,134935.00,A,A*76
$GNRMC,134936.00,A,3030.86364,N,11420.30681,E,0.021,,200119,,,A*69
$GNVTG,,T,,M,0.021,N,0.039,K,A*34
$GNGGA,134936.00,3030.86364,N,11420.30681,E,1,11,1.18,19.7,M,-10.8,M,,*5E
$GNGSA,A,3,07,01,22,30,28,18,11,,,,,,1.78,1.18,1.34*1A
$GNGSA,A,3,82,79,83,78,,,,,,,,,1.78,1.18,1.34*1C
$GPGSV,4,1,13,01,70,146,36,04,,,20,07,63,218,36,08,35,045,30*48
$GPGSV,4,2,13,09,02,207,,11,81,038,23,17,19,258,19,18,60,065,33*75
$GPGSV,4,3,13,22,17,133,28,27,08,058,,28,31,315,31,30,54,289,34*7A
$GPGSV,4,4,13,41,41,230,33*4A
$GLGSV,2,1,06,78,18,143,28,79,70,126,36,80,50,334,,81,37,024,32*60
$GLGSV,2,2,06,82,70,299,32,83,30,233,26*63
$GNGLL,3030.86364,N,11420.30681,E,134936.00,A,A*78
$GNRMC,134937.00,A,3030.86366,N,11420.30683,E,0.115,,200119,,,A*6E
$GNVTG,,T,,M,0.115,N,0.213,K,A*38
$GNGGA,134937.00,3030.86366,N,11420.30683,E,1,11,1.18,19.6,M,-10.8,M,,*5E
$GNGSA,A,3,07,01,22,30,28,18,11,,,,,,1.78,1.18,1.34*1A
$GNGSA,A,3,82,79,83,78,,,,,,,,,1.78,1.18,1.34*1C
$GPGSV,4,1,13,01,70,146,35,04,,,19,07,63,218,36,08,35,045,29*49
$GPGSV,4,2,13,09,02,207,,11,81,038,22,17,19,258,22,18,60,065,32*7D
$GPGSV,4,3,13,22,17,133,30,27,08,058,,28,31,315,30,30,54,289,33*75
$GPGSV,4,4,13,41,41,230,32*4B
$GLGSV,2,1,06,78,18,143,27,79,70,126,36,80,50,334,,81,37,024,31*6C
$GLGSV,2,2,06,82,70,299,32,83,30,233,24*61
$GNGLL,3030.86366,N,11420.30683,E,134937.00,A,A*79
$GNRMC,134938.00,A,3030.86372,N,11420.30688,E,0.047,,200119,,,A*69
$GNVTG,,T,,M,0.047,N,0.088,K,A*3E
$GNGGA,134938.00,3030.86372,N,11420.30688,E,1,12,1.18,19.5,M,-10.8,M,,*5F
$GNGSA,A,3,07,01,17,22,30,28,18,11,,,,,1.78,1.18,1.34*1C
$GNGSA,A,3,82,79,83,78,,,,,,,,,1.78,1.18,1.34*1C
$GPGSV,4,1,13,01,70,146,36,04,,,18,07,63,218,36,08,35,045,30*43
$GPGSV,4,2,13,09,02,207,,11,81,038,22,17,19,258,23,18,60,065,33*7D
$GPGSV,4,3,13,22,17,133,29,27,08,058,,28,31,315,31,30,54,289,33*7C
$GPGSV,4,4,13,41,41,230,33*4A
$GLGSV,2,1,06,78,18,143,28,79,70,126,36,80,50,334,,81,37,024,32*60
$GLGSV,2,2,06,82,70,299,32,83,30,233,24*61
$GNGLL,3030.86372,N,11420.30688,E,134938.00,A,A*78
$GNRMC,134939.00,A,3030.86378,N,11420.30692,E,0.033,,200119,,,A*6A
$GNVTG,,T,,M,0.033,N,0.062,K,A*39
$GNGGA,134939.00,3030.86378,N,11420.30692,E,1,12,0.95,19.7,M,-10.8,M,,*59
$GNGSA,A,3,07,01,17,22,30,28,18,11,,,,,1.56,0.95,1.24*15
$GNGSA,A,3,82,79,83,78,81,,,,,,,,1.56,0.95,1.24*1C
$GPGSV,4,1,13,01,70,146,34,04,,,17,07,63,218,35,08,35,045,29*45
$GPGSV,4,2,13,09,02,207,,11,81,038,21,17,19,258,23,18,60,065,32*7F
$GPGSV,4,3,13,22,17,133,28,27,08,058,,28,31,315,30,30,54,289,33*7C
$GPGSV,4,4,13,41,41,230,32*4B
$GLGSV,2,1,06,78,18,143,30,79,70,126,36,80,50,334,,81,36,024,31*6B
$GLGSV,2,2,06,82,70,299,32,83,30,233,23*66
$GNGLL,3030.86378,N,11420.30692,E,134939.00,A,A*78
$GNRMC,134940.00,A,3030.86376,N,11420.30689,E,0.036,,200119,,,A*65
$GNVTG,,T,,M,0.036,N,0.066,K,A*38
$GNGGA,134940.00,3030.86376,N,11420.30689,E,1,12,0.95,19.8,M,-10.8,M,,*5C
$GNGSA,A,3,07,01,17,22,30,28,18,11,,,,,1.56,0.95,1.24*15
$GNGSA,A,3,82,79,83,78,81,,,,,,,,1.56,0.95,1.24*1C
$GPGSV,4,1,13,01,70,146,35,04,,,17,07,63,218,35,08,35,045,29*44
$GPGSV,4,2,13,09,02,207,,11,81,038,20,17,19,258,23,18,60,065,33*7F
$GPGSV,4,3,13,22,17,133,28,27,08,058,,28,31,315,31,30,54,289,33*7D
$GPGSV,4,4,13,41,41,230,32*4B
$GLGSV,2,1,06,78,18,143,30,79,70,126,35,80,50,334,,81,36,024,31*68
$GLGSV,2,2,06,82,70,299,32,83,30,233,23*66
$GNGLL,3030.86376,N,11420.30689,E,134940.00,A,A*72
$GNRMC,134941.00,A,3030.86373,N,11420.30687,E,0.013,,200119,,,A*68
$GNVTG,,T,,M,0.013,N,0.024,K,A*39
$GNGGA,134941.00,3030.86373,N,11420.30687,E,1,12,0.95,20.1,M,-10.8,M,,*55
$GNGSA,A,3,07,01,17,22,30,28,18,11,,,,,1.56,0.95,1.24*15
$GNGSA,A,3,82,79,83,78,81,,,,,,,,1.56,0.95,1.24*1C
$GPGSV,4,1,13,01,70,146,35,04,,,16,07,63,218,37,08,35,045,30*4F
$GPGSV,4,2,13,09,02,207,,11,81,038,21,17,19,258,24,18,60,065,33*79
$GPGSV,4,3,13,22,17,133,28,27,08,058,,28,31,315,32,30,54,289,33*7E
$GPGSV,4,4,13,41,41,230,33*4A
$GLGSV,2,1,06,78,18,143,30,79,70,126,36,80,50,334,,81,36,024,31*6B
$GLGSV,2,2,06,82,70,299,32,83,30,233,23*66
$GNGLL,3030.86373,N,11420.30687,E,134941.00,A,A*78
$GNRMC,134942.00,A,3030.86368,N,11420.30688,E,0.091,,200119,,,A*64
$GNVTG,,T,,M,0.091,N,0.168,K,A*3A
$GNGGA,134942.00,3030.86368,N,11420.30688,E,1,12,0.95,20.2,M,-10.8,M,,*50
$GNGSA,A,3,07,01,17,22,30,28,18,11,,,,,1.56,0.95,1.24*15
$GNGSA,A,3,82,79,83,78,81,,,,,,,,1.56,0.95,1.24*1C
$GPGSV,4,1,13,01,70,146,35,04,,,19,07,63,218,34,08,35,045,29*4B
$GPGSV,4,2,13,09,02,207,,11,81,038,21,17,19,258,23,18,60,065,33*7E
$GPGSV,4,3,13,22,17,133,27,27,08,058,,28,31,315,31,30,54,289,33*72
$GPGSV,4,4,13,41,41,230,33*4A
$GLGSV,2,1,06,78,18,143,30,79,70,126,36,80,50,334,,81,36,024,31*6B
$GLGSV,2,2,06,82,70,299,32,83,30,233,25*60
$GNGLL,3030.86368,N,11420.30688,E,134942.00,A,A*7E
$GNRMC,134943.00,A,3030.86366,N,11420.30695,E,0.034,,200119,,,A*68
$GNVTG,,T,,M,0.034,N,0.062,K,A*3E
$GNGGA,134943.00,3030.86366,N,11420.30695,E,1,12,0.95,20.1,M,-10.8,M,,*50
$GNGSA,A,3,07,01,22,30,28,18,11,,,,,,1.56,0.95,1.24*13
$GNGSA,A,3,82,79,83,78,81,,,,,,,,1.56,0.95,1.24*1C
$GPGSV,4,1,13,01,70,146,33,04,,,21,07,63,218,35,08,35,045,28*46
$GPGSV,4,2,13,09,02,207,,11,81,038,21,17,19,258,,18,60,065,32*7E
$GPGSV,4,3,13,22,17,133,26,27,08,058,,28,31,315,30,30,54,289,33*72
$GPGSV,4,4,13,41,41,230,34*4D
$GLGSV,2,1,06,78,17,143,29,79,70,126,38,80,50,334,,81,36,024,32*61
$GLGSV,2,2,06,82,70,299,36,83,30,233,28*69
$GNGLL,3030.86366,N,11420.30695,E,134943.00,A,A*7D
$GNRMC,134944.00,A,3030.86371,N,11420.30707,E,0.023,,200119,,,A*65
$GNVTG,,T,,M,0.023,N,0.043,K,A*3B
$GNGGA,134944.00,3030.86371,N,11420.30707,E,1,12,0.95,20.2,M,-10.8,M,,*58
$GNGSA,A,3,07,01,22,30,28,18,11,,,,,,1.56,0.95,1.24*13
$GNGSA,A,3,82,79,83,78,81,,,,,,,,1.56,0.95,1.24*1C
$GPGSV,4,1,13,01,70,146,33,04,,,25,07,63,218,35,08,35,045,28*42
$GPGSV,4,2,13,09,02,207,,11,81,038,24,17,19,258,25,18,60,065,32*7C
$GPGSV,4,3,13,22,17,133,26,27,08,058,,28,31,315,31,30,54,289,33*73
$GPGSV,4,4,13,41,41,230,36*4F
$GLGSV,2,1,06,78,17,143,30,79,70,127,40,80,50,334,,81,36,024,34*61
$GLGSV,2,2,06,82,70,299,36,83,30,233,33*63
$GNGLL,3030.86371,N,11420.30707,E,134944.00,A,A*76
$GNRMC,134945.00,A,3030.86371,N,11420.30713,E,0.074,,200119,,,A*63
$GNVTG,,T,,M,0.074,N,0.137,K,A*3B
$GNGGA,134945.00,3030.86371,N,11420.30713,E,1,12,0.95,20.5,M,-10.8,M,,*5B
$GNGSA,A,3,07,01,17,22,30,28,18,11,,,,,1.56,0.95,1.24*15
$GNGSA,A,3,82,79,83,78,81,,,,,,,,1.56,0.95,1.24*1C
$GPGSV,4,1,13,01,70,146,34,04,,,27,07,63,218,36,08,35,045,28*44
$GPGSV,4,2,13,09,02,207,,11,81,038,24,17,19,258,25,18,60,065,32*7C
$GPGSV,4,3,13,22,17,133,26,27,08,058,,28,31,315,31,30,54,289,34*74
$GPGSV,4,4,13,41,41,230,35*4C
$GLGSV,2,1,06,78,17,143,31,79,70,127,41,80,51,334,,81,36,024,37*63
$GLGSV,2,2,06,82,70,299,36,83,30,233,32*62
$GNGLL,3030.86371,N,11420.30713,E,134945.00,A,A*72
$GNRMC,134946.00,A,3030.86372,N,11420.30715,E,0.018,,200119,,,A*6F
$GNVTG,,T,,M,0.018,N,0.034,K,A*33
$GNGGA,134946.00,3030.86372,N,11420.30715,E,1,12,0.95,20.8,M,-10.8,M,,*50
$GNGSA,A,3,07,01,17,22,30,28,18,11,,,,,1.56,0.95,1.24*15
$GNGSA,A,3,82,79,83,78,81,,,,,,,,1.56,0.95,1.24*1C
$GPGSV,4,1,13,01,70,146,34,04,,,27,07,63,218,36,08,35,045,29*45
$GPGSV,4,2,13,09,02,207,,11,81,038,25,17,19,258,24,18,60,065,33*7D
$GPGSV,4,3,13,22,17,133,26,27,08,058,,28,31,315,30,30,54,289,34*75
$GPGSV,4,4,13,41,41,230,35*4C
$GLGSV,2,1,06,78,17,143,31,79,70,127,39,80,51,334,,81,36,024,36*6D
$GLGSV,2,2,06,82,70,299,35,83,30,233,31*62
$GNGLL,3030.86372,N,11420.30715,E,134946.00,A,A*74
$GNRMC,134947.00,A,3030.86372,N,11420.30714,E,0.015,,200119,,,A*62
$GNVTG,,T,,M,0.015,N,0.028,K,A*33
$GNGGA,134947.00,3030.86372,N,11420.30714,E,1,12,0.95,21.1,M,-10.8,M,,*58
$GNGSA,A,3,07,01,17,22,30,28,18,11,,,,,1.56,0.95,1.24*15
$GNGSA,A,3,82,79,83,78,81,,,,,,,,1.56,0.95,1.24*1C
$GPGSV,4,1,13,01,70,146,33,04,,,27,07,63,218,37,08,35,045,29*43
$GPGSV,4,2,13,09,02,207,,11,81,038,25,17,19,258,23,18,60,065,33*7A
$GPGSV,4,3,13,22,17,133,25,27,08,058,,28,31,315,30,30,54,289,34*76
$GPGSV,4,4,13,41,41,230,35*4C
$GLGSV,2,1,06,78,17,143,30,79,70,127,39,80,51,334,,81,36,024,35*6F
$GLGSV,2,2,06,82,70,300,35,83,30,233,31*63
$GNGLL,3030.86372,N,11420.30714,E,134947.00,A,A*74
$GNRMC,134948.00,A,3030.86371,N,11420.30713,E,0.033,,200119,,,A*6D
$GNVTG,,T,,M,0.033,N,0.062,K,A*39
$GNGGA,134948.00,3030.86371,N,11420.30713,E,1,12,0.95,21.2,M,-10.8,M,,*50
$GNGSA,A,3,07,01,17,22,30,28,18,11,,,,,1.56,0.95,1.24*15
$GNGSA,A,3,82,79,83,78,81,,,,,,,,1.56,0.95,1.24*1C
