####################################################################################################data_jianzhu
$GNRMC,102154.00,A,3030.90120,N,11420.32286,E,0.034,,160119,,,D*60
$GNVTG,,T,,M,0.034,N,0.064,K,D*3D
$GNGGA,102154.00,3030.90120,N,11420.32286,E,2,10,1.49,42.9,M,-10.8,M,,0000*55
$GNGSA,A,3,08,27,31,41,,,,,,,,,2.28,1.49,1.73*17
$GNGSA,A,3,84,65,71,72,83,85,,,,,,,2.28,1.49,1.73*17
$GPGSV,4,1,14,03,04,229,21,07,05,306,15,08,43,200,36,09,30,308,28*74
$GPGSV,4,2,14,21,10,060,26,22,00,211,,23,52,280,18,26,40,044,*7D
$GPGSV,4,3,14,27,71,167,41,31,28,106,33,40,18,253,,41,41,230,42*7C
$GPGSV,4,4,14,42,41,130,28,50,41,130,30*76
$GLGSV,3,1,11,65,16,316,30,71,19,216,40,72,31,270,33,73,40,048,*65
$GLGSV,3,2,11,74,41,340,23,75,06,295,25,80,01,092,,83,33,047,23*62
$GLGSV,3,3,11,84,49,128,41,85,12,178,38,,,,44*61
$GNGLL,3030.90120,N,11420.32286,E,102154.00,A,D*70
$GNRMC,102155.00,A,3030.90112,N,11420.32290,E,0.090,,160119,,,D*69
$GNVTG,,T,,M,0.090,N,0.167,K,D*31
$GNGGA,102155.00,3030.90112,N,11420.32290,E,2,10,1.49,42.9,M,-10.8,M,,0000*52
$GNGSA,A,3,08,27,31,21,41,,,,,,,,2.28,1.49,1.73*14
$GNGSA,A,3,84,71,72,83,85,,,,,,,,2.28,1.49,1.73*14
$GPGSV,4,1,14,03,04,229,22,07,05,306,15,08,43,200,35,09,30,308,28*74
$GPGSV,4,2,14,21,10,060,26,22,00,211,,23,52,280,18,26,40,044,*7D
$GPGSV,4,3,14,27,71,167,41,31,28,106,33,40,18,253,,41,41,230,42*7C
$GPGSV,4,4,14,42,41,130,28,50,41,130,30*76
$GLGSV,3,1,11,65,16,316,,71,19,216,39,72,31,270,33,73,40,048,*68
$GLGSV,3,2,11,74,41,340,23,75,06,295,23,80,01,092,,83,33,047,23*64
$GLGSV,3,3,11,84,49,128,41,85,12,178,38,,,,44*61
$GNGLL,3030.90112,N,11420.32290,E,102155.00,A,D*77
$GNRMC,102156.00,A,3030.90106,N,11420.32295,E,0.133,,160119,,,D*62
$GNVTG,,T,,M,0.133,N,0.247,K,D*38
$GNGGA,102156.00,3030.90106,N,11420.32295,E,2,11,1.49,42.9,M,-10.8,M,,0000*50
$GNGSA,A,3,08,27,31,21,41,,,,,,,,2.28,1.49,1.73*14
$GNGSA,A,3,84,65,71,72,83,85,,,,,,,2.28,1.49,1.73*17
$GPGSV,4,1,14,03,04,229,22,07,05,306,14,08,43,200,32,09,30,308,28*72
$GPGSV,4,2,14,21,10,060,26,22,00,211,,23,52,280,20,26,40,044,*76
$GPGSV,4,3,14,27,71,167,41,31,28,106,34,40,18,253,,41,41,230,43*7A
$GPGSV,4,4,14,42,41,130,29,50,41,130,30*77
$GLGSV,3,1,11,65,16,316,28,71,19,216,39,72,31,270,32,73,40,048,*63
$GLGSV,3,2,11,74,41,340,22,75,06,295,22,80,01,092,,83,33,047,22*65
$GLGSV,3,3,11,84,49,128,41,85,12,178,39,,,,43*67
$GNGLL,3030.90106,N,11420.32295,E,102156.00,A,D*74
$GNRMC,102157.00,A,3030.90100,N,11420.32300,E,0.157,,160119,,,D*6A
$GNVTG,,T,,M,0.157,N,0.291,K,D*31
$GNGGA,102157.00,3030.90100,N,11420.32300,E,2,10,1.49,42.8,M,-10.8,M,,0000*5A
$GNGSA,A,3,08,27,31,21,41,,,,,,,,2.28,1.49,1.73*14
$GNGSA,A,3,84,71,72,83,85,,,,,,,,2.28,1.49,1.73*14
$GPGSV,4,1,14,03,04,229,23,07,05,306,,08,43,200,33,09,30,308,29*76
$GPGSV,4,2,14,21,10,060,26,22,00,211,,23,52,280,21,26,40,044,*77
$GPGSV,4,3,14,27,71,167,41,31,28,106,34,40,18,253,,41,41,230,42*7B
$GPGSV,4,4,14,42,41,130,30,50,41,130,31*7E
$GLGSV,3,1,11,65,16,316,,71,19,216,41,72,31,270,32,73,40,048,*66
$GLGSV,3,2,11,74,41,340,21,75,06,295,26,80,01,092,,83,33,047,20*60
$GLGSV,3,3,11,84,49,128,41,85,12,178,39,,,,44*60
$GNGLL,3030.90100,N,11420.32300,E,102157.00,A,D*7E
$GNRMC,102158.00,A,3030.90095,N,11420.32305,E,0.173,,160119,,,D*6B
$GNVTG,,T,,M,0.173,N,0.321,K,D*3D
$GNGGA,102158.00,3030.90095,N,11420.32305,E,2,10,1.49,42.7,M,-10.8,M,,0000*52
$GNGSA,A,3,08,27,31,21,41,,,,,,,,2.28,1.49,1.73*14
$GNGSA,A,3,84,71,72,83,85,,,,,,,,2.28,1.49,1.73*14
$GPGSV,4,1,14,03,04,229,23,07,05,306,,08,43,200,33,09,30,308,30*7E
$GPGSV,4,2,14,21,10,060,25,22,00,211,,23,52,280,22,26,40,044,*77
$GPGSV,4,3,14,27,71,167,40,31,28,106,34,40,18,253,,41,41,230,42*7A
$GPGSV,4,4,14,42,41,130,30,50,41,130,31*7E
$GLGSV,3,1,11,65,16,316,25,71,19,216,40,72,31,270,32,73,40,048,*60
$GLGSV,3,2,11,74,41,340,20,75,06,295,26,80,01,092,,83,33,047,20*61
$GLGSV,3,3,11,84,49,128,41,85,12,178,39,,,,44*60
$GNGLL,3030.90095,N,11420.32305,E,102158.00,A,D*79
$GNRMC,102159.00,A,3030.90089,N,11420.32309,E,0.098,,160119,,,D*6F
$GNVTG,,T,,M,0.098,N,0.182,K,D*32
$GNGGA,102159.00,3030.90089,N,11420.32309,E,2,11,1.49,42.8,M,-10.8,M,,0000*5C
$GNGSA,A,3,08,27,31,21,41,,,,,,,,2.28,1.49,1.73*14
$GNGSA,A,3,84,65,71,72,83,85,,,,,,,2.28,1.49,1.73*17
$GPGSV,4,1,14,03,04,229,23,07,05,306,,08,43,200,33,09,30,308,30*7E
$GPGSV,4,2,14,21,10,060,24,22,00,211,,23,52,280,23,26,40,044,*77
$GPGSV,4,3,14,27,71,167,40,31,28,106,33,40,18,253,,41,41,230,42*7D
$GPGSV,4,4,14,42,41,130,30,50,41,130,30*7F
$GLGSV,3,1,11,65,16,316,25,71,19,216,40,72,31,270,33,73,40,048,*61
$GLGSV,3,2,11,74,41,340,22,75,06,295,24,80,01,092,,83,33,047,19*6B
$GLGSV,3,3,11,84,49,128,41,85,12,178,40,,,,44*6E
$GNGLL,3030.90089,N,11420.32309,E,102159.00,A,D*79
$GNRMC,102200.00,A,3030.90084,N,11420.32314,E,0.209,,160119,,,D*6B
$GNVTG,,T,,M,0.209,N,0.388,K,D*30
$GNGGA,102200.00,3030.90084,N,11420.32314,E,2,10,1.49,42.8,M,-10.8,M,,0000*53
$GNGSA,A,3,08,27,31,21,41,,,,,,,,2.28,1.49,1.73*14
$GNGSA,A,3,84,71,72,83,85,,,,,,,,2.28,1.49,1.73*14
$GPGSV,4,1,14,03,04,229,23,07,05,306,,08,43,200,33,09,30,308,29*76
$GPGSV,4,2,14,21,10,060,23,22,00,211,,23,52,280,23,26,40,044,*70
$GPGSV,4,3,14,27,71,167,40,31,28,106,33,40,18,253,,41,41,230,41*7E
$GPGSV,4,4,14,42,41,130,30,50,41,130,30*7F
$GLGSV,3,1,11,65,16,316,,71,19,216,40,72,31,270,33,73,40,048,*66
$GLGSV,3,2,11,74,41,340,23,75,06,295,21,80,01,092,,83,33,047,19*6F
$GLGSV,3,3,11,84,49,128,41,85,12,178,40,,,,44*6E
$GNGLL,3030.90084,N,11420.32314,E,102200.00,A,D*77
$GNRMC,102201.00,A,3030.90077,N,11420.32319,E,0.114,,160119,,,D*64
$GNVTG,,T,,M,0.114,N,0.211,K,D*3E
$GNGGA,102201.00,3030.90077,N,11420.32319,E,2,10,1.49,42.8,M,-10.8,M,,0000*53
$GNGSA,A,3,08,27,31,21,41,,,,,,,,2.28,1.49,1.73*14
$GNGSA,A,3,84,71,72,83,85,,,,,,,,2.28,1.49,1.73*14
$GPGSV,4,1,14,03,04,229,22,07,05,306,,08,43,200,34,09,30,308,30*78
$GPGSV,4,2,14,21,10,060,23,22,00,211,,23,52,280,23,26,40,044,*70
$GPGSV,4,3,14,27,71,167,40,31,28,106,33,40,18,253,,41,41,230,41*7E
$GPGSV,4,4,14,42,41,130,29,50,41,130,30*77
$GLGSV,3,1,11,65,16,316,17,71,19,216,40,72,31,270,33,73,40,048,23*61
$GLGSV,3,2,11,74,41,340,21,75,06,295,19,80,01,092,,83,33,047,18*67
$GLGSV,3,3,11,84,49,128,41,85,12,178,40,,,,43*69
$GNGLL,3030.90077,N,11420.32319,E,102201.00,A,D*77
$GNRMC,102202.00,A,3030.90072,N,11420.32323,E,0.034,,160119,,,D*68
$GNVTG,,T,,M,0.034,N,0.063,K,D*3A
$GNGGA,102202.00,3030.90072,N,11420.32323,E,2,10,1.49,42.9,M,-10.8,M,,0000*5D
$GNGSA,A,3,08,27,31,21,41,,,,,,,,2.28,1.49,1.73*14
$GNGSA,A,3,84,71,72,83,85,,,,,,,,2.28,1.49,1.73*14
$GPGSV,4,1,14,03,04,229,21,07,05,306,,08,43,200,34,09,30,308,30*7B
$GPGSV,4,2,14,21,10,060,21,22,00,211,,23,52,280,23,26,40,044,*72
$GPGSV,4,3,14,27,71,167,39,31,28,106,33,40,18,253,,41,41,230,41*70
$GPGSV,4,4,14,42,41,130,29,50,41,130,29*7F
$GLGSV,3,1,11,65,16,316,,71,19,216,41,72,31,270,32,73,40,048,23*67
$GLGSV,3,2,11,74,41,340,19,75,06,295,19,80,01,092,,83,33,047,18*6C
$GLGSV,3,3,11,84,49,128,40,85,12,178,40,,,,43*68
$GNGLL,3030.90072,N,11420.32323,E,102202.00,A,D*78
$GNRMC,102203.00,A,3030.90067,N,11420.32327,E,0.018,,160119,,,D*67
$GNVTG,,T,,M,0.018,N,0.034,K,D*36
$GNGGA,102203.00,3030.90067,N,11420.32327,E,2,10,1.49,43.0,M,-10.8,M,,0000*54
$GNGSA,A,3,08,27,31,21,41,,,,,,,,2.28,1.49,1.73*14
$GNGSA,A,3,84,71,72,83,85,,,,,,,,2.28,1.49,1.73*14
$GPGSV,4,1,14,03,04,229,19,07,05,306,,08,43,200,34,09,30,308,30*70
$GPGSV,4,2,14,21,10,060,21,22,00,211,,23,52,280,22,26,40,044,*73
$GPGSV,4,3,14,27,71,167,39,31,28,106,33,40,18,253,,41,41,230,41*70
$GPGSV,4,4,14,42,41,130,29,50,41,130,29*7F
$GLGSV,3,1,11,65,16,316,24,71,19,216,42,72,31,270,32,73,40,048,23*62
$GLGSV,3,2,11,74,41,340,19,75,06,295,18,80,01,092,,83,33,047,18*6D
$GLGSV,3,3,11,84,49,128,40,85,12,178,40,,,,43*68
$GNGLL,3030.90067,N,11420.32327,E,102203.00,A,D*79
$GNRMC,102204.00,A,3030.90064,N,11420.32333,E,0.044,,160119,,,D*6F
$GNVTG,,T,,M,0.044,N,0.081,K,D*31
$GNGGA,102204.00,3030.90064,N,11420.32333,E,2,10,1.49,43.0,M,-10.8,M,,0000*55
$GNGSA,A,3,08,27,31,21,41,,,,,,,,2.28,1.49,1.73*14
$GNGSA,A,3,84,71,72,83,85,,,,,,,,2.28,1.49,1.73*14
$GPGSV,4,1,14,03,04,229,16,07,05,306,,08,43,200,33,09,30,308,30*78
$GPGSV,4,2,14,21,10,060,19,22,00,211,,23,52,280,22,26,40,044,*78
$GPGSV,4,3,14,27,71,167,39,31,28,106,32,40,18,253,,41,41,230,41*71
$GPGSV,4,4,14,42,41,130,29,50,41,130,29*7F
$GLGSV,3,1,11,65,16,316,23,71,19,216,42,72,31,270,32,73,40,048,22*64
$GLGSV,3,2,11,74,41,340,18,75,06,295,18,80,01,092,,83,33,047,17*63
$GLGSV,3,3,11,84,49,128,41,85,12,178,40,,,,43*69
$GNGLL,3030.90064,N,11420.32333,E,102204.00,A,D*78
$GNRMC,102205.00,A,3030.90062,N,11420.32339,E,0.074,,160119,,,D*61
$GNVTG,,T,,M,0.074,N,0.136,K,D*3F
$GNGGA,102205.00,3030.90062,N,11420.32339,E,2,11,1.49,43.0,M,-10.8,M,,0000*59
$GNGSA,A,3,08,27,31,21,41,,,,,,,,2.28,1.49,1.73*14
$GNGSA,A,3,84,65,71,72,83,85,,,,,,,2.28,1.49,1.73*17
$GPGSV,4,1,14,03,04,229,17,07,05,306,21,08,43,200,33,09,30,308,29*72
$GPGSV,4,2,14,21,10,060,17,22,00,211,,23,52,280,22,26,40,044,*76
$GPGSV,4,3,14,27,71,167,39,31,28,106,32,40,18,253,,41,41,230,41*71
$GPGSV,4,4,14,42,41,130,29,50,41,130,29*7F
$GLGSV,3,1,11,65,16,316,25,71,19,216,42,72,31,270,31,73,40,048,21*62
$GLGSV,3,2,11,74,41,340,17,75,06,295,19,80,01,092,,83,33,047,17*6D
$GLGSV,3,3,11,84,49,128,41,85,12,178,39,,,,43*67
$GNGLL,3030.90062,N,11420.32339,E,102205.00,A,D*75
$GNRMC,102206.00,A,3030.90066,N,11420.32341,E,0.099,,160119,,,D*6A
$GNVTG,,T,,M,0.099,N,0.183,K,D*32
$GNGGA,102206.00,3030.90066,N,11420.32341,E,2,09,1.49,42.9,M,-10.8,M,,0000*50
$GNGSA,A,3,08,27,31,21,41,,,,,,,,2.28,1.49,1.73*14
$GNGSA,A,3,84,71,72,85,,,,,,,,,2.28,1.49,1.73*1F
$GPGSV,4,1,14,03,04,229,16,07,05,306,20,08,43,200,34,09,30,308,29*75
$GPGSV,4,2,14,21,10,060,16,22,00,211,,23,52,280,22,26,40,044,*77
$GPGSV,4,3,14,27,71,167,39,31,28,106,32,40,18,253,,41,41,230,41*71
$GPGSV,4,4,14,42,41,130,29,50,41,130,29*7F
$GLGSV,3,1,11,65,16,316,,71,19,216,42,72,31,270,31,73,40,048,20*64
$GLGSV,3,2,11,74,41,340,16,75,06,295,20,80,01,092,,83,33,047,17*66
$GLGSV,3,3,11,84,49,128,41,85,12,178,39,,,,43*67
$GNGLL,3030.90066,N,11420.32341,E,102206.00,A,D*7D
$GNRMC,102207.00,A,3030.90073,N,11420.32343,E,0.081,,160119,,,D*64
$GNVTG,,T,,M,0.081,N,0.149,K,D*3D
$GNGGA,102207.00,3030.90073,N,11420.32343,E,2,10,1.49,42.8,M,-10.8,M,,0000*5E
$GNGSA,A,3,08,27,31,21,41,,,,,,,,2.28,1.49,1.73*14
$GNGSA,A,3,84,65,71,72,85,,,,,,,,2.28,1.49,1.73*1C
$GPGSV,4,1,14,03,04,229,15,07,05,306,20,08,43,200,34,09,30,308,28*77
$GPGSV,4,2,14,21,10,060,16,22,00,211,,23,52,280,23,26,40,044,*76
$GPGSV,4,3,14,27,71,167,39,31,28,106,31,40,18,253,,41,41,230,41*72
$GPGSV,4,4,14,42,41,130,29,50,41,130,29*7F
$GLGSV,3,1,11,65,16,316,30,71,19,216,42,72,31,270,32,73,40,048,18*6F
$GLGSV,3,2,11,74,41,340,,75,06,295,21,80,01,092,,83,33,047,16*61
$GLGSV,3,3,11,84,49,128,42,85,12,178,40,,,,43*6A
$GNGLL,3030.90073,N,11420.32343,E,102207.00,A,D*7A
$GNRMC,102208.00,A,3030.90075,N,11420.32347,E,0.146,,160119,,,D*63
$GNVTG,,T,,M,0.146,N,0.270,K,D*3E
$GNGGA,102208.00,3030.90075,N,11420.32347,E,2,09,1.49,42.7,M,-10.8,M,,0000*54
$GNGSA,A,3,08,27,31,21,41,,,,,,,,2.28,1.49,1.73*14
$GNGSA,A,3,84,71,72,85,,,,,,,,,2.28,1.49,1.73*1F
$GPGSV,4,1,14,03,04,229,12,07,05,306,19,08,43,200,34,09,30,308,27*75
$GPGSV,4,2,14,21,10,060,16,22,00,211,,23,52,280,24,26,40,044,*71
$GPGSV,4,3,14,27,71,167,40,31,28,106,32,40,18,253,,41,41,230,41*7F
$GPGSV,4,4,14,42,41,130,29,50,41,130,29*7F
$GLGSV,3,1,11,65,16,316,,71,19,216,43,72,31,270,32,73,40,048,15*60
$GLGSV,3,2,11,74,41,340,,75,06,295,22,80,01,092,,83,33,047,15*61
$GLGSV,3,3,11,84,49,128,42,85,12,178,39,,,,43*64
$GNGLL,3030.90075,N,11420.32347,E,102208.00,A,D*77
$GNRMC,102209.00,A,3030.90075,N,11420.32350,E,0.126,,160119,,,D*62
$GNVTG,,T,,M,0.126,N,0.234,K,D*38
$GNGGA,102209.00,3030.90075,N,11420.32350,E,2,10,1.49,42.7,M,-10.8,M,,0000*5B
$GNGSA,A,3,08,27,31,21,41,,,,,,,,2.28,1.49,1.73*14
$GNGSA,A,3,84,65,71,72,85,,,,,,,,2.28,1.49,1.73*1C
$GPGSV,4,1,14,03,04,229,12,07,05,306,16,08,43,200,34,09,30,308,27*7A
$GPGSV,4,2,14,21,10,060,17,22,00,211,,23,52,280,24,26,40,044,*70
$GPGSV,4,3,14,27,71,167,40,31,28,106,31,40,18,253,,41,41,230,42*7F
$GPGSV,4,4,14,42,41,130,30,50,41,130,30*7F
$GLGSV,3,1,11,65,16,316,33,71,19,216,42,72,31,270,32,73,40,048,10*64
$GLGSV,3,2,11,74,41,340,21,75,06,295,23,80,01,092,,83,33,047,14*62
$GLGSV,3,3,11,84,49,128,42,85,12,178,39,90,,,43*6D
$GNGLL,3030.90075,N,11420.32350,E,102209.00,A,D*70
$GNRMC,102210.00,A,3030.90078,N,11420.32352,E,0.268,,160119,,,D*6C
$GNVTG,,T,,M,0.268,N,0.496,K,D*3F
$GNGGA,102210.00,3030.90078,N,11420.32352,E,2,09,1.49,42.6,M,-10.8,M,,0000*55
$GNGSA,A,3,08,27,31,21,41,,,,,,,,2.28,1.49,1.73*14
$GNGSA,A,3,84,71,72,85,,,,,,,,,2.28,1.49,1.73*1F
$GPGSV,4,1,14,03,04,229,12,07,05,306,14,08,43,200,34,09,30,308,26*79
$GPGSV,4,2,14,21,10,060,17,22,00,211,,23,52,280,24,26,40,044,*70
$GPGSV,4,3,14,27,71,167,40,31,28,106,31,40,18,253,,41,41,230,42*7F
$GPGSV,4,4,14,42,41,130,30,50,41,130,30*7F
$GLGSV,3,1,10,65,16,316,31,71,19,216,43,72,31,270,32,73,40,048,14*62
$GLGSV,3,2,10,74,41,340,22,75,06,295,21,80,01,092,,83,33,047,15*63
$GLGSV,3,3,10,84,49,128,42,85,12,178,39*62
$GNGLL,3030.90078,N,11420.32352,E,102210.00,A,D*77
$GNRMC,102211.00,A,3030.90083,N,11420.32352,E,0.138,,160119,,,D*6F
$GNVTG,,T,,M,0.138,N,0.256,K,D*33
$GNGGA,102211.00,3030.90083,N,11420.32352,E,2,11,1.49,42.5,M,-10.8,M,,0000*5A
$GNGSA,A,3,08,27,31,21,41,,,,,,,,2.28,1.49,1.73*14
$GNGSA,A,3,84,65,71,72,83,85,,,,,,,2.28,1.49,1.73*17
$GPGSV,4,1,14,03,04,229,09,07,05,306,13,08,43,200,34,09,30,308,25*77
$GPGSV,4,2,14,21,10,060,18,22,00,211,,23,52,280,23,26,40,044,*78
$GPGSV,4,3,14,27,71,167,40,31,28,106,31,40,18,253,,41,41,230,42*7F
$GPGSV,4,4,14,42,41,130,30,50,41,130,30*7F
$GLGSV,3,1,11,65,16,316,31,71,19,216,43,72,31,270,32,73,40,048,20*64
$GLGSV,3,2,11,74,41,340,19,75,06,295,19,80,01,092,,83,33,047,15*61
$GLGSV,3,3,11,84,49,128,41,85,12,178,39,,,,42*66
$GNGLL,3030.90083,N,11420.32352,E,102211.00,A,D*72
$GNRMC,102212.00,A,3030.90088,N,11420.32353,E,0.196,,160119,,,D*62
$GNVTG,,T,,M,0.196,N,0.363,K,D*30
$GNGGA,102212.00,3030.90088,N,11420.32353,E,2,10,1.49,42.3,M,-10.8,M,,0000*54
$GNGSA,A,3,08,27,31,21,41,,,,,,,,2.28,1.49,1.73*14
$GNGSA,A,3,84,71,72,83,85,,,,,,,,2.28,1.49,1.73*14
$GPGSV,4,1,14,03,04,229,11,07,05,306,14,08,43,200,33,09,30,308,24*7F
$GPGSV,4,2,14,21,10,060,18,22,00,211,,23,52,280,23,26,40,044,*78
$GPGSV,4,3,14,27,71,167,40,31,28,106,30,40,18,253,,41,41,230,42*7E
$GPGSV,4,4,14,42,41,130,30,50,41,130,30*7F
$GLGSV,3,1,11,65,16,316,,71,19,216,42,72,31,270,32,73,40,048,22*65
$GLGSV,3,2,11,74,41,340,17,75,06,295,21,80,01,092,,83,33,047,13*62
$GLGSV,3,3,11,84,49,128,41,85,12,178,38,,,,42*67
$GNGLL,3030.90088,N,11420.32353,E,102212.00,A,D*7B
$GNRMC,102213.00,A,3030.90095,N,11420.32354,E,0.121,,160119,,,D*64
$GNVTG,,T,,M,0.121,N,0.225,K,D*3F
$GNGGA,102213.00,3030.90095,N,11420.32354,E,2,09,1.49,42.2,M,-10.8,M,,0000*57
$GNGSA,A,3,08,27,31,21,41,,,,,,,,2.28,1.49,1.73*14
$GNGSA,A,3,84,71,72,85,,,,,,,,,2.28,1.49,1.73*1F
$GPGSV,4,1,14,03,04,229,10,07,05,306,16,08,43,200,33,09,30,308,21*79
$GPGSV,4,2,14,21,10,060,20,22,00,211,,23,52,280,23,26,40,044,*73
$GPGSV,4,3,14,27,71,167,40,31,28,106,30,40,18,253,,41,41,230,42*7E
$GPGSV,4,4,14,42,41,130,30,50,41,130,30*7F
$GLGSV,3,1,11,65,16,316,26,71,18,216,42,72,31,270,32,73,40,048,24*66
$GLGSV,3,2,11,74,41,340,17,75,06,295,24,80,01,092,,83,33,047,11*65
$GLGSV,3,3,11,84,49,128,41,85,12,178,38,,,,43*66
$GNGLL,3030.90095,N,11420.32354,E,102213.00,A,D*71
$GNRMC,102214.00,A,3030.90103,N,11420.32355,E,0.108,,160119,,,D*67
$GNVTG,,T,,M,0.108,N,0.200,K,D*33
$GNGGA,102214.00,3030.90103,N,11420.32355,E,2,10,1.49,42.0,M,-10.8,M,,0000*55
$GNGSA,A,3,08,27,31,21,41,,,,,,,,2.28,1.49,1.73*14
$GNGSA,A,3,84,65,71,72,85,,,,,,,,2.28,1.49,1.73*1C
$GPGSV,4,1,14,03,04,229,10,07,05,306,16,08,43,200,33,09,30,308,20*78
$GPGSV,4,2,14,21,10,060,21,22,00,211,,23,52,280,24,26,40,044,*75
$GPGSV,4,3,14,27,71,167,40,31,28,106,30,40,18,253,,41,41,230,42*7E
$GPGSV,4,4,14,42,41,130,30,50,41,130,30*7F
$GLGSV,3,1,11,65,16,316,27,71,18,216,42,72,31,269,31,73,40,048,23*6B
$GLGSV,3,2,11,74,41,340,17,75,06,295,24,80,01,092,,83,33,047,12*66
$GLGSV,3,3,11,84,49,128,41,85,12,178,38,,,,43*66
$GNGLL,3030.90103,N,11420.32355,E,102214.00,A,D*79
$GNRMC,102215.00,A,3030.90117,N,11420.32356,E,0.046,,160119,,,D*6B
$GNVTG,,T,,M,0.046,N,0.086,K,D*34
$GNGGA,102215.00,3030.90117,N,11420.32356,E,2,09,1.49,41.7,M,-10.8,M,,0000*5E
$GNGSA,A,3,08,27,31,21,41,,,,,,,,2.28,1.49,1.73*14
$GNGSA,A,3,84,71,72,85,,,,,,,,,2.28,1.49,1.73*1F
$GPGSV,4,1,14,03,04,229,08,07,05,306,15,08,43,200,33,09,30,308,17*76
$GPGSV,4,2,14,21,10,060,22,22,00,211,,23,52,280,25,26,40,044,*77
$GPGSV,4,3,14,27,71,167,40,31,28,106,30,40,18,253,,41,41,230,42*7E
$GPGSV,4,4,14,42,41,130,29,50,41,130,30*77
$GLGSV,3,1,11,65,16,316,,71,18,216,42,72,31,269,31,73,40,048,21*6C
$GLGSV,3,2,11,74,41,340,18,75,06,295,24,80,01,092,,83,33,047,13*68
$GLGSV,3,3,11,84,49,128,41,85,12,178,38,,,,43*66
$GNGLL,3030.90117,N,11420.32356,E,102215.00,A,D*7E
$GNRMC,102216.00,A,3030.90131,N,11420.32358,E,0.021,,160119,,,D*63
$GNVTG,,T,,M,0.021,N,0.039,K,D*31
$GNGGA,102216.00,3030.90131,N,11420.32358,E,2,09,1.49,41.5,M,-10.8,M,,0000*55
$GNGSA,A,3,08,27,31,21,41,,,,,,,,2.28,1.49,1.73*14
$GNGSA,A,3,84,71,72,85,,,,,,,,,2.28,1.49,1.73*1F
$GPGSV,4,1,14,03,04,229,12,07,05,306,15,08,43,200,33,09,30,308,16*7C
$GPGSV,4,2,14,21,10,060,23,22,00,211,,23,52,280,25,26,40,044,*76
$GPGSV,4,3,14,27,71,167,40,31,28,106,30,40,18,253,,41,41,230,42*7E
$GPGSV,4,4,14,42,41,130,29,50,41,130,30*77
$GLGSV,3,1,11,65,16,316,26,71,18,216,42,72,31,269,30,73,40,048,20*68
$GLGSV,3,2,11,74,41,340,17,75,06,295,25,80,01,092,,83,33,047,13*66
$GLGSV,3,3,11,84,49,128,41,85,12,178,38,,,,43*66
$GNGLL,3030.90131,N,11420.32358,E,102216.00,A,D*77
$GNRMC,102217.00,A,3030.90146,N,11420.32359,E,0.044,,160119,,,D*60
$GNVTG,,T,,M,0.044,N,0.081,K,D*31
$GNGGA,102217.00,3030.90146,N,11420.32359,E,2,09,1.49,41.1,M,-10.8,M,,0000*51
$GNGSA,A,3,08,27,31,21,41,,,,,,,,2.28,1.49,1.73*14
$GNGSA,A,3,84,71,72,85,,,,,,,,,2.28,1.49,1.73*1F
$GPGSV,4,1,14,03,04,229,,07,05,306,17,08,43,200,34,09,30,308,12*7E
$GPGSV,4,2,14,21,10,060,24,22,00,211,,23,52,280,25,26,40,044,*71
$GPGSV,4,3,14,27,71,167,40,31,28,106,30,40,18,253,,41,41,230,42*7E
$GPGSV,4,4,14,42,41,130,29,50,41,130,30*77
$GLGSV,3,1,11,65,16,316,22,71,18,216,42,72,31,269,30,73,40,048,19*66
$GLGSV,3,2,11,74,41,340,16,75,06,296,26,80,01,092,,83,33,047,13*67
$GLGSV,3,3,11,84,49,128,41,85,12,178,37,,,,42*68
$GNGLL,3030.90146,N,11420.32359,E,102217.00,A,D*77
$GNRMC,102218.00,A,3030.90166,N,11420.32360,E,0.058,,160119,,,D*6A
$GNVTG,,T,,M,0.058,N,0.107,K,D*33
$GNGGA,102218.00,3030.90166,N,11420.32360,E,2,09,1.49,40.7,M,-10.8,M,,0000*51
$GNGSA,A,3,08,27,31,21,41,,,,,,,,2.28,1.49,1.73*14
$GNGSA,A,3,84,71,72,85,,,,,,,,,2.28,1.49,1.73*1F
$GPGSV,4,1,14,03,04,229,,07,05,306,19,08,43,200,34,09,30,308,13*71
$GPGSV,4,2,14,21,10,060,25,22,00,211,,23,52,280,25,26,40,044,*70
$GPGSV,4,3,14,27,71,167,40,31,28,106,30,40,18,253,,41,41,230,42*7E
$GPGSV,4,4,14,42,41,130,30,50,41,130,30*7F
$GLGSV,3,1,11,65,16,316,19,71,18,216,42,72,31,269,31,73,40,048,20*65
$GLGSV,3,2,11,74,41,340,16,75,06,296,26,80,01,092,,83,33,047,13*67
$GLGSV,3,3,11,84,49,128,41,85,12,178,37,,,,42*68
$GNGLL,3030.90166,N,11420.32360,E,102218.00,A,D*70
$GNRMC,102219.00,A,3030.90178,N,11420.32361,E,0.083,,160119,,,D*63
$GNVTG,,T,,M,0.083,N,0.154,K,D*33
$GNGGA,102219.00,3030.90178,N,11420.32361,E,2,10,1.49,40.4,M,-10.8,M,,0000*55
$GNGSA,A,3,08,27,31,21,41,,,,,,,,2.29,1.49,1.73*15
$GNGSA,A,3,84,65,71,72,85,,,,,,,,2.29,1.49,1.73*1D
$GPGSV,4,1,14,03,04,229,,07,05,306,20,08,43,200,34,09,30,308,18*70
$GPGSV,4,2,14,21,10,060,25,22,00,211,,23,52,280,24,26,40,044,*71
$GPGSV,4,3,14,27,71,167,39,31,28,106,31,40,18,253,,41,41,230,42*71
$GPGSV,4,4,14,42,41,130,30,50,41,130,30*7F
$GLGSV,3,1,11,65,16,316,17,71,18,216,42,72,31,269,31,73,40,048,21*6A
$GLGSV,3,2,11,74,41,340,15,75,06,296,25,80,01,092,,83,33,047,13*67
$GLGSV,3,3,11,84,49,128,41,85,12,178,37,,,,42*68
$GNGLL,3030.90178,N,11420.32361,E,102219.00,A,D*7F
$GNRMC,102220.00,A,3030.90188,N,11420.32362,E,0.154,,160119,,,D*6E
$GNVTG,,T,,M,0.154,N,0.285,K,D*37
$GNGGA,102220.00,3030.90188,N,11420.32362,E,2,09,1.49,40.2,M,-10.8,M,,0000*5D
$GNGSA,A,3,08,27,31,21,41,,,,,,,,2.29,1.49,1.73*15
$GNGSA,A,3,84,71,72,85,,,,,,,,,2.29,1.49,1.73*1E
$GPGSV,4,1,14,03,04,229,,07,05,306,21,08,43,200,34,09,30,308,20*7A
$GPGSV,4,2,14,21,10,060,26,22,00,211,,23,52,280,24,26,40,044,*72
$GPGSV,4,3,14,27,71,167,39,31,28,106,31,40,18,253,,41,41,230,42*71
$GPGSV,4,4,14,42,41,130,30,50,41,130,30*7F
$GLGSV,3,1,11,65,16,316,,71,18,216,43,72,31,269,30,73,40,048,22*6F
$GLGSV,3,2,11,74,41,340,19,75,06,296,23,80,01,092,,83,33,047,13*6D
$GLGSV,3,3,11,84,49,128,41,85,12,178,37,,,,42*68
$GNGLL,3030.90188,N,11420.32362,E,102220.00,A,D*79
$GNRMC,102221.00,A,3030.90197,N,11420.32362,E,0.061,,160119,,,D*66
$GNVTG,,T,,M,0.061,N,0.113,K,D*3C
$GNGGA,102221.00,3030.90197,N,11420.32362,E,2,09,1.49,40.1,M,-10.8,M,,0000*51
$GNGSA,A,3,08,27,31,21,41,,,,,,,,2.29,1.49,1.73*15
$GNGSA,A,3,84,71,72,85,,,,,,,,,2.29,1.49,1.73*1E
$GPGSV,4,1,14,03,04,229,,07,05,306,21,08,43,200,34,09,30,308,23*79
$GPGSV,4,2,14,21,10,060,26,22,00,211,,23,52,280,24,26,40,044,*72
$GPGSV,4,3,14,27,71,167,39,31,28,106,31,40,18,253,,41,41,230,42*71
$GPGSV,4,4,14,42,41,130,30,50,41,130,30*7F
$GLGSV,3,1,11,65,16,316,26,71,18,216,43,72,31,269,30,73,40,048,21*68
$GLGSV,3,2,11,74,41,340,20,75,06,296,25,80,01,092,,83,33,047,15*67
$GLGSV,3,3,11,84,49,128,41,85,12,178,38,,,,42*67
$GNGLL,3030.90197,N,11420.32362,E,102221.00,A,D*76
$GNRMC,102222.00,A,3030.90206,N,11420.32363,E,0.138,,160119,,,D*62
$GNVTG,,T,,M,0.138,N,0.255,K,D*30
$GNGGA,102222.00,3030.90206,N,11420.32363,E,2,10,1.49,39.9,M,-10.8,M,,0000*56
$GNGSA,A,3,08,27,31,21,41,,,,,,,,2.29,1.49,1.73*15
$GNGSA,A,3,84,65,71,72,85,,,,,,,,2.29,1.49,1.73*1D
$GPGSV,4,1,14,03,04,229,,07,05,306,20,08,43,200,34,09,30,308,24*7F
$GPGSV,4,2,14,21,10,060,27,22,00,211,,23,52,280,22,26,40,044,*75
$GPGSV,4,3,14,27,71,167,39,31,28,106,32,40,18,253,,41,41,230,42*72
$GPGSV,4,4,14,42,41,130,30,50,41,130,30*7F
$GLGSV,3,1,11,65,16,316,25,71,18,216,43,72,31,269,30,73,40,048,21*6B
$GLGSV,3,2,11,74,41,340,22,75,06,296,26,80,01,092,,83,33,047,14*67
$GLGSV,3,3,11,84,49,128,41,85,12,178,38,,,,42*67
$GNGLL,3030.90206,N,11420.32363,E,102222.00,A,D*7F
$GNRMC,102223.00,A,3030.90217,N,11420.32363,E,0.028,,160119,,,D*63
$GNVTG,,T,,M,0.028,N,0.051,K,D*36
$GNGGA,102223.00,3030.90217,N,11420.32363,E,2,09,1.49,39.7,M,-10.8,M,,0000*51
$GNGSA,A,3,08,27,31,21,41,,,,,,,,2.29,1.49,1.73*15
$GNGSA,A,3,84,71,72,85,,,,,,,,,2.29,1.49,1.73*1E
$GPGSV,4,1,14,03,04,229,,07,05,306,21,08,43,200,34,09,30,308,25*7F
$GPGSV,4,2,14,21,10,060,26,22,00,211,,23,52,280,22,26,40,044,*74
$GPGSV,4,3,14,27,71,167,39,31,28,106,32,40,18,253,,41,41,230,42*72
$GPGSV,4,4,14,42,41,130,30,50,41,130,30*7F
$GLGSV,3,1,11,65,16,316,,71,18,216,43,72,31,269,30,73,40,048,20*6D
$GLGSV,3,2,11,74,41,340,22,75,06,296,25,80,01,092,,83,33,047,13*63
$GLGSV,3,3,11,84,49,128,42,85,12,178,38,,,,43*65
$GNGLL,3030.90217,N,11420.32363,E,102223.00,A,D*7E
$GNRMC,102224.00,A,3030.90232,N,11420.32365,E,0.047,,160119,,,D*6C
$GNVTG,,T,,M,0.047,N,0.087,K,D*34
$GNGGA,102224.00,3030.90232,N,11420.32365,E,2,10,1.49,39.4,M,-10.8,M,,0000*5C
$GNGSA,A,3,08,27,31,21,41,,,,,,,,2.29,1.49,1.73*15
$GNGSA,A,3,84,65,71,72,85,,,,,,,,2.29,1.49,1.73*1D
$GPGSV,4,1,14,03,04,229,19,07,05,306,22,08,43,200,33,09,30,308,25*73
$GPGSV,4,2,14,21,10,060,27,22,00,211,,23,52,280,22,26,40,044,*75
$GPGSV,4,3,14,27,71,167,39,31,28,106,32,40,18,253,,41,41,230,42*72
$GPGSV,4,4,14,42,41,130,29,50,41,130,30*77
$GLGSV,3,1,11,65,16,316,31,71,18,216,43,72,31,269,29,73,40,048,20*67
$GLGSV,3,2,11,74,41,340,,75,06,296,21,80,01,092,,83,33,047,13*67
$GLGSV,3,3,11,84,49,128,42,85,12,178,39,,,,43*64
$GNGLL,3030.90232,N,11420.32365,E,102224.00,A,D*78
$GNRMC,102225.00,A,3030.90245,N,11420.32362,E,0.107,,160119,,,D*6F
$GNVTG,,T,,M,0.107,N,0.198,K,D*3E
$GNGGA,102225.00,3030.90245,N,11420.32362,E,2,09,1.49,39.3,M,-10.8,M,,0000*55
$GNGSA,A,3,08,27,31,21,41,,,,,,,,2.29,1.49,1.73*15
$GNGSA,A,3,84,71,72,85,,,,,,,,,2.29,1.49,1.73*1E
$GPGSV,4,1,14,03,04,229,19,07,05,306,22,08,43,200,33,09,30,308,24*72
$GPGSV,4,2,14,21,10,060,26,22,00,211,,23,52,280,22,26,40,044,*74
$GPGSV,4,3,14,27,71,167,39,31,28,106,32,40,18,253,,41,41,230,42*72
$GPGSV,4,4,14,42,41,130,30,50,41,130,30*7F
$GLGSV,3,1,11,65,16,316,29,71,18,216,43,72,31,269,29,73,40,048,19*64
$GLGSV,3,2,11,74,41,340,,75,06,296,18,80,01,092,,83,33,046,13*6C
$GLGSV,3,3,11,84,49,128,42,85,12,178,39,,,,43*64
$GNGLL,3030.90245,N,11420.32362,E,102225.00,A,D*7E
$GNRMC,102226.00,A,3030.90259,N,11420.32359,E,0.140,,160119,,,D*6A
$GNVTG,,T,,M,0.140,N,0.260,K,D*39
$GNGGA,102226.00,3030.90259,N,11420.32359,E,2,10,1.49,39.1,M,-10.8,M,,0000*59
$GNGSA,A,3,08,27,31,21,41,,,,,,,,2.29,1.49,1.73*15
$GNGSA,A,3,84,65,71,72,85,,,,,,,,2.29,1.49,1.73*1D
$GPGSV,4,1,14,03,04,229,19,07,05,306,23,08,43,200,33,09,30,308,24*73
$GPGSV,4,2,14,21,10,060,26,22,00,211,,23,52,280,23,26,40,044,*75
$GPGSV,4,3,14,27,71,167,39,31,28,106,32,40,18,253,,41,41,230,42*72
$GPGSV,4,4,14,42,41,130,29,50,41,130,31*76
$GLGSV,3,1,11,65,16,316,30,71,18,216,43,72,31,269,30,73,40,048,16*6B
$GLGSV,3,2,11,74,41,340,,75,06,296,17,80,01,092,,83,33,046,13*63
$GLGSV,3,3,11,84,49,127,42,85,12,178,39,,,,43*6B
$GNGLL,3030.90259,N,11420.32359,E,102226.00,A,D*78
$GNRMC,102227.00,A,3030.90273,N,11420.32356,E,0.128,,160119,,,D*62
$GNVTG,,T,,M,0.128,N,0.237,K,D*35
$GNGGA,102227.00,3030.90273,N,11420.32356,E,2,09,1.49,38.9,M,-10.8,M,,0000*5E
$GNGSA,A,3,08,27,31,21,41,,,,,,,,2.29,1.49,1.73*15
$GNGSA,A,3,84,71,72,85,,,,,,,,,2.29,1.49,1.73*1E
$GPGSV,4,1,14,03,04,229,19,07,05,306,22,08,43,200,33,09,30,308,23*75
$GPGSV,4,2,14,21,10,060,25,22,00,211,,23,52,280,24,26,40,044,*71
$GPGSV,4,3,14,27,71,167,39,31,28,106,32,40,18,253,,41,41,230,42*72
$GPGSV,4,4,14,42,41,130,30,50,41,130,30*7F
$GLGSV,3,1,11,65,16,316,29,71,18,216,42,72,31,269,30,73,40,048,15*61
$GLGSV,3,2,11,74,41,340,,75,06,296,18,80,01,092,,83,33,046,11*6E
$GLGSV,3,3,11,84,49,127,41,85,13,178,39,,,,43*69
$GNGLL,3030.90273,N,11420.32356,E,102227.00,A,D*7E
$GNRMC,102228.00,A,3030.90282,N,11420.32352,E,0.158,,160119,,,D*60
$GNVTG,,T,,M,0.158,N,0.292,K,D*3D
$GNGGA,102228.00,3030.90282,N,11420.32352,E,2,10,1.49,38.9,M,-10.8,M,,0000*53
$GNGSA,A,3,08,27,31,21,41,,,,,,,,2.29,1.49,1.73*15
$GNGSA,A,3,84,65,71,72,85,,,,,,,,2.29,1.49,1.73*1D
$GPGSV,4,1,14,03,04,229,19,07,05,306,21,08,43,200,33,09,30,308,23*76
$GPGSV,4,2,14,21,10,060,25,22,00,211,,23,52,280,24,26,40,044,*71
$GPGSV,4,3,14,27,71,167,39,31,28,106,32,40,18,253,,41,41,230,42*72
$GPGSV,4,4,14,42,41,130,29,50,41,130,30*77
$GLGSV,3,1,11,65,16,316,30,71,18,216,42,72,31,269,30,73,40,048,16*6A
$GLGSV,3,2,11,74,41,340,24,75,06,296,17,80,01,092,,83,33,046,12*64
$GLGSV,3,3,11,84,49,127,41,85,13,178,40,,,,43*67
$GNGLL,3030.90282,N,11420.32352,E,102228.00,A,D*7B
$GNRMC,102229.00,A,3030.90288,N,11420.32349,E,0.147,,160119,,,D*6F
$GNVTG,,T,,M,0.147,N,0.273,K,D*3C
$GNGGA,102229.00,3030.90288,N,11420.32349,E,2,09,1.49,38.9,M,-10.8,M,,0000*5A
$GNGSA,A,3,08,27,31,21,41,,,,,,,,2.29,1.49,1.73*15
$GNGSA,A,3,84,71,72,85,,,,,,,,,2.29,1.49,1.73*1E
$GPGSV,4,1,14,03,04,229,18,07,05,306,19,08,43,200,32,09,30,308,22*7C
$GPGSV,4,2,14,21,10,060,25,22,00,211,,23,52,280,24,26,40,044,*71
$GPGSV,4,3,14,27,71,167,39,31,28,106,32,40,18,253,,41,41,230,41*71
$GPGSV,4,4,14,42,41,130,29,50,41,130,30*77
$GLGSV,3,1,11,65,16,316,,71,18,216,42,72,31,269,30,73,40,048,18*67
$GLGSV,3,2,11,74,41,340,24,75,06,296,16,80,01,092,,83,33,046,12*65
$GLGSV,3,3,11,84,49,127,41,85,13,178,40,,,,42*66
$GNGLL,3030.90288,N,11420.32349,E,102229.00,A,D*7A
$GNRMC,102230.00,A,3030.90293,N,11420.32349,E,0.317,,160119,,,D*6A
$GNVTG,,T,,M,0.317,N,0.586,K,D*36
$GNGGA,102230.00,3030.90293,N,11420.32349,E,2,09,1.49,38.9,M,-10.8,M,,0000*58
$GNGSA,A,3,08,27,31,21,41,,,,,,,,2.29,1.49,1.73*15
$GNGSA,A,3,84,71,72,85,,,,,,,,,2.29,1.49,1.73*1E
$GPGSV,4,1,14,03,04,229,17,07,05,306,18,08,43,200,33,09,30,308,21*70
$GPGSV,4,2,14,21,10,060,24,22,00,211,,23,52,280,23,26,40,044,*77
$GPGSV,4,3,14,27,71,167,39,31,28,106,31,40,18,253,,41,41,230,41*72
$GPGSV,4,4,14,42,41,130,29,50,41,130,30*77
$GLGSV,3,1,11,65,16,316,26,71,18,216,41,72,31,269,31,73,40,048,20*6A
$GLGSV,3,2,11,74,41,340,25,75,06,296,,80,01,092,,83,33,046,13*62
$GLGSV,3,3,11,84,49,127,41,85,13,178,40,,,,43*67
$GNGLL,3030.90293,N,11420.32349,E,102230.00,A,D*78
$GNRMC,102231.00,A,3030.90297,N,11420.32349,E,0.155,,160119,,,D*6B
$GNVTG,,T,,M,0.155,N,0.287,K,D*34
$GNGGA,102231.00,3030.90297,N,11420.32349,E,2,09,1.49,39.0,M,-10.8,M,,0000*55
$GNGSA,A,3,08,27,31,21,41,,,,,,,,2.29,1.49,1.73*15
$GNGSA,A,3,84,71,72,85,,,,,,,,,2.29,1.49,1.73*1E
$GPGSV,4,1,14,03,04,229,17,07,05,306,20,08,43,200,33,09,30,308,20*7A
$GPGSV,4,2,14,21,10,060,23,22,00,211,,23,52,280,22,26,40,044,*71
$GPGSV,4,3,14,27,71,167,38,31,28,106,31,40,18,253,,41,41,230,41*73
$GPGSV,4,4,14,42,41,130,29,50,41,130,29*7F
$GLGSV,3,1,11,65,16,316,25,71,18,216,41,72,31,269,31,73,40,048,22*6B
$GLGSV,3,2,11,74,41,340,22,75,06,296,,80,01,092,,83,33,046,13*65
$GLGSV,3,3,11,84,49,127,41,85,13,178,40,,,,43*67
$GNGLL,3030.90297,N,11420.32349,E,102231.00,A,D*7D
$GNRMC,102232.00,A,3030.90307,N,11420.32351,E,0.095,,160119,,,D*64
$GNVTG,,T,,M,0.095,N,0.175,K,D*37
$GNGGA,102232.00,3030.90307,N,11420.32351,E,2,10,1.49,38.9,M,-10.8,M,,0000*57
$GNGSA,A,3,08,27,31,21,41,,,,,,,,2.29,1.49,1.73*15
$GNGSA,A,3,84,65,71,72,85,,,,,,,,2.29,1.49,1.73*1D
$GPGSV,4,1,14,03,04,229,17,07,05,306,21,08,43,200,33,09,30,308,19*71
$GPGSV,4,2,14,21,10,060,23,22,00,211,,23,52,280,22,26,40,044,*71
$GPGSV,4,3,14,27,71,167,38,31,28,106,30,40,18,253,,41,41,230,41*72
$GPGSV,4,4,14,42,41,130,29,50,41,130,29*7F
$GLGSV,3,1,11,65,16,316,24,71,18,216,40,72,31,269,30,73,40,048,23*6B
$GLGSV,3,2,11,74,41,340,19,75,06,296,,80,01,092,,83,33,046,14*6A
$GLGSV,3,3,11,84,49,127,41,85,13,178,40,,,,43*67
$GNGLL,3030.90307,N,11420.32351,E,102232.00,A,D*7F
$GNRMC,102233.00,A,3030.90320,N,11420.32351,E,0.062,,160119,,,D*68
$GNVTG,,T,,M,0.062,N,0.115,K,D*39
$GNGGA,102233.00,3030.90320,N,11420.32351,E,2,09,1.49,38.8,M,-10.8,M,,0000*5A
$GNGSA,A,3,08,27,31,21,41,,,,,,,,2.29,1.49,1.73*15
$GNGSA,A,3,84,71,72,85,,,,,,,,,2.29,1.49,1.73*1E
$GPGSV,4,1,14,03,04,229,17,07,05,306,20,08,43,200,33,09,30,308,19*70
$GPGSV,4,2,14,21,10,060,22,22,00,211,,23,52,280,22,26,40,044,*70
$GPGSV,4,3,14,27,71,167,38,31,28,106,30,40,18,253,,41,41,230,41*72
$GPGSV,4,4,14,42,41,130,29,50,41,130,29*7F
$GLGSV,3,1,11,65,16,316,,71,18,216,39,72,31,269,30,73,40,048,22*62
$GLGSV,3,2,11,74,41,340,19,75,06,296,,80,01,092,,83,33,046,13*6D
$GLGSV,3,3,11,84,49,127,41,85,13,178,40,,,,43*67
$GNGLL,3030.90320,N,11420.32351,E,102233.00,A,D*7B
$GNRMC,102234.00,A,3030.90331,N,11420.32350,E,0.121,,160119,,,D*68
$GNVTG,,T,,M,0.121,N,0.224,K,D*3E
$GNGGA,102234.00,3030.90331,N,11420.32350,E,2,09,1.50,38.7,M,-10.8,M,,0000*5B
$GNGSA,A,3,08,27,31,21,41,,,,,,,,2.29,1.50,1.73*1D
$GNGSA,A,3,84,71,72,85,,,,,,,,,2.29,1.50,1.73*16
$GPGSV,4,1,14,03,04,229,15,07,05,306,19,08,43,200,33,09,30,308,17*76
$GPGSV,4,2,14,21,10,060,21,22,00,211,,23,52,280,22,26,40,044,*73
$GPGSV,4,3,14,27,71,167,37,31,28,106,30,40,18,253,,41,41,230,41*7D
$GPGSV,4,4,14,42,41,130,29,50,41,130,29*7F
$GLGSV,3,1,11,65,16,316,26,71,18,216,38,72,31,269,30,73,40,048,21*64
$GLGSV,3,2,11,74,41,340,20,75,06,296,,80,01,092,,83,33,046,13*67
$GLGSV,3,3,11,84,49,127,41,85,13,178,40,,,,42*66
$GNGLL,3030.90331,N,11420.32350,E,102234.00,A,D*7D
$GNRMC,102235.00,A,3030.90343,N,11420.32346,E,0.175,,160119,,,D*6A
$GNVTG,,T,,M,0.175,N,0.323,K,D*39
$GNGGA,102235.00,3030.90343,N,11420.32346,E,2,10,1.50,38.6,M,-10.8,M,,0000*51
$GNGSA,A,3,08,27,31,21,41,,,,,,,,2.29,1.50,1.73*1D
$GNGSA,A,3,84,65,71,72,85,,,,,,,,2.29,1.50,1.73*15
$GPGSV,4,1,14,03,04,229,15,07,05,306,18,08,43,200,33,09,30,308,18*78
$GPGSV,4,2,14,21,10,060,20,22,00,211,,23,52,280,22,26,40,044,*72
$GPGSV,4,3,14,27,71,167,37,31,28,106,30,40,18,253,,41,41,230,41*7D
$GPGSV,4,4,14,42,41,130,29,50,41,130,29*7F
$GLGSV,3,1,11,65,16,316,26,71,18,216,37,72,31,269,30,73,40,048,19*60
$GLGSV,3,2,11,74,41,340,22,75,06,296,,80,01,092,,83,33,046,12*64
$GLGSV,3,3,11,84,49,127,41,85,13,178,40,,,,42*66
$GNGLL,3030.90343,N,11420.32346,E,102235.00,A,D*7E
$GNRMC,102236.00,A,3030.90353,N,11420.32344,E,0.132,,160119,,,D*69
$GNVTG,,T,,M,0.132,N,0.245,K,D*3B
$GNGGA,102236.00,3030.90353,N,11420.32344,E,2,09,1.50,38.5,M,-10.8,M,,0000*5A
$GNGSA,A,3,08,27,31,21,41,,,,,,,,2.29,1.50,1.73*1D
$GNGSA,A,3,84,71,72,85,,,,,,,,,2.29,1.50,1.73*16
$GPGSV,4,1,14,03,04,229,13,07,05,306,18,08,43,200,34,09,30,308,19*78
$GPGSV,4,2,14,21,10,060,19,22,00,211,,23,52,280,23,26,40,044,*79
$GPGSV,4,3,14,27,71,167,37,31,28,106,30,40,18,253,,41,41,230,41*7D
$GPGSV,4,4,14,42,41,130,28,50,41,130,29*7E
$GLGSV,3,1,11,65,16,316,,71,18,216,37,72,31,269,30,73,40,048,19*64
$GLGSV,3,2,11,74,41,340,22,75,06,296,,80,01,092,,83,33,046,14*62
$GLGSV,3,3,11,84,49,127,41,85,13,178,40,,,,43*67
$GNGLL,3030.90353,N,11420.32344,E,102236.00,A,D*7E
$GNRMC,102237.00,A,3030.90362,N,11420.32341,E,0.153,,160119,,,D*68
$GNVTG,,T,,M,0.153,N,0.284,K,D*31
$GNGGA,102237.00,3030.90362,N,11420.32341,E,2,10,1.50,38.5,M,-10.8,M,,0000*54
$GNGSA,A,3,08,27,31,21,41,,,,,,,,2.29,1.50,1.73*1D
$GNGSA,A,3,84,71,72,83,85,,,,,,,,2.29,1.50,1.73*1D
$GPGSV,4,1,14,03,04,229,14,07,05,306,18,08,43,200,34,09,30,308,18*7E
$GPGSV,4,2,14,21,10,060,19,22,00,211,,23,52,280,22,26,40,044,*78
$GPGSV,4,3,14,27,71,167,37,31,28,106,30,40,18,253,,41,41,230,41*7D
$GPGSV,4,4,14,42,41,130,28,50,41,130,29*7E
$GLGSV,3,1,11,65,16,316,25,71,18,216,37,72,31,269,30,73,40,048,17*6D
$GLGSV,3,2,11,74,41,340,22,75,06,296,,80,01,092,,83,33,046,16*60
$GLGSV,3,3,11,84,49,127,41,85,13,178,40,,,,43*67
$GNGLL,3030.90362,N,11420.32341,E,102237.00,A,D*78
$GNRMC,102238.00,A,3030.90371,N,11420.32338,E,0.126,,160119,,,D*69
$GNVTG,,T,,M,0.126,N,0.234,K,D*38
$GNGGA,102238.00,3030.90371,N,11420.32338,E,2,11,1.50,38.4,M,-10.8,M,,0000*57
$GNGSA,A,3,08,27,31,21,41,,,,,,,,2.29,1.50,1.73*1D
$GNGSA,A,3,84,65,71,72,83,85,,,,,,,2.29,1.50,1.73*1E
$GPGSV,4,1,14,03,04,229,12,07,05,306,18,08,43,200,35,09,30,308,19*78
$GPGSV,4,2,14,21,10,060,17,22,00,211,,23,52,280,22,26,40,044,*76
$GPGSV,4,3,14,27,71,167,37,31,28,106,30,40,18,253,,41,41,230,41*7D
$GPGSV,4,4,14,42,41,130,28,50,41,130,29*7E
$GLGSV,3,1,11,65,16,316,26,71,18,216,37,72,31,269,30,73,40,048,18*61
$GLGSV,3,2,11,74,41,340,21,75,06,296,,80,01,092,,83,33,046,18*6D
$GLGSV,3,3,11,84,49,127,41,85,13,178,39,,,,43*69
$GNGLL,3030.90371,N,11420.32338,E,102238.00,A,D*7B
$GNRMC,102239.00,A,3030.90379,N,11420.32334,E,0.181,,160119,,,D*61
$GNVTG,,T,,M,0.181,N,0.335,K,D*35
$GNGGA,102239.00,3030.90379,N,11420.32334,E,2,10,1.50,38.4,M,-10.8,M,,0000*53
$GNGSA,A,3,08,27,31,21,41,,,,,,,,2.29,1.50,1.73*1D
$GNGSA,A,3,84,71,72,83,85,,,,,,,,2.29,1.50,1.73*1D
$GPGSV,4,1,14,03,04,229,11,07,05,306,18,08,43,200,36,09,30,308,19*78
$GPGSV,4,2,14,21,10,060,15,22,00,211,,23,52,280,22,26,40,044,*74
$GPGSV,4,3,14,27,71,167,37,31,28,106,31,40,18,253,,41,41,230,41*7C
$GPGSV,4,4,14,42,41,130,29,50,41,130,30*77
$GLGSV,3,1,10,65,16,316,,71,18,216,38,72,31,269,30,73,40,048,16*65
$GLGSV,3,2,10,74,41,340,20,75,06,296,,80,01,092,,83,33,046,18*6D
$GLGSV,3,3,10,84,49,127,41,85,13,178,39*6F
$GNGLL,3030.90379,N,11420.32334,E,102239.00,A,D*7E
$GNRMC,102240.00,A,3030.90384,N,11420.32330,E,0.192,,160119,,,D*6B
$GNVTG,,T,,M,0.192,N,0.356,K,D*32
$GNGGA,102240.00,3030.90384,N,11420.32330,E,2,10,1.50,38.4,M,-10.8,M,,0000*5B
$GNGSA,A,3,08,27,31,21,41,,,,,,,,2.29,1.50,1.73*1D
$GNGSA,A,3,84,71,72,83,85,,,,,,,,2.29,1.50,1.73*1D
$GPGSV,4,1,14,03,04,229,10,07,05,306,17,08,43,200,36,09,30,308,20*7C
$GPGSV,4,2,14,21,10,060,11,22,00,211,,23,52,280,23,26,40,044,*71
$GPGSV,4,3,14,27,71,167,37,31,28,106,31,40,18,253,,41,41,230,42*7F
$GPGSV,4,4,14,42,41,130,30,50,41,130,30*7F
$GLGSV,3,1,10,65,16,316,26,71,18,216,38,72,31,269,30,73,40,048,14*63
$GLGSV,3,2,10,74,41,340,21,75,06,296,,80,01,092,,83,33,046,19*6D
$GLGSV,3,3,10,84,49,127,41,85,13,178,39*6F
$GNGLL,3030.90384,N,11420.32330,E,102240.00,A,D*76
$GNRMC,102241.00,A,3030.90386,N,11420.32324,E,0.317,,160119,,,D*62
$GNVTG,,T,,M,0.317,N,0.587,K,D*37
$GNGGA,102241.00,3030.90386,N,11420.32324,E,2,10,1.50,38.5,M,-10.8,M,,0000*5C
$GNGSA,A,3,08,27,31,41,,,,,,,,,2.29,1.50,1.73*1E
$GNGSA,A,3,84,65,71,72,83,85,,,,,,,2.29,1.50,1.73*1E
$GPGSV,4,1,14,03,04,229,09,07,05,306,17,08,43,200,36,09,30,308,21*75
$GPGSV,4,2,14,21,10,059,08,22,00,211,,23,52,280,23,26,40,044,*73
$GPGSV,4,3,14,27,71,167,38,31,28,106,32,40,18,253,,41,41,230,42*73
$GPGSV,4,4,14,42,41,130,30,50,41,130,30*7F
$GLGSV,3,1,11,65,16,316,26,71,18,216,40,72,31,269,31,73,40,048,12*6A
$GLGSV,3,2,11,74,41,340,24,75,06,296,,80,01,092,,83,33,046,19*69
$GLGSV,3,3,11,84,49,127,41,85,13,178,38,,,,43*68
$GNGLL,3030.90386,N,11420.32324,E,102241.00,A,D*70
$GNRMC,102242.00,A,3030.90387,N,11420.32320,E,0.196,,160119,,,D*6F
$GNVTG,,T,,M,0.196,N,0.363,K,D*30
$GNGGA,102242.00,3030.90387,N,11420.32320,E,2,09,1.50,38.6,M,-10.8,M,,0000*51
$GNGSA,A,3,08,27,31,41,,,,,,,,,2.29,1.50,1.73*1E
$GNGSA,A,3,84,71,72,83,85,,,,,,,,2.29,1.50,1.73*1D
$GPGSV,4,1,14,03,04,229,09,07,05,306,17,08,43,200,36,09,30,308,21*75
$GPGSV,4,2,14,21,10,059,07,22,00,210,,23,52,280,24,26,40,044,*7A
$GPGSV,4,3,14,27,71,167,38,31,28,106,32,40,18,253,,41,41,230,42*73
$GPGSV,4,4,14,42,41,130,29,50,41,130,30*77
$GLGSV,3,1,11,65,16,316,,71,18,216,41,72,31,269,30,73,40,048,11*6D
$GLGSV,3,2,11,74,41,340,24,75,06,296,,80,01,092,,83,33,046,19*69
$GLGSV,3,3,11,84,49,127,41,85,13,178,38,,,,43*68
$GNGLL,3030.90387,N,11420.32320,E,102242.00,A,D*76
$GNRMC,102243.00,A,3030.90388,N,11420.32318,E,0.069,,160119,,,D*6B
$GNVTG,,T,,M,0.069,N,0.128,K,D*3C
$GNGGA,102243.00,3030.90388,N,11420.32318,E,2,11,1.50,38.7,M,-10.8,M,,0000*5C
$GNGSA,A,3,08,27,31,21,41,,,,,,,,2.29,1.50,1.73*1D
$GNGSA,A,3,84,65,71,72,83,85,,,,,,,2.29,1.50,1.73*1E
$GPGSV,4,1,14,03,04,229,17,07,05,306,,08,43,200,35,09,30,308,21*7F
$GPGSV,4,2,14,21,10,059,10,22,00,210,,23,52,279,25,26,40,044,*7B
$GPGSV,4,3,14,27,71,167,38,31,28,106,32,40,18,253,,41,41,230,42*73
$GPGSV,4,4,14,42,41,130,30,50,41,130,30*7F
$GLGSV,3,1,11,65,16,316,29,71,18,216,41,72,31,269,30,73,40,048,11*66
$GLGSV,3,2,11,74,41,340,21,75,06,296,,80,01,092,,83,33,046,20*66
$GLGSV,3,3,11,84,49,127,41,85,13,178,38,,,,43*68
$GNGLL,3030.90388,N,11420.32318,E,102243.00,A,D*73
$GNRMC,102244.00,A,3030.90388,N,11420.32317,E,0.242,,160119,,,D*68
$GNVTG,,T,,M,0.242,N,0.448,K,D*34
$GNGGA,102244.00,3030.90388,N,11420.32317,E,2,10,1.50,38.9,M,-10.8,M,,0000*5B
$GNGSA,A,3,08,27,31,21,41,,,,,,,,2.29,1.50,1.73*1D
$GNGSA,A,3,84,71,72,83,85,,,,,,,,2.29,1.50,1.73*1D
$GPGSV,4,1,14,03,04,229,18,07,05,306,,08,43,200,35,09,30,308,20*71
$GPGSV,4,2,14,21,10,059,09,22,00,210,,23,52,279,26,26,40,044,*70
$GPGSV,4,3,14,27,71,167,38,31,28,106,32,40,18,253,,41,41,230,42*73
$GPGSV,4,4,14,42,41,130,30,50,41,130,30*7F
$GLGSV,3,1,11,65,16,316,,71,18,216,42,72,31,269,31,73,40,048,09*66
$GLGSV,3,2,11,74,41,340,19,75,06,296,,80,01,092,,83,33,046,21*6C
$GLGSV,3,3,11,84,49,127,41,85,13,178,38,,,,43*68
$GNGLL,3030.90388,N,11420.32317,E,102244.00,A,D*7B
$GNRMC,102245.00,A,3030.90383,N,11420.32317,E,0.059,,160119,,,D*6A
$GNVTG,,T,,M,0.059,N,0.109,K,D*3C
$GNGGA,102245.00,3030.90383,N,11420.32317,E,2,10,0.99,39.0,M,-10.8,M,,0000*5D
$GNGSA,A,3,08,27,31,21,41,,,,,,,,1.62,0.99,1.28*1B
$GNGSA,A,3,84,71,72,83,85,,,,,,,,1.62,0.99,1.28*1B
$GPGSV,4,1,14,03,04,229,14,07,05,306,,08,43,200,35,09,30,308,20*7D
$GPGSV,4,2,14,21,10,059,10,22,00,210,,23,52,279,26,26,40,044,*78
$GPGSV,4,3,14,27,71,167,38,31,28,106,33,40,18,253,,41,41,230,42*72
$GPGSV,4,4,14,42,41,130,29,50,41,130,30*77
$GLGSV,3,1,11,65,16,316,25,71,18,216,43,72,31,269,30,73,40,048,08*60
$GLGSV,3,2,11,74,41,340,18,75,06,296,,80,01,092,,83,33,046,22*6E
$GLGSV,3,3,11,84,49,127,41,85,13,178,37,,,,42*66
$GNGLL,3030.90383,N,11420.32317,E,102245.00,A,D*71
$GNRMC,102246.00,A,3030.90381,N,11420.32316,E,0.068,,160119,,,D*68
$GNVTG,,T,,M,0.068,N,0.125,K,D*30
$GNGGA,102246.00,3030.90381,N,11420.32316,E,2,11,0.99,39.2,M,-10.8,M,,0000*5E
$GNGSA,A,3,08,27,31,21,41,,,,,,,,1.62,0.99,1.28*1B
$GNGSA,A,3,84,65,71,72,83,85,,,,,,,1.62,0.99,1.28*18
$GPGSV,4,1,14,03,04,229,15,07,05,306,,08,43,200,35,09,30,308,20*7C
$GPGSV,4,2,14,21,10,059,09,22,00,210,,23,52,279,27,26,39,044,*7F
$GPGSV,4,3,14,27,71,167,38,31,28,106,33,40,18,253,,41,41,230,42*72
$GPGSV,4,4,14,42,41,130,29,50,41,130,30*77
$GLGSV,3,1,11,65,16,316,26,71,18,216,43,72,31,269,31,73,40,048,09*63
$GLGSV,3,2,11,74,41,340,,75,06,296,,80,01,092,,83,33,046,22*67
$GLGSV,3,3,11,84,49,127,41,85,13,178,37,,,,42*66
$GNGLL,3030.90381,N,11420.32316,E,102246.00,A,D*71
$GNRMC,102247.00,A,3030.90377,N,11420.32316,E,0.030,,160119,,,D*6D
$GNVTG,,T,,M,0.030,N,0.055,K,D*3B
$GNGGA,102247.00,3030.90377,N,11420.32316,E,2,10,1.50,39.4,M,-10.8,M,,0000*55
$GNGSA,A,3,08,27,31,21,41,,,,,,,,2.29,1.50,1.73*1D
$GNGSA,A,3,84,71,72,83,85,,,,,,,,2.29,1.50,1.73*1D
$GPGSV,4,1,14,03,04,229,12,07,05,306,,08,43,200,34,09,30,308,20*7A
$GPGSV,4,2,14,21,10,059,11,22,00,210,,23,52,279,27,26,39,044,*76
$GPGSV,4,3,14,27,72,166,38,31,28,106,33,40,18,253,,41,41,230,42*70
$GPGSV,4,4,14,42,41,130,30,50,41,130,30*7F
$GLGSV,3,1,11,65,16,316,,71,18,216,43,72,31,269,32,73,40,048,10*6C
$GLGSV,3,2,11,74,41,340,,75,06,296,,80,01,092,,83,33,046,22*67
$GLGSV,3,3,11,84,49,127,41,85,13,178,36,,,,42*67
$GNGLL,3030.90377,N,11420.32316,E,102247.00,A,D*79
$GNRMC,102248.00,A,3030.90370,N,11420.32318,E,0.090,,160119,,,D*61
$GNVTG,,T,,M,0.090,N,0.166,K,D*30
$GNGGA,102248.00,3030.90370,N,11420.32318,E,2,09,0.99,39.6,M,-10.8,M,,0000*5D
$GNGSA,A,3,08,27,31,21,41,,,,,,,,1.62,0.99,1.28*1B
$GNGSA,A,3,84,71,72,85,,,,,,,,,1.62,0.99,1.28*10
$GPGSV,4,1,14,03,04,229,16,07,05,306,,08,43,200,35,09,30,308,20*7F
$GPGSV,4,2,14,21,10,059,11,22,00,210,,23,52,279,27,26,39,044,*76
$GPGSV,4,3,14,27,72,166,38,31,28,106,33,40,18,253,,41,41,230,42*70
$GPGSV,4,4,14,42,41,130,29,50,41,130,29*7F
$GLGSV,3,1,11,65,16,316,24,71,18,216,44,72,31,269,32,73,40,048,10*6D
$GLGSV,3,2,11,74,41,340,,75,06,296,,80,01,092,,83,33,046,*67
$GLGSV,3,3,11,84,49,127,41,85,13,178,36,,,,42*67
$GNGLL,3030.90370,N,11420.32318,E,102248.00,A,D*7F
$GNRMC,102249.00,A,3030.90363,N,11420.32319,E,0.141,,160119,,,D*6E
$GNVTG,,T,,M,0.141,N,0.262,K,D*3A
$GNGGA,102249.00,3030.90363,N,11420.32319,E,2,09,0.99,39.8,M,-10.8,M,,0000*51
$GNGSA,A,3,08,27,31,21,41,,,,,,,,1.62,0.99,1.28*1B
$GNGSA,A,3,84,71,72,85,,,,,,,,,1.62,0.99,1.28*10
$GPGSV,4,1,14,03,04,229,19,07,05,306,,08,43,200,34,09,30,308,18*7A
$GPGSV,4,2,14,21,10,059,10,22,00,210,,23,52,279,27,26,39,044,*77
$GPGSV,4,3,14,27,72,166,38,31,28,106,33,40,18,253,,41,41,230,42*70
$GPGSV,4,4,14,42,41,130,29,50,41,130,30*77
$GLGSV,3,1,11,65,16,316,21,71,18,216,44,72,31,269,32,73,40,048,15*6D
$GLGSV,3,2,11,74,41,340,23,75,06,296,,80,01,092,,83,33,046,23*67
$GLGSV,3,3,11,84,49,127,41,85,13,178,36,,,,42*67
$GNGLL,3030.90363,N,11420.32319,E,102249.00,A,D*7D
$GNRMC,102250.00,A,3030.90356,N,11420.32320,E,0.223,,160119,,,D*6D
$GNVTG,,T,,M,0.223,N,0.413,K,D*3D
$GNGGA,102250.00,3030.90356,N,11420.32320,E,2,09,1.50,40.0,M,-10.8,M,,0000*57
$GNGSA,A,3,08,27,31,21,41,,,,,,,,2.29,1.50,1.73*1D
$GNGSA,A,3,84,71,72,85,,,,,,,,,2.29,1.50,1.73*16
$GPGSV,4,1,14,03,04,229,20,07,05,306,,08,43,200,34,09,30,308,18*70
$GPGSV,4,2,14,21,10,059,12,22,00,210,,23,52,279,27,26,39,044,*75
$GPGSV,4,3,14,27,72,166,37,31,28,106,33,40,18,253,,41,41,230,42*7F
$GPGSV,4,4,14,42,41,130,29,50,41,130,30*77
$GLGSV,3,1,11,65,16,316,20,71,18,216,44,72,31,269,31,73,40,048,20*69
$GLGSV,3,2,11,74,41,340,22,75,06,296,,80,01,092,,83,33,046,21*64
$GLGSV,3,3,11,84,49,127,41,85,13,178,37,,,,43*67
$GNGLL,3030.90356,N,11420.32320,E,102250.00,A,D*79
$GNRMC,102251.00,A,3030.90343,N,11420.32324,E,0.269,,160119,,,D*62
$GNVTG,,T,,M,0.269,N,0.498,K,D*30
$GNGGA,102251.00,3030.90343,N,11420.32324,E,2,11,0.99,40.3,M,-10.8,M,,0000*58
$GNGSA,A,3,08,27,31,21,41,,,,,,,,1.62,0.99,1.28*1B
$GNGSA,A,3,84,65,71,72,83,85,,,,,,,1.62,0.99,1.28*18
$GPGSV,4,1,14,03,04,229,21,07,05,306,,08,43,200,34,09,30,308,19*70
$GPGSV,4,2,14,21,10,059,13,22,00,210,,23,52,279,27,26,39,044,*74
$GPGSV,4,3,14,27,72,166,37,31,28,106,32,40,18,253,,41,41,230,42*7E
$GPGSV,4,4,14,42,41,130,29,50,41,130,30*77
$GLGSV,3,1,11,65,16,316,17,71,18,216,44,72,31,269,32,73,40,048,23*6D
$GLGSV,3,2,11,74,41,340,21,75,06,296,25,80,01,092,,83,33,046,21*60
$GLGSV,3,3,11,84,49,127,41,85,13,178,36,,,,43*66
$GNGLL,3030.90343,N,11420.32324,E,102251.00,A,D*78
$GNRMC,102252.00,A,3030.90323,N,11420.32328,E,0.052,,160119,,,D*61
$GNVTG,,T,,M,0.052,N,0.096,K,D*30
$GNGGA,102252.00,3030.90323,N,11420.32328,E,2,10,0.99,40.6,M,-10.8,M,,0000*55
$GNGSA,A,3,08,27,31,21,41,,,,,,,,1.62,0.99,1.28*1B
$GNGSA,A,3,84,71,72,83,85,,,,,,,,1.62,0.99,1.28*1B
$GPGSV,4,1,14,03,04,229,20,07,05,306,21,08,43,200,32,09,30,308,19*74
$GPGSV,4,2,14,21,10,059,20,22,00,210,,23,52,279,28,26,39,044,*7B
$GPGSV,4,3,14,27,72,166,37,31,28,106,32,40,18,253,,41,41,230,42*7E
$GPGSV,4,4,14,42,41,130,29,50,41,130,30*77
$GLGSV,3,1,11,65,16,316,,71,18,216,44,72,31,269,32,73,40,048,24*6C
$GLGSV,3,2,11,74,41,340,18,75,06,296,24,80,01,092,,83,33,046,21*6B
$GLGSV,3,3,11,84,49,127,41,85,13,178,35,,,,43*65
$GNGLL,3030.90323,N,11420.32328,E,102252.00,A,D*71
$GNRMC,102253.00,A,3030.90295,N,11420.32333,E,0.077,,160119,,,D*61
$GNVTG,,T,,M,0.077,N,0.143,K,D*3E
$GNGGA,102253.00,3030.90295,N,11420.32333,E,2,09,1.50,41.2,M,-10.8,M,,0000*5B
$GNGSA,A,3,08,27,31,41,,,,,,,,,2.29,1.50,1.73*1E
$GNGSA,A,3,84,71,72,83,85,,,,,,,,2.29,1.50,1.73*1D
$GPGSV,4,1,14,03,04,229,17,07,05,306,21,08,43,200,32,09,30,308,20*7A
$GPGSV,4,2,14,21,10,059,08,22,00,210,,23,52,279,28,26,39,044,*71
$GPGSV,4,3,14,27,72,166,38,31,28,106,32,40,18,253,,41,41,230,42*71
$GPGSV,4,4,14,42,41,130,29,50,41,130,30*77
$GLGSV,3,1,11,65,16,316,,71,18,216,43,72,31,269,33,73,40,048,22*6C
$GLGSV,3,2,11,74,41,340,15,75,06,296,22,80,01,092,,83,33,046,20*61
$GLGSV,3,3,11,84,49,127,41,85,13,178,35,,,,43*65
$GNGLL,3030.90295,N,11420.32333,E,102253.00,A,D*76
$GNRMC,102254.00,A,3030.90262,N,11420.32339,E,0.042,,160119,,,D*62
$GNVTG,,T,,M,0.042,N,0.077,K,D*3E
$GNGGA,102254.00,3030.90262,N,11420.32339,E,2,10,0.99,41.8,M,-10.8,M,,0000*58
$GNGSA,A,3,08,27,31,21,41,,,,,,,,1.62,0.99,1.28*1B
$GNGSA,A,3,84,71,72,83,85,,,,,,,,1.62,0.99,1.28*1B
$GPGSV,4,1,14,03,04,229,17,07,05,306,20,08,43,200,33,09,30,308,22*78
$GPGSV,4,2,14,21,10,059,14,22,00,210,,23,52,279,28,26,39,044,*7C
$GPGSV,4,3,14,27,72,166,38,31,28,106,32,40,18,253,,41,41,230,42*71
$GPGSV,4,4,14,42,41,130,29,50,41,130,30*77
$GLGSV,3,1,11,65,16,316,17,71,18,216,42,72,31,269,33,73,40,048,20*69
$GLGSV,3,2,11,74,41,340,15,75,06,296,23,80,01,092,,83,33,046,20*60
$GLGSV,3,3,11,84,49,127,41,85,13,178,35,,,,43*65
$GNGLL,3030.90262,N,11420.32339,E,102254.00,A,D*73
$GNRMC,102255.00,A,3030.90234,N,11420.32344,E,0.074,,160119,,,D*6F
$GNVTG,,T,,M,0.074,N,0.137,K,D*3E
$GNGGA,102255.00,3030.90234,N,11420.32344,E,2,10,0.99,42.3,M,-10.8,M,,0000*58
$GNGSA,A,3,08,27,31,21,41,,,,,,,,1.62,0.99,1.28*1B
$GNGSA,A,3,84,71,72,83,85,,,,,,,,1.62,0.99,1.28*1B
$GPGSV,4,1,14,03,04,229,16,07,05,306,20,08,43,200,33,09,30,308,22*79
$GPGSV,4,2,14,21,10,059,17,22,00,210,,23,52,279,28,26,39,044,*7F
$GPGSV,4,3,14,27,72,166,38,31,28,106,32,40,18,253,,41,41,230,42*71
$GPGSV,4,4,14,42,41,130,29,50,41,130,29*7F
$GLGSV,3,1,11,65,16,316,19,71,18,216,42,72,31,269,33,73,40,048,16*62
$GLGSV,3,2,11,74,41,340,16,75,06,296,25,80,01,092,,83,33,046,23*66
$GLGSV,3,3,11,84,49,127,41,85,13,178,35,,,,43*65
$GNGLL,3030.90234,N,11420.32344,E,102255.00,A,D*7B
$GNRMC,102256.00,A,3030.90212,N,11420.32349,E,0.123,,160119,,,D*66
$GNVTG,,T,,M,0.123,N,0.227,K,D*3F
$GNGGA,102256.00,3030.90212,N,11420.32349,E,2,11,0.99,42.7,M,-10.8,M,,0000*57
$GNGSA,A,3,08,27,31,21,41,,,,,,,,1.62,0.99,1.28*1B
$GNGSA,A,3,84,65,71,72,83,85,,,,,,,1.62,0.99,1.28*18
$GPGSV,4,1,14,03,04,229,16,07,05,306,21,08,43,200,34,09,30,308,22*7F
$GPGSV,4,2,14,21,10,059,18,22,00,210,,23,52,279,28,26,39,044,*70
$GPGSV,4,3,14,27,72,166,38,31,28,106,32,40,18,253,,41,41,230,41*72
$GPGSV,4,4,14,42,41,130,30,50,41,130,30*7F
$GLGSV,3,1,11,65,16,316,22,71,18,216,43,72,31,269,33,73,40,048,*6C
$GLGSV,3,2,11,74,41,340,14,75,06,296,27,80,01,092,,83,33,046,24*61
$GLGSV,3,3,11,84,49,127,41,85,13,178,36,,,,43*66
$GNGLL,3030.90212,N,11420.32349,E,102256.00,A,D*71
$GNRMC,102257.00,A,3030.90193,N,11420.32351,E,0.121,,160119,,,D*66
$GNVTG,,T,,M,0.121,N,0.225,K,D*3F
$GNGGA,102257.00,3030.90193,N,11420.32351,E,2,10,0.99,43.0,M,-10.8,M,,0000*52
$GNGSA,A,3,08,27,31,21,41,,,,,,,,1.61,0.99,1.28*18
$GNGSA,A,3,84,71,72,83,85,,,,,,,,1.61,0.99,1.28*18
$GPGSV,4,1,14,03,04,229,15,07,05,306,21,08,43,200,34,09,30,308,22*7C
$GPGSV,4,2,14,21,10,059,18,22,00,210,,23,52,279,28,26,39,044,*70
$GPGSV,4,3,14,27,72,166,38,31,28,106,31,40,18,253,,41,41,230,41*71
$GPGSV,4,4,14,42,41,130,28,50,41,130,29*7E
$GLGSV,3,1,11,65,16,316,,71,18,216,42,72,31,269,33,73,40,048,*6D
$GLGSV,3,2,11,74,41,340,15,75,06,296,26,80,01,092,,83,33,046,24*61
$GLGSV,3,3,11,84,49,127,41,85,13,178,37,,,,43*67
$GNGLL,3030.90193,N,11420.32351,E,102257.00,A,D*73
$GNRMC,102258.00,A,3030.90173,N,11420.32349,E,0.239,,160119,,,D*64
$GNVTG,,T,,M,0.239,N,0.443,K,D*33
$GNGGA,102258.00,3030.90173,N,11420.32349,E,2,10,0.99,43.4,M,-10.8,M,,0000*5E
$GNGSA,A,3,08,27,31,21,41,,,,,,,,1.61,0.99,1.28*18
$GNGSA,A,3,84,71,72,83,85,,,,,,,,1.61,0.99,1.28*18
$GPGSV,4,1,14,03,04,229,16,07,05,306,21,08,43,200,34,09,30,308,22*7F
$GPGSV,4,2,14,21,10,059,18,22,00,210,,23,52,279,28,26,39,044,*70
$GPGSV,4,3,14,27,72,166,38,31,28,106,31,40,18,253,,41,41,230,41*71
$GPGSV,4,4,14,42,41,130,28,50,41,130,29*7E
$GLGSV,3,1,11,65,16,316,25,71,18,216,41,72,31,269,33,73,40,048,*69
$GLGSV,3,2,11,74,41,340,13,75,06,296,24,80,01,092,,83,33,046,23*62
$GLGSV,3,3,11,84,49,127,41,85,13,178,37,,,,42*66
$GNGLL,3030.90173,N,11420.32349,E,102258.00,A,D*7B
$GNRMC,102259.00,A,3030.90151,N,11420.32346,E,0.302,,160119,,,D*63
$GNVTG,,T,,M,0.302,N,0.560,K,D*3A
$GNGGA,102259.00,3030.90151,N,11420.32346,E,2,11,0.99,43.8,M,-10.8,M,,0000*5D
$GNGSA,A,3,08,27,31,21,41,,,,,,,,1.61,0.99,1.28*18
$GNGSA,A,3,84,65,71,72,83,85,,,,,,,1.61,0.99,1.28*1B
$GPGSV,4,1,14,03,04,229,17,07,05,306,22,08,43,200,33,09,30,308,22*7A
$GPGSV,4,2,14,21,10,059,18,22,00,210,,23,52,279,27,26,39,044,*7F
$GPGSV,4,3,14,27,72,166,37,31,28,106,30,40,18,253,,41,41,230,41*7F
$GPGSV,4,4,14,42,41,130,28,50,41,130,28*7F
$GLGSV,3,1,11,65,16,316,27,71,18,216,41,72,31,269,33,73,40,048,*6B
$GLGSV,3,2,11,74,41,340,12,75,06,296,23,80,01,092,,83,33,046,22*65
$GLGSV,3,3,11,84,49,127,41,85,13,178,37,,,,42*66
$GNGLL,3030.90151,N,11420.32346,E,102259.00,A,D*75
$GNRMC,102300.00,A,3030.90133,N,11420.32345,E,0.364,,160119,,,D*69
$GNVTG,,T,,M,0.364,N,0.674,K,D*3C
$GNGGA,102300.00,3030.90133,N,11420.32345,E,2,10,0.99,44.1,M,-10.8,M,,0000*58
$GNGSA,A,3,08,27,31,21,41,,,,,,,,1.61,0.99,1.28*18
$GNGSA,A,3,84,71,72,83,85,,,,,,,,1.61,0.99,1.28*18
$GPGSV,4,1,14,03,04,229,17,07,05,306,21,08,43,200,33,09,30,308,21*7A
$GPGSV,4,2,14,21,10,059,17,22,00,210,,23,52,279,26,26,39,044,*71
$GPGSV,4,3,14,27,72,166,37,31,28,106,30,40,18,253,,41,41,230,40*7E
$GPGSV,4,4,14,42,41,130,28,50,41,130,28*7F
$GLGSV,3,1,11,65,16,316,,71,18,216,41,72,31,269,33,73,40,048,*6E
$GLGSV,3,2,11,74,41,340,13,75,06,296,24,80,01,092,,83,33,046,21*60
$GLGSV,3,3,11,84,49,127,41,85,13,178,37,,,,43*67
$GNGLL,3030.90133,N,11420.32345,E,102300.00,A,D*7F
$GNRMC,102301.00,A,3030.90117,N,11420.32346,E,0.218,,160119,,,D*67
$GNVTG,,T,,M,0.218,N,0.404,K,D*33
$GNGGA,102301.00,3030.90117,N,11420.32346,E,2,10,0.99,44.3,M,-10.8,M,,0000*5E
$GNGSA,A,3,08,27,31,21,41,,,,,,,,1.61,0.99,1.28*18
$GNGSA,A,3,84,71,72,83,85,,,,,,,,1.61,0.99,1.28*18
$GPGSV,4,1,14,03,04,229,17,07,05,306,20,08,43,200,33,09,30,308,20*7A
$GPGSV,4,2,14,21,10,059,16,22,00,210,,23,52,279,26,26,39,044,*70
$GPGSV,4,3,14,27,72,166,37,31,28,106,29,40,18,253,,41,41,230,40*76
$GPGSV,4,4,14,42,41,130,27,50,41,130,28*70
$GLGSV,3,1,11,65,16,316,26,71,18,216,41,72,31,269,33,73,40,048,20*68
$GLGSV,3,2,11,74,41,340,18,75,06,296,26,80,01,092,,83,33,046,22*6A
$GLGSV,3,3,11,84,49,127,41,85,13,178,37,,,,43*67
$GNGLL,3030.90117,N,11420.32346,E,102301.00,A,D*7B
$GNRMC,102302.00,A,3030.90102,N,11420.32348,E,0.144,,160119,,,D*64
$GNVTG,,T,,M,0.144,N,0.267,K,D*3A
$GNGGA,102302.00,3030.90102,N,11420.32348,E,2,10,1.50,44.4,M,-10.8,M,,0000*54
$GNGSA,A,3,08,27,31,21,41,,,,,,,,2.29,1.50,1.73*1D
$GNGSA,A,3,84,71,72,83,85,,,,,,,,2.29,1.50,1.73*1D
$GPGSV,4,1,14,03,04,229,16,07,05,306,20,08,43,200,33,09,30,308,20*7B
$GPGSV,4,2,14,21,10,059,16,22,00,210,,23,52,279,26,26,39,044,*70
$GPGSV,4,3,14,27,72,166,37,31,28,106,29,40,18,253,,41,41,230,40*76
$GPGSV,4,4,14,42,41,130,27,50,41,130,28*70
$GLGSV,3,1,11,65,16,316,25,71,18,216,41,72,31,269,33,73,40,048,19*61
$GLGSV,3,2,11,74,41,340,21,75,06,296,26,80,01,092,,83,33,046,23*61
$GLGSV,3,3,11,84,49,127,41,85,13,178,38,,,,43*68
$GNGLL,3030.90102,N,11420.32348,E,102302.00,A,D*72
$GNRMC,102303.00,A,3030.90090,N,11420.32352,E,0.108,,160119,,,D*6C
$GNVTG,,T,,M,0.108,N,0.200,K,D*33
$GNGGA,102303.00,3030.90090,N,11420.32352,E,2,11,0.99,44.5,M,-10.8,M,,0000*50
$GNGSA,A,3,08,27,31,21,41,,,,,,,,1.61,0.99,1.28*18
$GNGSA,A,3,84,65,71,72,83,85,,,,,,,1.61,0.99,1.28*1B
$GPGSV,4,1,14,03,04,229,15,07,05,306,19,08,43,200,33,09,30,308,20*72
$GPGSV,4,2,14,21,10,059,14,22,00,210,,23,52,279,26,26,39,044,*72
$GPGSV,4,3,14,27,72,166,37,31,28,106,29,40,18,253,,41,41,230,40*76
$GPGSV,4,4,14,42,41,130,27,50,41,130,28*70
$GLGSV,3,1,11,65,16,316,25,71,18,216,41,72,31,269,33,73,40,048,20*6B
$GLGSV,3,2,11,74,41,340,24,75,06,296,23,80,01,092,,83,33,046,24*66
$GLGSV,3,3,11,84,49,127,41,85,13,178,37,,,,43*67
$GNGLL,3030.90090,N,11420.32352,E,102303.00,A,D*72
$GNRMC,102304.00,A,3030.90077,N,11420.32354,E,0.110,,160119,,,D*6D
$GNVTG,,T,,M,0.110,N,0.203,K,D*39
$GNGGA,102304.00,3030.90077,N,11420.32354,E,2,10,1.50,44.6,M,-10.8,M,,0000*5E
$GNGSA,A,3,08,27,31,21,41,,,,,,,,2.29,1.50,1.73*1D
$GNGSA,A,3,84,71,72,83,85,,,,,,,,2.29,1.50,1.73*1D
$GPGSV,4,1,14,03,04,229,15,07,05,306,19,08,43,200,33,09,30,308,20*72
$GPGSV,4,2,14,21,10,059,12,22,00,210,,23,52,279,26,26,39,044,*74
$GPGSV,4,3,14,27,72,166,37,31,28,106,29,40,18,253,,41,41,230,40*76
$GPGSV,4,4,14,42,41,130,28,50,41,130,28*7F
$GLGSV,3,1,11,65,16,316,,71,18,216,41,72,31,269,33,73,40,048,23*6F
$GLGSV,3,2,11,74,41,340,24,75,06,296,21,80,01,092,,83,33,046,24*64
$GLGSV,3,3,11,84,49,127,41,85,13,178,38,,,,43*68
$GNGLL,3030.90077,N,11420.32354,E,102304.00,A,D*7A
$GNRMC,102305.00,A,3030.90065,N,11420.32355,E,0.082,,160119,,,D*64
$GNVTG,,T,,M,0.082,N,0.152,K,D*34
$GNGGA,102305.00,3030.90065,N,11420.32355,E,2,10,1.50,44.7,M,-10.8,M,,0000*5C
$GNGSA,A,3,08,27,31,21,41,,,,,,,,2.29,1.50,1.73*1D
$GNGSA,A,3,84,71,72,83,85,,,,,,,,2.29,1.50,1.73*1D
$GPGSV,4,1,14,03,04,229,14,07,05,306,21,08,43,200,33,09,30,308,20*78
$GPGSV,4,2,14,21,10,059,11,22,00,210,,23,52,279,26,26,39,044,*77
$GPGSV,4,3,14,27,72,166,37,31,28,106,29,40,18,253,,41,41,230,40*76
$GPGSV,4,4,14,42,41,130,28,50,41,130,28*7F
$GLGSV,3,1,11,65,16,316,26,71,18,216,41,72,31,269,33,73,40,048,26*6E
$GLGSV,3,2,11,74,41,340,21,75,06,296,20,80,01,092,,83,33,046,22*66
$GLGSV,3,3,11,84,49,127,41,85,13,178,37,,,,43*67
$GNGLL,3030.90065,N,11420.32355,E,102305.00,A,D*79
$GNRMC,102306.00,A,3030.90054,N,11420.32356,E,0.087,,160119,,,D*63
$GNVTG,,T,,M,0.087,N,0.161,K,D*31
$GNGGA,102306.00,3030.90054,N,11420.32356,E,2,10,1.50,44.8,M,-10.8,M,,0000*51
$GNGSA,A,3,08,27,31,21,41,,,,,,,,2.29,1.50,1.73*1D
$GNGSA,A,3,84,71,72,83,85,,,,,,,,2.29,1.50,1.73*1D
$GPGSV,4,1,14,03,04,229,14,07,05,306,22,08,43,200,33,09,30,308,21*7A
$GPGSV,4,2,14,21,10,059,12,22,00,210,,23,52,279,25,26,39,044,*77
$GPGSV,4,3,14,27,72,166,37,31,28,106,29,40,18,253,,41,41,230,40*76
$GPGSV,4,4,14,42,41,130,28,50,41,130,28*7F
$GLGSV,3,1,11,65,16,316,24,71,18,216,41,72,31,269,33,73,40,048,27*6D
$GLGSV,3,2,11,74,41,340,18,75,06,296,21,80,01,092,,83,33,046,20*6F
$GLGSV,3,3,11,84,49,127,41,85,13,178,37,,,,43*67
$GNGLL,3030.90054,N,11420.32356,E,102306.00,A,D*7B
$GNRMC,102307.00,A,3030.90042,N,11420.32358,E,0.166,,160119,,,D*65
$GNVTG,,T,,M,0.166,N,0.307,K,D*3D
$GNGGA,102307.00,3030.90042,N,11420.32358,E,2,11,1.50,44.9,M,-10.8,M,,0000*59
$GNGSA,A,3,08,27,31,21,41,,,,,,,,2.29,1.50,1.73*1D
$GNGSA,A,3,84,65,71,72,83,85,,,,,,,2.29,1.50,1.73*1E
$GPGSV,4,1,14,03,04,229,13,07,05,306,23,08,43,200,33,09,30,308,21*7C
$GPGSV,4,2,14,21,10,059,13,22,00,210,,23,52,279,25,26,39,044,*76
$GPGSV,4,3,14,27,72,166,37,31,28,106,29,40,18,253,,41,41,230,40*76
$GPGSV,4,4,14,42,41,130,27,50,41,130,29*71
$GLGSV,3,1,11,65,16,316,21,71,18,216,41,72,31,269,33,73,40,048,28*67
$GLGSV,3,2,11,74,41,340,17,75,06,296,22,80,01,092,,83,33,046,17*67
$GLGSV,3,3,11,84,49,127,41,85,13,178,37,,,,43*67
$GNGLL,3030.90042,N,11420.32358,E,102307.00,A,D*73
$GNRMC,102308.00,A,3030.90030,N,11420.32360,E,0.144,,160119,,,D*64
$GNVTG,,T,,M,0.144,N,0.266,K,D*3B
$GNGGA,102308.00,3030.90030,N,11420.32360,E,2,10,1.50,45.0,M,-10.8,M,,0000*51
$GNGSA,A,3,08,27,31,21,41,,,,,,,,2.29,1.50,1.73*1D
$GNGSA,A,3,84,71,72,83,85,,,,,,,,2.29,1.50,1.73*1D
$GPGSV,4,1,14,03,04,229,12,07,05,306,22,08,43,200,34,09,30,308,22*78
$GPGSV,4,2,14,21,10,059,14,22,00,210,,23,52,279,26,26,39,044,*72
$GPGSV,4,3,14,27,72,166,37,31,28,106,29,40,18,253,,41,41,230,40*76
$GPGSV,4,4,14,42,41,130,27,50,41,130,29*71
$GLGSV,3,1,11,65,16,316,26,71,18,216,41,72,31,269,33,73,40,048,27*6F
$GLGSV,3,2,11,74,41,340,18,75,06,296,20,80,01,092,,83,33,046,14*69
$GLGSV,3,3,11,84,49,127,41,85,13,178,37,,,,43*67
$GNGLL,3030.90030,N,11420.32360,E,102308.00,A,D*72
$GNRMC,102309.00,A,3030.90020,N,11420.32360,E,0.142,,160119,,,D*62
$GNVTG,,T,,M,0.142,N,0.263,K,D*38
$GNGGA,102309.00,3030.90020,N,11420.32360,E,2,10,1.50,45.1,M,-10.8,M,,0000*50
$GNGSA,A,3,08,27,31,21,41,,,,,,,,2.29,1.50,1.73*1D
$GNGSA,A,3,84,71,72,83,85,,,,,,,,2.29,1.50,1.73*1D
$GPGSV,4,1,14,03,04,229,10,07,05,306,21,08,43,200,34,09,30,308,22*79
$GPGSV,4,2,14,21,10,059,15,22,00,210,,23,52,279,26,26,39,044,*73
$GPGSV,4,3,14,27,72,166,37,31,28,106,29,40,18,253,,41,41,230,40*76
$GPGSV,4,4,14,42,41,130,28,50,41,130,28*7F
$GLGSV,3,1,10,65,16,316,27,71,18,216,41,72,31,269,33,73,40,048,24*6C
$GLGSV,3,2,10,74,41,340,19,75,06,296,16,80,01,092,,83,33,046,15*6D
$GLGSV,3,3,10,84,49,127,41,85,13,178,36*60
$GNGLL,3030.90020,N,11420.32360,E,102309.00,A,D*72
$GNRMC,102310.00,A,3030.90009,N,11420.32362,E,0.250,,160119,,,D*63
$GNVTG,,T,,M,0.250,N,0.464,K,D*39
$GNGGA,102310.00,3030.90009,N,11420.32362,E,2,11,1.50,45.2,M,-10.8,M,,0000*53
$GNGSA,A,3,08,27,31,21,41,,,,,,,,2.29,1.50,1.73*1D
$GNGSA,A,3,84,65,71,72,83,85,,,,,,,2.29,1.50,1.73*1E
$GPGSV,4,1,14,03,04,229,09,07,05,306,19,08,43,200,34,09,30,308,22*7A
$GPGSV,4,2,14,21,10,059,17,22,00,210,,23,52,279,26,26,39,044,*71
$GPGSV,4,3,14,27,72,166,37,31,28,106,29,40,18,253,,41,41,230,40*76
$GPGSV,4,4,14,42,41,130,27,50,41,130,28*70
$GLGSV,3,1,11,65,16,316,26,71,18,216,40,72,31,269,33,73,40,048,22*6B
$GLGSV,3,2,11,74,41,340,17,75,06,296,13,80,01,092,,83,33,046,17*65
$GLGSV,3,3,11,84,49,127,41,85,13,178,37,,,,43*67
$GNGLL,3030.90009,N,11420.32362,E,102310.00,A,D*73
$GNRMC,102311.00,A,3030.89999,N,11420.32363,E,0.197,,160119,,,D*63
$GNVTG,,T,,M,0.197,N,0.366,K,D*34
$GNGGA,102311.00,3030.89999,N,11420.32363,E,2,10,1.50,45.3,M,-10.8,M,,0000*5B
$GNGSA,A,3,08,27,31,21,41,,,,,,,,2.29,1.50,1.73*1D
$GNGSA,A,3,84,71,72,83,85,,,,,,,,2.29,1.50,1.73*1D
$GPGSV,4,1,14,03,04,229,10,07,05,306,18,08,43,200,34,09,30,308,23*72
$GPGSV,4,2,14,21,10,059,18,22,00,210,,23,52,279,26,26,39,044,*7E
$GPGSV,4,3,14,27,72,166,37,31,28,106,29,40,18,253,,41,41,230,40*76
